$GPRMC,065616.872,A,3114.3481464,N,12129.1416305,E,8.37,42.59,210523,0.0,E,A,V*43
$GPGGA,065616.872,3114.3481464,N,12129.1416305,E,1,21,1.0,4.016,M,11.082,M,-85101016.0,0000*63
$GPESA,065616.872,+0.544,-4.268,-0.133,-0.357,+1.351,-173.329*7B
$GPESD,065616.872,0.000,0.000,0.000,0.000,0.000,0.000,0.000,0.000,0.000*7A
$GPRMC,065616.992,A,3114.3478979,N,12129.1416578,E,8.48,43.39,210523,0.0,E,A,V*48
$GPGGA,065616.992,3114.3478979,N,12129.1416578,E,1,21,1.0,3.764,M,11.082,M,-85101016.0,0000*62
$GPESA,065616.992,+0.562,-4.320,-0.215,-0.615,+1.522,-173.577*76
$GPESD,065616.992,0.000,0.000,0.000,0.000,0.000,0.000,0.000,0.000,0.000*75
$GPRMC,065617.109,A,3114.3476449,N,12129.1416814,E,8.53,44.89,210523,0.0,E,A,V*42
$GPGGA,065617.109,3114.3476449,N,12129.1416814,E,1,21,1.0,3.531,M,11.082,M,-85101016.0,0000*6C
$GPESA,065617.109,+0.469,-4.359,-0.200,-0.804,+1.592,-173.606*7D
$GPESD,065617.109,0.000,0.000,0.000,0.000,0.000,0.000,0.000,0.000,0.000*7E
$GPRMC,065617.219,A,3114.3474153,N,12129.1417170,E,8.58,44.04,210523,0.0,E,A,V*48
$GPGGA,065617.219,3114.3474153,N,12129.1417170,E,1,22,1.0,3.303,M,11.082,M,-85101016.0,0000*6C
$GPESA,065617.219,+0.521,-4.381,-0.202,-0.842,+1.362,-173.578*74
$GPESD,065617.219,0.000,0.000,0.000,0.000,0.000,0.000,0.000,0.000,0.000*7C
$GPRMC,065617.334,A,3114.3471717,N,12129.1417602,E,8.67,44.42,210523,0.0,E,A,V*49
$GPGGA,065617.334,3114.3471717,N,12129.1417602,E,1,22,1.0,3.090,M,11.082,M,-85101016.0,0000*6A
$GPESA,065617.334,+0.465,-4.432,-0.151,-0.965,+1.292,-173.544*74
$GPESD,065617.334,0.000,0.000,0.000,0.000,0.000,0.000,0.000,0.000,0.000*72
$GPRMC,065617.487,A,3114.3468607,N,12129.1418014,E,8.70,44.86,210523,0.0,E,A,V*4E
$GPGGA,065617.487,3114.3468607,N,12129.1418014,E,1,23,1.0,2.662,M,11.082,M,-85101016.0,0000*68
$GPESA,065617.487,+0.485,-4.445,-0.211,-1.108,+1.712,-173.676*7F
$GPESD,065617.487,0.000,0.000,0.000,0.000,0.000,0.000,0.000,0.000,0.000*7D
$GPRMC,065617.632,A,3114.3465491,N,12129.1418557,E,8.36,43.35,210523,0.0,E,A,V*4D
$GPGGA,065617.632,3114.3465491,N,12129.1418557,E,1,23,1.0,2.463,M,11.082,M,-85101016.0,0000*65
$GPESA,065617.632,+0.491,-4.271,-0.120,-0.536,+1.494,-173.654*73
$GPESD,065617.632,0.000,0.000,0.000,0.000,0.000,0.000,0.000,0.000,0.000*71
$GPRMC,065617.772,A,3114.3462563,N,12129.1419114,E,8.53,46.17,210523,0.0,E,A,V*47
$GPGGA,065617.772,3114.3462563,N,12129.1419114,E,1,20,1.0,2.111,M,11.082,M,-85101016.0,0000*6A
$GPESA,065617.772,+0.411,-4.364,-0.222,-0.650,+1.209,-173.758*76
$GPESD,065617.772,0.000,0.000,0.000,0.000,0.000,0.000,0.000,0.000,0.000*74
$GPRMC,065617.872,A,3114.3460307,N,12129.1419395,E,8.61,47.29,210523,0.0,E,A,V*48
$GPGGA,065617.872,3114.3460307,N,12129.1419395,E,1,21,1.0,1.923,M,11.082,M,-85101016.0,0000*63
$GPESA,065617.872,+0.392,-4.404,-0.280,-0.699,+1.114,-173.833*74
$GPESD,065617.872,0.000,0.000,0.000,0.000,0.000,0.000,0.000,0.000,0.000*7B
$GPRMC,065617.973,A,3114.3458066,N,12129.1419735,E,8.77,47.06,210523,0.0,E,A,V*43
$GPGGA,065617.973,3114.3458066,N,12129.1419735,E,1,21,1.0,1.748,M,11.082,M,-85101016.0,0000*61
$GPESA,065617.973,+0.379,-4.491,-0.242,-0.758,+0.958,-173.807*79
$GPESD,065617.973,0.000,0.000,0.000,0.000,0.000,0.000,0.000,0.000,0.000*7B
$GPRMC,065618.140,A,3114.3454063,N,12129.1420148,E,8.99,46.57,210523,0.0,E,A,V*4E
$GPGGA,065618.140,3114.3454063,N,12129.1420148,E,1,21,1.0,1.608,M,11.082,M,-85101016.0,0000*6C
$GPESA,065618.140,+0.401,-4.600,-0.226,-1.111,+1.150,-173.871*74
$GPESD,065618.140,0.000,0.000,0.000,0.000,0.000,0.000,0.000,0.000,0.000*7C
$GPRMC,065618.270,A,3114.3451014,N,12129.1420698,E,9.04,45.54,210523,0.0,E,A,V*44
$GPGGA,065618.270,3114.3451014,N,12129.1420698,E,1,22,1.0,1.393,M,11.082,M,-85101016.0,0000*67
$GPESA,065618.270,+0.475,-4.618,-0.235,-1.315,+1.065,-173.895*77
$GPESD,065618.270,0.000,0.000,0.000,0.000,0.000,0.000,0.000,0.000,0.000*7C
$GPRMC,065618.410,A,3114.3447720,N,12129.1421327,E,9.01,47.85,210523,0.0,E,A,V*48
$GPGGA,065618.410,3114.3447720,N,12129.1421327,E,1,21,1.0,1.300,M,11.082,M,-85101016.0,0000*69
$GPESA,065618.410,+0.403,-4.607,-0.327,-1.283,+1.066,-173.910*7B
$GPESD,065618.410,0.000,0.000,0.000,0.000,0.000,0.000,0.000,0.000,0.000*7C
$GPRMC,065618.511,A,3114.3445463,N,12129.1422127,E,9.13,47.16,210523,0.0,E,A,V*46
$GPGGA,065618.511,3114.3445463,N,12129.1422127,E,1,22,1.0,1.242,M,11.082,M,-85101016.0,0000*6A
$GPESA,065618.511,+0.433,-4.666,-0.308,-1.197,+0.898,-173.927*78
$GPESD,065618.511,0.000,0.000,0.000,0.000,0.000,0.000,0.000,0.000,0.000*7C
$GPRMC,065618.611,A,3114.3443084,N,12129.1422907,E,9.24,46.18,210523,0.0,E,A,V*4F
$GPGGA,065618.611,3114.3443084,N,12129.1422907,E,1,21,1.0,1.219,M,11.082,M,-85101016.0,0000*65
$GPESA,065618.611,+0.489,-4.717,-0.298,-1.249,+0.671,-173.979*77
$GPESD,065618.611,0.000,0.000,0.000,0.000,0.000,0.000,0.000,0.000,0.000*7F
$GPRMC,065618.753,A,3114.3439675,N,12129.1424240,E,9.31,44.28,210523,0.0,E,A,V*46
$GPGGA,065618.753,3114.3439675,N,12129.1424240,E,1,21,1.0,1.261,M,11.082,M,-85101016.0,0000*66
$GPESA,065618.753,+0.587,-4.748,-0.268,-1.238,+0.492,-174.034*74
$GPESD,065618.753,0.000,0.000,0.000,0.000,0.000,0.000,0.000,0.000,0.000*78
$GPRMC,065618.896,A,3114.3436162,N,12129.1425159,E,9.41,43.38,210523,0.0,E,A,V*45
$GPGGA,065618.896,3114.3436162,N,12129.1425159,E,1,22,1.0,1.275,M,11.082,M,-85101016.0,0000*62
$GPESA,065618.896,+0.664,-4.784,-0.293,-1.243,+0.430,-173.995*79
$GPESD,065618.896,0.000,0.000,0.000,0.000,0.000,0.000,0.000,0.000,0.000*7E
$GPRMC,065618.998,A,3114.3433517,N,12129.1425705,E,9.54,42.28,210523,0.0,E,A,V*42
$GPGGA,065618.998,3114.3433517,N,12129.1425705,E,1,20,1.0,1.306,M,11.082,M,-85101016.0,0000*66
$GPESA,065618.998,+0.741,-4.841,-0.300,-1.322,+0.307,-173.977*74
$GPESD,065618.998,0.000,0.000,0.000,0.000,0.000,0.000,0.000,0.000,0.000*71
$GPRMC,065619.134,A,3114.3429974,N,12129.1426324,E,9.51,42.87,210523,0.0,E,A,V*4B
$GPGGA,065619.134,3114.3429974,N,12129.1426324,E,1,19,1.0,1.328,M,11.082,M,-85101016.0,0000*69
$GPESA,065619.134,+0.724,-4.829,-0.327,-1.331,-0.048,-173.942*79
$GPESD,065619.134,0.000,0.000,0.000,0.000,0.000,0.000,0.000,0.000,0.000*7E
$GPRMC,065619.244,A,3114.3427170,N,12129.1426780,E,9.52,43.32,210523,0.0,E,A,V*4B
$GPGGA,065619.244,3114.3427170,N,12129.1426780,E,1,22,1.0,1.389,M,11.082,M,-85101016.0,0000*66
$GPESA,065619.244,+0.691,-4.838,-0.317,-1.251,+0.169,-173.933*74
$GPESD,065619.244,0.000,0.000,0.000,0.000,0.000,0.000,0.000,0.000,0.000*7A
$GPRMC,065619.364,A,3114.3424021,N,12129.1427328,E,9.61,42.34,210523,0.0,E,A,V*4E
$GPGGA,065619.364,3114.3424021,N,12129.1427328,E,1,22,1.0,1.404,M,11.082,M,-85101016.0,0000*66
$GPESA,065619.364,+0.731,-4.882,-0.283,-1.216,+0.317,-173.920*7B
$GPESD,065619.364,0.000,0.000,0.000,0.000,0.000,0.000,0.000,0.000,0.000*79
$GPRMC,065619.531,A,3114.3419564,N,12129.1428176,E,9.65,41.16,210523,0.0,E,A,V*43
$GPGGA,065619.531,3114.3419564,N,12129.1428176,E,1,22,1.0,1.417,M,11.082,M,-85101016.0,0000*6E
$GPESA,065619.531,+0.848,-4.879,-0.350,-1.086,+0.204,-173.835*7A
$GPESD,065619.531,0.000,0.000,0.000,0.000,0.000,0.000,0.000,0.000,0.000*7F
$GPRMC,065619.672,A,3114.3415832,N,12129.1428957,E,9.80,41.31,210523,0.0,E,A,V*40
$GPGGA,065619.672,3114.3415832,N,12129.1428957,E,1,21,1.0,1.444,M,11.082,M,-85101016.0,0000*66
$GPESA,065619.672,+0.855,-4.955,-0.360,-1.168,-0.234,-173.795*7F
$GPESD,065619.672,0.000,0.000,0.000,0.000,0.000,0.000,0.000,0.000,0.000*7B
$GPRMC,065619.792,A,3114.3412817,N,12129.1430230,E,9.83,42.61,210523,0.0,E,A,V*49
$GPGGA,065619.792,3114.3412817,N,12129.1430230,E,1,21,1.0,1.650,M,11.082,M,-85101016.0,0000*6D
$GPESA,065619.792,+0.756,-4.990,-0.327,-1.119,+0.061,-173.547*79
$GPESD,065619.792,0.000,0.000,0.000,0.000,0.000,0.000,0.000,0.000,0.000*74
$GPRMC,065619.917,A,3114.3409608,N,12129.1431121,E,9.81,42.14,210523,0.0,E,A,V*42
$GPGGA,065619.917,3114.3409608,N,12129.1431121,E,1,22,1.0,1.743,M,11.082,M,-85101016.0,0000*66
$GPESA,065619.917,+0.774,-4.976,-0.312,-1.242,+0.145,-173.458*71
$GPESD,065619.917,0.000,0.000,0.000,0.000,0.000,0.000,0.000,0.000,0.000*77
$GPRMC,065620.024,A,3114.3406650,N,12129.1431742,E,9.79,41.59,210523,0.0,E,A,V*4D
$GPGGA,065620.024,3114.3406650,N,12129.1431742,E,1,21,1.0,1.796,M,11.082,M,-85101016.0,0000*6F
$GPESA,065620.024,+0.830,-4.955,-0.348,-1.183,+0.170,-173.418*7F
$GPESD,065620.024,0.000,0.000,0.000,0.000,0.000,0.000,0.000,0.000,0.000*74
$GPRMC,065620.170,A,3114.3402719,N,12129.1432436,E,9.81,40.45,210523,0.0,E,A,V*4D
$GPGGA,065620.170,3114.3402719,N,12129.1432436,E,1,21,1.0,1.824,M,11.082,M,-85101016.0,0000*62
$GPESA,065620.170,+0.891,-4.954,-0.338,-1.169,+0.114,-173.318*73
$GPESD,065620.170,0.000,0.000,0.000,0.000,0.000,0.000,0.000,0.000,0.000*74
$GPRMC,065620.295,A,3114.3399336,N,12129.1432584,E,9.75,41.32,210523,0.0,E,A,V*4B
$GPGGA,065620.295,3114.3399336,N,12129.1432584,E,1,21,1.0,1.902,M,11.082,M,-85101016.0,0000*6B
$GPESA,065620.295,+0.824,-4.939,-0.318,-1.069,+0.256,-173.250*75
$GPESD,065620.295,0.000,0.000,0.000,0.000,0.000,0.000,0.000,0.000,0.000*7C
$GPRMC,065620.430,A,3114.3395741,N,12129.1433121,E,9.70,41.37,210523,0.0,E,A,V*40
$GPGGA,065620.430,3114.3395741,N,12129.1433121,E,1,21,1.0,1.899,M,11.082,M,-85101016.0,0000*63
$GPESA,065620.430,+0.824,-4.912,-0.328,-1.053,+0.236,-173.130*7C
$GPESD,065620.430,0.000,0.000,0.000,0.000,0.000,0.000,0.000,0.000,0.000*75
$GPRMC,065620.565,A,3114.3392327,N,12129.1433634,E,9.63,41.29,210523,0.0,E,A,V*4C
$GPGGA,065620.565,3114.3392327,N,12129.1433634,E,1,23,1.0,1.940,M,11.082,M,-85101016.0,0000*65
$GPESA,065620.565,+0.810,-4.879,-0.306,-1.084,+0.291,-172.930*74
$GPESD,065620.565,0.000,0.000,0.000,0.000,0.000,0.000,0.000,0.000,0.000*74
$GPRMC,065620.685,A,3114.3389159,N,12129.1434070,E,9.57,41.07,210523,0.0,E,A,V*4A
$GPGGA,065620.685,3114.3389159,N,12129.1434070,E,1,23,1.0,1.940,M,11.082,M,-85101016.0,0000*68
$GPESA,065620.685,+0.813,-4.847,-0.297,-1.112,+0.332,-172.832*7B
$GPESD,065620.685,0.000,0.000,0.000,0.000,0.000,0.000,0.000,0.000,0.000*79
$GPRMC,065620.785,A,3114.3386544,N,12129.1434316,E,9.49,40.54,210523,0.0,E,A,V*47
$GPGGA,065620.785,3114.3386544,N,12129.1434316,E,1,23,1.0,1.938,M,11.082,M,-85101016.0,0000*62
$GPESA,065620.785,+0.837,-4.800,-0.296,-1.172,+0.314,-172.750*77
$GPESD,065620.785,0.000,0.000,0.000,0.000,0.000,0.000,0.000,0.000,0.000*78
$GPRMC,065620.898,A,3114.3383675,N,12129.1434615,E,9.32,41.21,210523,0.0,E,A,V*49
$GPGGA,065620.898,3114.3383675,N,12129.1434615,E,1,23,1.0,1.919,M,11.082,M,-85101016.0,0000*60
$GPESA,065620.898,+0.790,-4.719,-0.300,-1.224,+0.349,-172.672*76
$GPESD,065620.898,0.000,0.000,0.000,0.000,0.000,0.000,0.000,0.000,0.000*7B
$GPRMC,065621.040,A,3114.3380106,N,12129.1435023,E,9.04,41.14,210523,0.0,E,A,V*44
$GPGGA,065621.040,3114.3380106,N,12129.1435023,E,1,23,1.0,1.887,M,11.082,M,-85101016.0,0000*68
$GPESA,065621.040,+0.783,-4.573,-0.310,-1.323,+0.424,-172.592*70
$GPESD,065621.040,0.000,0.000,0.000,0.000,0.000,0.000,0.000,0.000,0.000*77
$GPRMC,065621.155,A,3114.3377296,N,12129.1435600,E,8.82,40.66,210523,0.0,E,A,V*4F
$GPGGA,065621.155,3114.3377296,N,12129.1435600,E,1,23,1.0,1.850,M,11.082,M,-85101016.0,0000*62
$GPESA,065621.155,+0.803,-4.453,-0.323,-1.383,+0.434,-172.575*73
$GPESD,065621.155,0.000,0.000,0.000,0.000,0.000,0.000,0.000,0.000,0.000*72
$GPRMC,065621.293,A,3114.3374059,N,12129.1435410,E,8.54,40.13,210523,0.0,E,A,V*4E
$GPGGA,065621.293,3114.3374059,N,12129.1435410,E,1,24,1.0,1.832,M,11.082,M,-85101016.0,0000*69
$GPESA,065621.293,+0.782,-4.313,-0.280,-1.411,+0.457,-172.436*78
$GPESD,065621.293,0.000,0.000,0.000,0.000,0.000,0.000,0.000,0.000,0.000*7B
$GPRMC,065621.431,A,3114.3370959,N,12129.1435813,E,8.24,40.39,210523,0.0,E,A,V*4D
$GPGGA,065621.431,3114.3370959,N,12129.1435813,E,1,24,1.0,1.798,M,11.082,M,-85101016.0,0000*6A
$GPESA,065621.431,+0.752,-4.163,-0.284,-1.426,+0.409,-172.366*77
$GPESD,065621.431,0.000,0.000,0.000,0.000,0.000,0.000,0.000,0.000,0.000*75
$GPRMC,065621.583,A,3114.3369704,N,12129.1435709,E,7.35,40.53,210523,0.0,E,A,V*4C
$GPGGA,065621.583,3114.3369704,N,12129.1435709,E,1,24,1.0,1.820,M,11.082,M,-85101016.0,0000*64
$GPESA,065621.583,+0.660,-3.716,-0.246,-0.789,+0.562,-172.219*70
$GPESD,065621.583,0.000,0.000,0.000,0.000,0.000,0.000,0.000,0.000,0.000*7D
$GPRMC,065621.708,A,3114.3369131,N,12129.1435803,E,6.54,40.17,210523,0.0,E,A,V*4E
$GPGGA,065621.708,3114.3369131,N,12129.1435803,E,1,24,1.0,1.841,M,11.082,M,-85101016.0,0000*67
$GPESA,065621.708,+0.620,-3.298,-0.247,-0.141,+0.652,-172.135*78
$GPESD,065621.708,0.000,0.000,0.000,0.000,0.000,0.000,0.000,0.000,0.000*7C
$GPRMC,065621.808,A,3114.3369281,N,12129.1435844,E,5.80,39.15,210523,0.0,E,A,V*4C
$GPGGA,065621.808,3114.3369281,N,12129.1435844,E,1,24,1.0,1.866,M,11.082,M,-85101016.0,0000*66
$GPESA,065621.808,+0.603,-2.914,-0.250,+0.520,+0.677,-172.058*76
$GPESD,065621.808,0.000,0.000,0.000,0.000,0.000,0.000,0.000,0.000,0.000*73
$GPRMC,065621.939,A,3114.3368966,N,12129.1435920,E,5.00,39.16,210523,0.0,E,A,V*44
$GPGGA,065621.939,3114.3368966,N,12129.1435920,E,1,24,1.0,1.877,M,11.082,M,-85101016.0,0000*65
$GPESA,065621.939,+0.541,-2.505,-0.251,+1.098,+0.602,-171.976*7E
$GPESD,065621.939,0.000,0.000,0.000,0.000,0.000,0.000,0.000,0.000,0.000*70
$GPRMC,065622.069,A,3114.3368874,N,12129.1435970,E,4.19,38.66,210523,0.0,E,A,V*43
$GPGGA,065622.069,3114.3368874,N,12129.1435970,E,1,25,1.0,1.883,M,11.082,M,-85101016.0,0000*67
$GPESA,065622.069,+0.494,-2.084,-0.259,+1.725,+0.590,-171.876*74
$GPESD,065622.069,0.000,0.000,0.000,0.000,0.000,0.000,0.000,0.000,0.000*7F
$GPRMC,065622.196,A,3114.3370828,N,12129.1435524,E,2.83,38.22,210523,0.0,E,A,V*4A
$GPGGA,065622.196,3114.3370828,N,12129.1435524,E,1,24,1.0,1.936,M,11.082,M,-85101016.0,0000*65
$GPESA,065622.196,+0.388,-1.380,-0.257,+3.065,+0.644,-171.729*7B
$GPESD,065622.196,0.000,0.000,0.000,0.000,0.000,0.000,0.000,0.000,0.000*7E
$GPRMC,065622.316,A,3114.3371583,N,12129.1435359,E,2.02,32.68,210523,0.0,E,A,V*4C
$GPGGA,065622.316,3114.3371583,N,12129.1435359,E,1,24,1.0,1.961,M,11.082,M,-85101016.0,0000*6C
$GPESA,065622.316,+0.348,-0.950,-0.238,+3.754,+0.731,-171.582*77
$GPESD,065622.316,0.000,0.000,0.000,0.000,0.000,0.000,0.000,0.000,0.000*74
$GPRMC,065622.427,A,3114.3372601,N,12129.1435151,E,1.27,32.68,210523,0.0,E,A,V*4D
$GPGGA,065622.427,3114.3372601,N,12129.1435151,E,1,23,1.0,1.998,M,11.082,M,-85101016.0,0000*68
$GPESA,065622.427,+0.301,-0.525,-0.245,+4.449,+0.757,-171.446*7A
$GPESD,065622.427,0.000,0.000,0.000,0.000,0.000,0.000,0.000,0.000,0.000*71
$GPRMC,065622.527,A,3114.3373742,N,12129.1434836,E,0.71,32.68,210523,0.0,E,A,V*40
$GPGGA,065622.527,3114.3373742,N,12129.1434836,E,1,23,1.0,2.063,M,11.082,M,-85101016.0,0000*69
$GPESA,065622.527,+0.244,-0.138,-0.234,+5.080,+0.784,-171.255*7F
$GPESD,065622.527,0.000,0.000,0.000,0.000,0.000,0.000,0.000,0.000,0.000*70
$GPRMC,065622.654,A,3114.3374947,N,12129.1434426,E,0.77,32.68,210523,0.0,E,A,V*40
$GPGGA,065622.654,3114.3374947,N,12129.1434426,E,1,24,1.0,2.160,M,11.082,M,-85101016.0,0000*6A
$GPESA,065622.654,+0.152,+0.299,-0.214,+5.716,+0.823,-170.931*72
$GPESD,065622.654,0.000,0.000,0.000,0.000,0.000,0.000,0.000,0.000,0.000*77
$GPRMC,065622.787,A,3114.3374727,N,12129.1433868,E,1.18,32.68,210523,0.0,E,A,V*4E
$GPGGA,065622.787,3114.3374727,N,12129.1433868,E,1,24,1.0,2.380,M,11.082,M,-85101016.0,0000*60
$GPESA,065622.787,-0.014,+0.592,-0.135,+5.843,+1.020,-170.442*78
$GPESD,065622.787,0.000,0.000,0.000,0.000,0.000,0.000,0.000,0.000,0.000*78
$GPRMC,065622.914,A,3114.3374923,N,12129.1433965,E,1.79,32.68,210523,0.0,E,A,V*4B
$GPGGA,065622.914,3114.3374923,N,12129.1433965,E,1,24,1.0,2.383,M,11.082,M,-85101016.0,0000*61
$GPESA,065622.914,-0.050,+0.905,-0.165,+5.898,+1.029,-170.496*7D
$GPESD,065622.914,0.000,0.000,0.000,0.000,0.000,0.000,0.000,0.000,0.000*7C
$GPRMC,065623.032,A,3114.3375251,N,12129.1433971,E,2.38,217.89,210523,0.0,E,A,V*71
$GPGGA,065623.032,3114.3375251,N,12129.1433971,E,1,24,1.0,2.369,M,11.082,M,-85101016.0,0000*63
$GPESA,065623.032,-0.082,+1.207,-0.193,+5.980,+1.048,-170.501*7F
$GPESD,065623.032,0.000,0.000,0.000,0.000,0.000,0.000,0.000,0.000,0.000*70
$GPRMC,065623.135,A,3114.3375606,N,12129.1433944,E,2.87,218.57,210523,0.0,E,A,V*7F
$GPGGA,065623.135,3114.3375606,N,12129.1433944,E,1,24,1.0,2.349,M,11.082,M,-85101016.0,0000*67
$GPESA,065623.135,-0.089,+1.455,-0.223,+6.096,+1.038,-170.513*72
$GPESD,065623.135,0.000,0.000,0.000,0.000,0.000,0.000,0.000,0.000,0.000*76
$GPRMC,065623.252,A,3114.3375751,N,12129.1433916,E,3.38,219.35,210523,0.0,E,A,V*79
$GPGGA,065623.252,3114.3375751,N,12129.1433916,E,1,24,1.0,2.306,M,11.082,M,-85101016.0,0000*6A
$GPESA,065623.252,-0.100,+1.717,-0.237,+6.213,+0.967,-170.622*7C
$GPESD,065623.252,0.000,0.000,0.000,0.000,0.000,0.000,0.000,0.000,0.000*74
$GPRMC,065623.412,A,3114.3377407,N,12129.1433794,E,4.16,219.22,210523,0.0,E,A,V*70
$GPGGA,065623.412,3114.3377407,N,12129.1433794,E,1,24,1.0,2.265,M,11.082,M,-85101016.0,0000*6A
$GPESA,065623.412,-0.141,+2.117,-0.272,+6.416,+0.950,-170.547*78
$GPESD,065623.412,0.000,0.000,0.000,0.000,0.000,0.000,0.000,0.000,0.000*76
$GPRMC,065623.533,A,3114.3377936,N,12129.1433749,E,4.63,219.59,210523,0.0,E,A,V*73
$GPGGA,065623.533,3114.3377936,N,12129.1433749,E,1,24,1.0,2.206,M,11.082,M,-85101016.0,0000*62
$GPESA,065623.533,-0.146,+2.358,-0.300,+6.552,+0.884,-170.684*75
$GPESD,065623.533,0.000,0.000,0.000,0.000,0.000,0.000,0.000,0.000,0.000*74
$GPRMC,065623.633,A,3114.3378715,N,12129.1434215,E,4.99,220.07,210523,0.0,E,A,V*7F
$GPGGA,065623.633,3114.3378715,N,12129.1434215,E,1,25,1.0,2.212,M,11.082,M,-85101016.0,0000*6E
$GPESA,065623.633,-0.147,+2.542,-0.310,+6.691,+0.845,-170.730*74
$GPESD,065623.633,0.000,0.000,0.000,0.000,0.000,0.000,0.000,0.000,0.000*77
$GPRMC,065640.986,A,3114.3201660,N,12129.1450655,E,7.99,43.82,210523,0.0,E,A,V*4C
$GPGGA,065640.986,3114.3201660,N,12129.1450655,E,1,21,1.0,2.652,M,11.083,M,32683.0,0000*7A
$GPESA,065640.986,+0.437,-4.088,-0.105,-0.634,+1.695,-173.372*7D
$GPESD,065640.986,0.000,0.000,0.000,0.000,0.000,0.000,0.000,0.000,0.000*73
$GPRMC,065641.123,A,3114.3198719,N,12129.1451285,E,8.20,43.95,210523,0.0,E,A,V*45
$GPGGA,065641.123,3114.3198719,N,12129.1451285,E,1,21,1.0,2.657,M,11.083,M,32683.0,0000*7D
$GPESA,065641.123,+0.436,-4.196,-0.101,-0.505,+1.953,-173.519*7F
$GPESD,065641.123,0.000,0.000,0.000,0.000,0.000,0.000,0.000,0.000,0.000*75
$GPRMC,065641.243,A,3114.3196094,N,12129.1451936,E,8.36,43.87,210523,0.0,E,A,V*4B
$GPGGA,065641.243,3114.3196094,N,12129.1451936,E,1,21,1.0,2.656,M,11.083,M,32683.0,0000*76
$GPESA,065641.243,+0.456,-4.274,-0.113,-0.378,+1.791,-173.639*7D
$GPESD,065641.243,0.000,0.000,0.000,0.000,0.000,0.000,0.000,0.000,0.000*70
$GPRMC,065641.364,A,3114.3193291,N,12129.1452675,E,8.67,43.52,210523,0.0,E,A,V*4A
$GPGGA,065641.364,3114.3193291,N,12129.1452675,E,1,21,1.0,2.649,M,11.083,M,32683.0,0000*75
$GPESA,065641.364,+0.498,-4.431,-0.123,-0.599,+1.426,-173.820*7F
$GPESD,065641.364,0.000,0.000,0.000,0.000,0.000,0.000,0.000,0.000,0.000*74
$GPRMC,065641.514,A,3114.3189667,N,12129.1453432,E,8.98,43.74,210523,0.0,E,A,V*49
$GPGGA,065641.514,3114.3189667,N,12129.1453432,E,1,21,1.0,2.634,M,11.083,M,32683.0,0000*78
$GPESA,065641.514,+0.520,-4.586,-0.151,-0.727,+1.292,-173.828*72
$GPESD,065641.514,0.000,0.000,0.000,0.000,0.000,0.000,0.000,0.000,0.000*75
$GPRMC,065641.661,A,3114.3185967,N,12129.1453945,E,9.15,43.98,210523,0.0,E,A,V*40
$GPGGA,065641.661,3114.3185967,N,12129.1453945,E,1,21,1.0,2.619,M,11.083,M,32683.0,0000*78
$GPESA,065641.661,+0.524,-4.676,-0.166,-0.796,+1.374,-173.852*71
$GPESD,065641.661,0.000,0.000,0.000,0.000,0.000,0.000,0.000,0.000,0.000*74
$GPRMC,065641.799,A,3114.3182541,N,12129.1454734,E,9.25,43.32,210523,0.0,E,A,V*45
$GPGGA,065641.799,3114.3182541,N,12129.1454734,E,1,21,1.0,2.610,M,11.083,M,32683.0,0000*77
$GPESA,065641.799,+0.574,-4.721,-0.172,-0.865,+1.218,-173.845*7A
$GPESD,065641.799,0.000,0.000,0.000,0.000,0.000,0.000,0.000,0.000,0.000*72
$GPRMC,065641.944,A,3114.3178877,N,12129.1455709,E,9.32,42.71,210523,0.0,E,A,V*49
$GPGGA,065641.944,3114.3178877,N,12129.1455709,E,1,21,1.0,2.603,M,11.083,M,32683.0,0000*79
$GPESA,065641.944,+0.636,-4.748,-0.203,-1.014,+0.973,-173.772*78
$GPESD,065641.944,0.000,0.000,0.000,0.000,0.000,0.000,0.000,0.000,0.000*7C
$GPRMC,065642.114,A,3114.3174472,N,12129.1456371,E,9.38,43.66,210523,0.0,E,A,V*47
$GPGGA,065642.114,3114.3174472,N,12129.1456371,E,1,21,1.0,2.573,M,11.083,M,32683.0,0000*7E
$GPESA,065642.114,+0.588,-4.785,-0.213,-1.005,+0.997,-173.723*7E
$GPESD,065642.114,0.000,0.000,0.000,0.000,0.000,0.000,0.000,0.000,0.000*72
$GPRMC,065642.244,A,3114.3171082,N,12129.1456863,E,9.39,43.48,210523,0.0,E,A,V*4A
$GPGGA,065642.244,3114.3171082,N,12129.1456863,E,1,21,1.0,2.551,M,11.083,M,32683.0,0000*7E
$GPESA,065642.244,+0.610,-4.787,-0.227,-1.007,+1.081,-173.665*71
$GPESD,065642.244,0.000,0.000,0.000,0.000,0.000,0.000,0.000,0.000,0.000*74
$GPRMC,065642.387,A,3114.3167369,N,12129.1457446,E,9.39,43.14,210523,0.0,E,A,V*46
$GPGGA,065642.387,3114.3167369,N,12129.1457446,E,1,21,1.0,2.538,M,11.083,M,32683.0,0000*74
$GPESA,065642.387,+0.641,-4.783,-0.241,-1.043,+1.028,-173.614*7A
$GPESD,065642.387,0.000,0.000,0.000,0.000,0.000,0.000,0.000,0.000,0.000*7A
$GPRMC,065642.505,A,3114.3164309,N,12129.1457943,E,9.41,42.83,210523,0.0,E,A,V*47
$GPGGA,065642.505,3114.3164309,N,12129.1457943,E,1,21,1.0,2.517,M,11.083,M,32683.0,0000*78
$GPESA,065642.505,+0.662,-4.789,-0.244,-1.076,+0.981,-173.576*72
$GPESD,065642.505,0.000,0.000,0.000,0.000,0.000,0.000,0.000,0.000,0.000*76
$GPRMC,065642.622,A,3114.3161280,N,12129.1458480,E,9.37,42.28,210523,0.0,E,A,V*49
$GPGGA,065642.622,3114.3161280,N,12129.1458480,E,1,21,1.0,2.496,M,11.083,M,32683.0,0000*7E
$GPESA,065642.622,+0.691,-4.766,-0.239,-1.054,+0.876,-173.517*7D
$GPESD,065642.622,0.000,0.000,0.000,0.000,0.000,0.000,0.000,0.000,0.000*70
$GPRMC,065642.735,A,3114.3158391,N,12129.1458950,E,9.35,42.41,210523,0.0,E,A,V*48
$GPGGA,065642.735,3114.3158391,N,12129.1458950,E,1,20,1.0,2.481,M,11.083,M,32683.0,0000*75
$GPESA,065642.735,+0.682,-4.757,-0.240,-1.042,+0.894,-173.437*7C
$GPESD,065642.735,0.000,0.000,0.000,0.000,0.000,0.000,0.000,0.000,0.000*77
$GPRMC,065642.882,A,3114.3154584,N,12129.1459610,E,9.37,42.14,210523,0.0,E,A,V*4D
$GPGGA,065642.882,3114.3154584,N,12129.1459610,E,1,20,1.0,2.462,M,11.083,M,32683.0,0000*7F
$GPESA,065642.882,+0.721,-4.758,-0.271,-1.140,+0.839,-173.352*7A
$GPESD,065642.882,0.000,0.000,0.000,0.000,0.000,0.000,0.000,0.000,0.000*74
$GPRMC,065643.010,A,3114.3151313,N,12129.1460159,E,9.31,42.10,210523,0.0,E,A,V*40
$GPGGA,065643.010,3114.3151313,N,12129.1460159,E,1,20,1.0,2.440,M,11.083,M,32683.0,0000*70
$GPESA,065643.010,+0.722,-4.725,-0.276,-1.122,+0.834,-173.278*76
$GPESD,065643.010,0.000,0.000,0.000,0.000,0.000,0.000,0.000,0.000,0.000*76
$GPRMC,065643.155,A,3114.3147600,N,12129.1460810,E,9.31,42.04,210523,0.0,E,A,V*41
$GPGGA,065643.155,3114.3147600,N,12129.1460810,E,1,20,1.0,2.412,M,11.083,M,32683.0,0000*73
$GPESA,065643.155,+0.724,-4.727,-0.273,-1.075,+0.810,-173.262*79
$GPESD,065643.155,0.000,0.000,0.000,0.000,0.000,0.000,0.000,0.000,0.000*76
$GPRMC,065643.290,A,3114.3144252,N,12129.1461226,E,9.17,42.08,210523,0.0,E,A,V*4D
$GPGGA,065643.290,3114.3144252,N,12129.1461226,E,1,20,1.0,2.448,M,11.083,M,32683.0,0000*78
$GPESA,065643.290,+0.701,-4.660,-0.255,-1.020,+0.833,-173.270*70
$GPESD,065643.290,0.000,0.000,0.000,0.000,0.000,0.000,0.000,0.000,0.000*7C
$GPRMC,065643.428,A,3114.3140791,N,12129.1461740,E,9.09,42.19,210523,0.0,E,A,V*4C
$GPGGA,065643.428,3114.3140791,N,12129.1461740,E,1,20,1.0,2.462,M,11.083,M,32683.0,0000*7E
$GPESA,065643.428,+0.702,-4.618,-0.271,-0.939,+0.808,-173.283*7B
$GPESD,065643.428,0.000,0.000,0.000,0.000,0.000,0.000,0.000,0.000,0.000*79
$GPRMC,065643.583,A,3114.3136905,N,12129.1462396,E,9.11,41.53,210523,0.0,E,A,V*46
$GPGGA,065643.583,3114.3136905,N,12129.1462396,E,1,20,1.0,2.446,M,11.083,M,32683.0,0000*76
$GPESA,065643.583,+0.736,-4.620,-0.266,-0.785,+0.594,-173.202*79
$GPESD,065643.583,0.000,0.000,0.000,0.000,0.000,0.000,0.000,0.000,0.000*79
$GPRMC,065643.733,A,3114.3133145,N,12129.1463018,E,9.20,43.07,210523,0.0,E,A,V*43
$GPGGA,065643.733,3114.3133145,N,12129.1463018,E,1,21,1.0,2.453,M,11.083,M,32683.0,0000*77
$GPESA,065643.733,+0.671,-4.675,-0.291,-0.848,+0.512,-173.208*70
$GPESD,065643.733,0.000,0.000,0.000,0.000,0.000,0.000,0.000,0.000,0.000*70
$GPRMC,065643.851,A,3114.3130159,N,12129.1463495,E,9.32,42.53,210523,0.0,E,A,V*44
$GPGGA,065643.851,3114.3130159,N,12129.1463495,E,1,21,1.0,2.480,M,11.083,M,32683.0,0000*7D
$GPESA,065643.851,+0.715,-4.729,-0.301,-0.844,+0.775,-173.093*77
$GPESD,065643.851,0.000,0.000,0.000,0.000,0.000,0.000,0.000,0.000,0.000*7B
$GPRMC,065643.971,A,3114.3127047,N,12129.1463991,E,9.53,41.54,210523,0.0,E,A,V*45
$GPGGA,065643.971,3114.3127047,N,12129.1463991,E,1,21,1.0,2.461,M,11.083,M,32683.0,0000*70
$GPESA,065643.971,+0.769,-4.832,-0.277,-0.920,+0.864,-173.031*7E
$GPESD,065643.971,0.000,0.000,0.000,0.000,0.000,0.000,0.000,0.000,0.000*78
$GPRMC,065644.101,A,3114.3123627,N,12129.1464589,E,9.70,40.21,210523,0.0,E,A,V*49
$GPGGA,065644.101,3114.3123627,N,12129.1464589,E,1,21,1.0,2.443,M,11.083,M,32683.0,0000*7E
$GPESA,065644.101,+0.857,-4.911,-0.274,-1.046,+0.700,-173.016*77
$GPESD,065644.101,0.000,0.000,0.000,0.000,0.000,0.000,0.000,0.000,0.000*70
$GPRMC,065644.254,A,3114.3119528,N,12129.1464981,E,9.81,41.93,210523,0.0,E,A,V*4D
$GPGGA,065644.254,3114.3119528,N,12129.1464981,E,1,20,1.0,2.481,M,11.083,M,32683.0,0000*73
$GPESA,065644.254,+0.778,-4.977,-0.300,-0.971,+0.537,-172.976*70
$GPESD,065644.254,0.000,0.000,0.000,0.000,0.000,0.000,0.000,0.000,0.000*73
$GPRMC,065644.376,A,3114.3116126,N,12129.1465454,E,10.02,42.78,210523,0.0,E,A,V*78
$GPGGA,065644.376,3114.3116126,N,12129.1465454,E,1,20,1.0,2.495,M,11.083,M,32683.0,0000*76
$GPESA,065644.376,+0.750,-5.090,-0.319,-0.795,+0.593,-172.848*74
$GPESD,065644.376,0.000,0.000,0.000,0.000,0.000,0.000,0.000,0.000,0.000*72
$GPRMC,065644.546,A,3114.3111295,N,12129.1466014,E,10.38,41.80,210523,0.0,E,A,V*7F
$GPGGA,065644.546,3114.3111295,N,12129.1466014,E,1,21,1.0,2.499,M,11.083,M,32683.0,0000*71
$GPESA,065644.546,+0.834,-5.262,-0.322,-0.663,+0.852,-172.769*7F
$GPESD,065644.546,0.000,0.000,0.000,0.000,0.000,0.000,0.000,0.000,0.000*77
$GPRMC,065644.669,A,3114.3107714,N,12129.1466559,E,10.60,40.19,210523,0.0,E,A,V*7A
$GPGGA,065644.669,3114.3107714,N,12129.1466559,E,1,21,1.0,2.514,M,11.083,M,32683.0,0000*7C
$GPESA,065644.669,+0.920,-5.366,-0.273,-0.705,+0.820,-172.728*74
$GPESD,065644.669,0.000,0.000,0.000,0.000,0.000,0.000,0.000,0.000,0.000*79
$GPRMC,065644.814,A,3114.3103422,N,12129.1467117,E,10.83,39.91,210523,0.0,E,A,V*70
$GPGGA,065644.814,3114.3103422,N,12129.1467117,E,1,20,1.0,2.569,M,11.083,M,32683.0,0000*7E
$GPESA,065644.814,+0.962,-5.478,-0.285,-0.795,+0.774,-172.676*7A
$GPESD,065644.814,0.000,0.000,0.000,0.000,0.000,0.000,0.000,0.000,0.000*7D
$GPRMC,065644.984,A,3114.3098210,N,12129.1467794,E,11.10,40.50,210523,0.0,E,A,V*79
$GPGGA,065644.984,3114.3098210,N,12129.1467794,E,1,21,1.0,2.604,M,11.083,M,32683.0,0000*76
$GPESA,065644.984,+0.943,-5.624,-0.286,-0.785,+0.733,-172.687*75
$GPESD,065644.984,0.000,0.000,0.000,0.000,0.000,0.000,0.000,0.000,0.000*75
$GPRMC,065645.134,A,3114.3093510,N,12129.1468363,E,11.34,40.11,210523,0.0,E,A,V*77
$GPGGA,065645.134,3114.3093510,N,12129.1468363,E,1,21,1.0,2.613,M,11.083,M,32683.0,0000*7D
$GPESA,065645.134,+0.967,-5.749,-0.256,-0.783,+0.708,-172.646*75
$GPESD,065645.134,0.000,0.000,0.000,0.000,0.000,0.000,0.000,0.000,0.000*77
$GPRMC,065645.307,A,3114.3087964,N,12129.1468621,E,11.62,40.03,210523,0.0,E,A,V*7C
$GPGGA,065645.307,3114.3087964,N,12129.1468621,E,1,21,1.0,2.666,M,11.083,M,32683.0,0000*74
$GPESA,065645.307,+0.978,-5.894,-0.234,-0.845,+0.829,-172.540*7E
$GPESD,065645.307,0.000,0.000,0.000,0.000,0.000,0.000,0.000,0.000,0.000*75
$GPRMC,065645.412,A,3114.3084525,N,12129.1468911,E,11.73,39.81,210523,0.0,E,A,V*7D
$GPGGA,065645.412,3114.3084525,N,12129.1468911,E,1,21,1.0,2.676,M,11.083,M,32683.0,0000*70
$GPESA,065645.412,+1.004,-5.943,-0.238,-0.910,+0.799,-172.505*7D
$GPESD,065645.412,0.000,0.000,0.000,0.000,0.000,0.000,0.000,0.000,0.000*76
$GPRMC,065645.542,A,3114.3080220,N,12129.1469321,E,11.80,40.03,210523,0.0,E,A,V*7F
$GPGGA,065645.542,3114.3080220,N,12129.1469321,E,1,21,1.0,2.679,M,11.083,M,32683.0,0000*75
$GPESA,065645.542,+0.993,-5.986,-0.236,-0.977,+0.844,-172.442*74
$GPESD,065645.542,0.000,0.000,0.000,0.000,0.000,0.000,0.000,0.000,0.000*72
$GPRMC,065645.665,A,3114.3076164,N,12129.1469692,E,11.78,39.98,210523,0.0,E,A,V*75
$GPGGA,065645.665,3114.3076164,N,12129.1469692,E,1,21,1.0,2.684,M,11.083,M,32683.0,0000*76
$GPESA,065645.665,+1.002,-5.970,-0.249,-1.083,+0.885,-172.371*7A
$GPESD,065645.665,0.000,0.000,0.000,0.000,0.000,0.000,0.000,0.000,0.000*74
$GPRMC,065645.798,A,3114.3071709,N,12129.1469821,E,11.80,40.05,210523,0.0,E,A,V*77
$GPGGA,065645.798,3114.3071709,N,12129.1469821,E,1,21,1.0,2.713,M,11.083,M,32683.0,0000*76
$GPESA,065645.798,+0.988,-5.984,-0.232,-1.077,+1.022,-172.268*72
$GPESD,065645.798,0.000,0.000,0.000,0.000,0.000,0.000,0.000,0.000,0.000*77
$GPRMC,065645.938,A,3114.3067114,N,12129.1470451,E,11.88,39.60,210523,0.0,E,A,V*78
$GPGGA,065645.938,3114.3067114,N,12129.1470451,E,1,21,1.0,2.703,M,11.083,M,32683.0,0000*7D
$GPESA,065645.938,+1.034,-6.017,-0.243,-1.035,+1.030,-172.147*74
$GPESD,065645.938,0.000,0.000,0.000,0.000,0.000,0.000,0.000,0.000,0.000*73
$GPRMC,065646.085,A,3114.3062219,N,12129.1470777,E,11.90,39.79,210523,0.0,E,A,V*79
$GPGGA,065646.085,3114.3062219,N,12129.1470777,E,1,21,1.0,2.722,M,11.083,M,32683.0,0000*7E
$GPESA,065646.085,+1.020,-6.033,-0.240,-1.061,+1.125,-172.042*78
$GPESD,065646.085,0.000,0.000,0.000,0.000,0.000,0.000,0.000,0.000,0.000*7F
$GPRMC,065646.248,A,3114.3056866,N,12129.1471556,E,11.95,39.84,210523,0.0,E,A,V*78
$GPGGA,065646.248,3114.3056866,N,12129.1471556,E,1,21,1.0,2.706,M,11.083,M,32683.0,0000*7E
$GPESA,065646.248,+1.030,-6.056,-0.256,-1.145,+1.150,-171.925*70
$GPESD,065646.248,0.000,0.000,0.000,0.000,0.000,0.000,0.000,0.000,0.000*7C
$GPRMC,065646.391,A,3114.3052235,N,12129.1472047,E,11.94,39.62,210523,0.0,E,A,V*7A
$GPGGA,065646.391,3114.3052235,N,12129.1472047,E,1,22,1.0,2.730,M,11.083,M,32683.0,0000*73
$GPESA,065646.391,+1.042,-6.046,-0.252,-1.113,+1.168,-171.808*73
$GPESD,065646.391,0.000,0.000,0.000,0.000,0.000,0.000,0.000,0.000,0.000*79
$GPRMC,065646.533,A,3114.3047564,N,12129.1472705,E,11.91,39.95,210523,0.0,E,A,V*7F
$GPGGA,065646.533,3114.3047564,N,12129.1472705,E,1,22,1.0,2.729,M,11.083,M,32683.0,0000*73
$GPESA,065646.533,+1.014,-6.039,-0.248,-1.066,+1.220,-171.711*76
$GPESD,065646.533,0.000,0.000,0.000,0.000,0.000,0.000,0.000,0.000,0.000*77
$GPRMC,065646.706,A,3114.3041903,N,12129.1473677,E,11.92,39.92,210523,0.0,E,A,V*71
$GPGGA,065646.706,3114.3041903,N,12129.1473677,E,1,21,1.0,2.709,M,11.083,M,32683.0,0000*78
$GPESA,065646.706,+1.031,-6.041,-0.271,-1.051,+1.323,-171.573*70
$GPESD,065646.706,0.000,0.000,0.000,0.000,0.000,0.000,0.000,0.000,0.000*73
$GPRMC,065646.883,A,3114.3036129,N,12129.1474656,E,11.88,40.32,210523,0.0,E,A,V*78
$GPGGA,065646.883,3114.3036129,N,12129.1474656,E,1,21,1.0,2.674,M,11.083,M,32683.0,0000*75
$GPESA,065646.883,+1.000,-6.021,-0.274,-1.014,+1.386,-171.468*76
$GPESD,065646.883,0.000,0.000,0.000,0.000,0.000,0.000,0.000,0.000,0.000*71
$GPRMC,065646.989,A,3114.3032741,N,12129.1475336,E,11.85,40.26,210523,0.0,E,A,V*75
$GPGGA,065646.989,3114.3032741,N,12129.1475336,E,1,21,1.0,2.644,M,11.083,M,32683.0,0000*73
$GPESA,065646.989,+1.010,-6.007,-0.284,-0.990,+1.320,-171.353*70
$GPESD,065646.989,0.000,0.000,0.000,0.000,0.000,0.000,0.000,0.000,0.000*7A
$GPRMC,065647.149,A,3114.3027566,N,12129.1476324,E,11.78,40.70,210523,0.0,E,A,V*72
$GPGGA,065647.149,3114.3027566,N,12129.1476324,E,1,21,1.0,2.598,M,11.083,M,32683.0,0000*77
$GPESA,065647.149,+0.989,-5.972,-0.309,-1.051,+1.367,-171.220*72
$GPESD,065647.149,0.000,0.000,0.000,0.000,0.000,0.000,0.000,0.000,0.000*7F
$GPRMC,065647.256,A,3114.3024111,N,12129.1476933,E,11.74,40.53,210523,0.0,E,A,V*79
$GPGGA,065647.256,3114.3024111,N,12129.1476933,E,1,21,1.0,2.573,M,11.083,M,32683.0,0000*74
$GPESA,065647.256,+1.005,-5.948,-0.317,-0.991,+1.447,-171.087*7B
$GPESD,065647.256,0.000,0.000,0.000,0.000,0.000,0.000,0.000,0.000,0.000*72
$GPRMC,065647.369,A,3114.3020500,N,12129.1477625,E,11.70,39.79,210523,0.0,E,A,V*7F
$GPGGA,065647.369,3114.3020500,N,12129.1477625,E,1,21,1.0,2.549,M,11.083,M,32683.0,0000*79
$GPESA,065647.369,+1.034,-5.921,-0.287,-0.938,+1.436,-170.940*75
$GPESD,065647.369,0.000,0.000,0.000,0.000,0.000,0.000,0.000,0.000,0.000*7F
$GPRMC,065647.479,A,3114.3016965,N,12129.1478349,E,11.68,39.64,210523,0.0,E,A,V*76
$GPGGA,065647.479,3114.3016965,N,12129.1478349,E,1,21,1.0,2.521,M,11.083,M,32683.0,0000*7B
$GPESA,065647.479,+1.052,-5.906,-0.300,-0.868,+1.383,-170.828*7A
$GPESD,065647.479,0.000,0.000,0.000,0.000,0.000,0.000,0.000,0.000,0.000*79
$GPRMC,065647.607,A,3114.3012908,N,12129.1479144,E,11.66,39.24,210523,0.0,E,A,V*76
$GPGGA,065647.607,3114.3012908,N,12129.1479144,E,1,21,1.0,2.493,M,11.083,M,32683.0,0000*79
$GPESA,065647.607,+1.073,-5.893,-0.291,-0.824,+1.320,-170.746*70
$GPESD,065647.607,0.000,0.000,0.000,0.000,0.000,0.000,0.000,0.000,0.000*72
$GPRMC,065647.742,A,3114.3008601,N,12129.1480077,E,11.61,39.09,210523,0.0,E,A,V*74
$GPGGA,065647.742,3114.3008601,N,12129.1480077,E,1,21,1.0,2.457,M,11.083,M,32683.0,0000*7B
$GPESA,065647.742,+1.070,-5.871,-0.275,-0.784,+1.234,-170.626*73
$GPESD,065647.742,0.000,0.000,0.000,0.000,0.000,0.000,0.000,0.000,0.000*72
$GPRMC,065647.867,A,3114.3004690,N,12129.1480872,E,11.52,38.69,210523,0.0,E,A,V*72
$GPGGA,065647.867,3114.3004690,N,12129.1480872,E,1,21,1.0,2.439,M,11.083,M,32683.0,0000*72
$GPESA,065647.867,+1.069,-5.824,-0.241,-0.792,+1.223,-170.477*73
$GPESD,065647.867,0.000,0.000,0.000,0.000,0.000,0.000,0.000,0.000,0.000*7A
$GPRMC,065647.994,A,3114.3000689,N,12129.1481712,E,11.43,38.35,210523,0.0,E,A,V*72
$GPGGA,065647.994,3114.3000689,N,12129.1481712,E,1,21,1.0,2.414,M,11.083,M,32683.0,0000*74
$GPESA,065647.994,+1.094,-5.773,-0.255,-0.801,+1.240,-170.349*7E
$GPESD,065647.994,0.000,0.000,0.000,0.000,0.000,0.000,0.000,0.000,0.000*77
$GPRMC,065648.127,A,3114.2996552,N,12129.1482579,E,11.39,37.88,210523,0.0,E,A,V*77
$GPGGA,065648.127,3114.2996552,N,12129.1482579,E,1,21,1.0,2.389,M,11.083,M,32683.0,0000*76
$GPESA,065648.127,+1.117,-5.748,-0.246,-0.788,+1.227,-170.217*74
$GPESD,065648.127,0.000,0.000,0.000,0.000,0.000,0.000,0.000,0.000,0.000*78
$GPRMC,065648.257,A,3114.2992522,N,12129.1483334,E,11.38,38.43,210523,0.0,E,A,V*77
$GPGGA,065648.257,3114.2992522,N,12129.1483334,E,1,21,1.0,2.369,M,11.083,M,32683.0,0000*71
$GPESA,065648.257,+1.069,-5.752,-0.229,-0.793,+1.319,-170.123*78
$GPESD,065648.257,0.000,0.000,0.000,0.000,0.000,0.000,0.000,0.000,0.000*7C
$GPRMC,065648.410,A,3114.2987790,N,12129.1484296,E,11.31,38.49,210523,0.0,E,A,V*70
$GPGGA,065648.410,3114.2987790,N,12129.1484296,E,1,21,1.0,2.339,M,11.083,M,32683.0,0000*70
$GPESA,065648.410,+1.066,-5.717,-0.240,-0.835,+1.383,-170.027*79
$GPESD,065648.410,0.000,0.000,0.000,0.000,0.000,0.000,0.000,0.000,0.000*79
$GPRMC,065648.520,A,3114.2984365,N,12129.1485033,E,11.30,38.02,210523,0.0,E,A,V*7D
$GPGGA,065648.520,3114.2984365,N,12129.1485033,E,1,21,1.0,2.323,M,11.083,M,32683.0,0000*78
$GPESA,065648.520,+1.088,-5.708,-0.225,-0.915,+1.340,-169.707*77
$GPESD,065648.520,0.000,0.000,0.000,0.000,0.000,0.000,0.000,0.000,0.000*7B
$GPRMC,065648.673,A,3114.2979625,N,12129.1486072,E,11.31,37.82,210523,0.0,E,A,V*7B
$GPGGA,065648.673,3114.2979625,N,12129.1486072,E,1,21,1.0,2.294,M,11.083,M,32683.0,0000*75
$GPESA,065648.673,+1.100,-5.708,-0.223,-0.896,+1.256,-169.554*7D
$GPESD,065648.673,0.000,0.000,0.000,0.000,0.000,0.000,0.000,0.000,0.000*7E
$GPRMC,065648.803,A,3114.2975604,N,12129.1486860,E,11.28,38.15,210523,0.0,E,A,V*7F
$GPGGA,065648.803,3114.2975604,N,12129.1486860,E,1,21,1.0,2.280,M,11.083,M,32683.0,0000*7D
$GPESA,065648.803,+1.067,-5.701,-0.209,-0.798,+1.257,-169.488*75
$GPESD,065648.803,0.000,0.000,0.000,0.000,0.000,0.000,0.000,0.000,0.000*77
$GPRMC,065648.948,A,3114.2971110,N,12129.1487805,E,11.32,37.97,210523,0.0,E,A,V*7B
$GPGGA,065648.948,3114.2971110,N,12129.1487805,E,1,22,1.0,2.255,M,11.083,M,32683.0,0000*7C
$GPESA,065648.948,+1.084,-5.717,-0.211,-0.689,+1.245,-169.395*71
$GPESD,065648.948,0.000,0.000,0.000,0.000,0.000,0.000,0.000,0.000,0.000*79
$GPRMC,065649.093,A,3114.2966635,N,12129.1488780,E,11.35,37.53,210523,0.0,E,A,V*71
$GPGGA,065649.093,3114.2966635,N,12129.1488780,E,1,21,1.0,2.236,M,11.083,M,32683.0,0000*7F
$GPESA,065649.093,+1.098,-5.731,-0.181,-0.682,+1.196,-169.304*72
$GPESD,065649.093,0.000,0.000,0.000,0.000,0.000,0.000,0.000,0.000,0.000*77
$GPRMC,065649.221,A,3114.2962777,N,12129.1489733,E,11.33,37.02,210523,0.0,E,A,V*72
$GPGGA,065649.221,3114.2962777,N,12129.1489733,E,1,22,1.0,2.224,M,11.083,M,32683.0,0000*7E
$GPESA,065649.221,+1.121,-5.718,-0.163,-0.685,+1.047,-168.981*71
$GPESD,065649.221,0.000,0.000,0.000,0.000,0.000,0.000,0.000,0.000,0.000*7C
$GPRMC,065649.358,A,3114.2958564,N,12129.1490736,E,11.28,36.42,210523,0.0,E,A,V*76
$GPGGA,065649.358,3114.2958564,N,12129.1490736,E,1,23,1.0,2.205,M,11.083,M,32683.0,0000*77
$GPESA,065649.358,+1.153,-5.683,-0.159,-0.660,+0.946,-168.765*77
$GPESD,065649.358,0.000,0.000,0.000,0.000,0.000,0.000,0.000,0.000,0.000*73
$GPRMC,065649.518,A,3114.2953639,N,12129.1491845,E,11.35,37.28,210523,0.0,E,A,V*7F
$GPGGA,065649.518,3114.2953639,N,12129.1491845,E,1,23,1.0,2.177,M,11.083,M,32683.0,0000*79
$GPESA,065649.518,+1.123,-5.725,-0.194,-0.363,+0.794,-168.509*71
$GPESD,065649.518,0.000,0.000,0.000,0.000,0.000,0.000,0.000,0.000,0.000*71
$GPRMC,065649.631,A,3114.2950110,N,12129.1492475,E,11.44,38.17,210523,0.0,E,A,V*71
$GPGGA,065649.631,3114.2950110,N,12129.1492475,E,1,22,1.0,2.159,M,11.083,M,32683.0,0000*7F
$GPESA,065649.631,+1.074,-5.781,-0.201,-0.199,+0.879,-168.426*7C
$GPESD,065649.631,0.000,0.000,0.000,0.000,0.000,0.000,0.000,0.000,0.000*79
$GPRMC,065649.751,A,3114.2946301,N,12129.1493093,E,11.57,39.52,210523,0.0,E,A,V*7C
$GPGGA,065649.751,3114.2946301,N,12129.1493093,E,1,22,1.0,2.135,M,11.083,M,32683.0,0000*7A
$GPESA,065649.751,+1.010,-5.863,-0.233,-0.367,+1.092,-169.177*74
$GPESD,065649.751,0.000,0.000,0.000,0.000,0.000,0.000,0.000,0.000,0.000*7E
$GPRMC,065649.851,A,3114.2943089,N,12129.1493640,E,11.61,39.45,210523,0.0,E,A,V*7E
$GPGGA,065649.851,3114.2943089,N,12129.1493640,E,1,22,1.0,2.111,M,11.083,M,32683.0,0000*7D
$GPESA,065649.851,+1.021,-5.880,-0.238,-0.676,+1.198,-169.497*7A
$GPESD,065649.851,0.000,0.000,0.000,0.000,0.000,0.000,0.000,0.000,0.000*71
$GPRMC,065649.956,A,3114.2939745,N,12129.1494377,E,11.57,38.41,210523,0.0,E,A,V*74
$GPGGA,065649.956,3114.2939745,N,12129.1494377,E,1,22,1.0,2.084,M,11.083,M,32683.0,0000*7A
$GPESA,065649.956,+1.088,-5.848,-0.232,-0.946,+1.065,-169.466*70
$GPESD,065649.956,0.000,0.000,0.000,0.000,0.000,0.000,0.000,0.000,0.000*77
$GPRMC,065650.086,A,3114.2935715,N,12129.1495138,E,11.45,39.05,210523,0.0,E,A,V*7B
$GPGGA,065650.086,3114.2935715,N,12129.1495138,E,1,22,1.0,2.064,M,11.083,M,32683.0,0000*79
$GPESA,065650.086,+1.034,-5.793,-0.234,-1.037,+0.899,-169.528*7B
$GPESD,065650.086,0.000,0.000,0.000,0.000,0.000,0.000,0.000,0.000,0.000*7B
$GPRMC,065650.204,A,3114.2932055,N,12129.1495817,E,11.35,40.32,210523,0.0,E,A,V*7E
$GPGGA,065650.204,3114.2932055,N,12129.1495817,E,1,22,1.0,2.047,M,11.083,M,32683.0,0000*70
$GPESA,065650.204,+0.948,-5.756,-0.249,-0.797,+1.016,-169.386*73
$GPESD,065650.204,0.000,0.000,0.000,0.000,0.000,0.000,0.000,0.000,0.000*73
$GPRMC,065650.339,A,3114.2927847,N,12129.1496658,E,11.47,39.55,210523,0.0,E,A,V*72
$GPGGA,065650.339,3114.2927847,N,12129.1496658,E,1,22,1.0,2.022,M,11.083,M,32683.0,0000*75
$GPESA,065650.339,+1.010,-5.811,-0.247,-0.528,+1.125,-169.300*72
$GPESD,065650.339,0.000,0.000,0.000,0.000,0.000,0.000,0.000,0.000,0.000*7C
$GPRMC,065650.454,A,3114.2924228,N,12129.1497380,E,11.51,38.90,210523,0.0,E,A,V*70
$GPGGA,065650.454,3114.2924228,N,12129.1497380,E,1,22,1.0,1.997,M,11.083,M,32683.0,0000*7C
$GPESA,065650.454,+1.050,-5.822,-0.234,-0.580,+1.084,-169.293*7D
$GPESD,065650.454,0.000,0.000,0.000,0.000,0.000,0.000,0.000,0.000,0.000*70
$GPRMC,065650.609,A,3114.2919329,N,12129.1498445,E,11.51,38.41,210523,0.0,E,A,V*79
$GPGGA,065650.609,3114.2919329,N,12129.1498445,E,1,22,1.0,1.967,M,11.084,M,32683.0,0000*71
$GPESA,065650.609,+1.080,-5.820,-0.227,-0.814,+0.936,-168.845*7B
$GPESD,065650.609,0.000,0.000,0.000,0.000,0.000,0.000,0.000,0.000,0.000*7A
$GPRMC,065650.719,A,3114.2915864,N,12129.1499231,E,11.46,38.65,210523,0.0,E,A,V*73
$GPGGA,065650.719,3114.2915864,N,12129.1499231,E,1,23,1.0,1.942,M,11.084,M,32683.0,0000*7D
$GPESA,065650.719,+1.067,-5.794,-0.241,-0.929,+0.975,-168.745*75
$GPESD,065650.719,0.000,0.000,0.000,0.000,0.000,0.000,0.000,0.000,0.000*7A
$GPRMC,065650.860,A,3114.2911602,N,12129.1500033,E,11.30,39.15,210523,0.0,E,A,V*7E
$GPGGA,065650.860,3114.2911602,N,12129.1500033,E,1,23,1.0,1.916,M,11.084,M,32683.0,0000*76
$GPESA,065650.860,+1.022,-5.719,-0.243,-0.822,+1.031,-168.793*7B
$GPESD,065650.860,0.000,0.000,0.000,0.000,0.000,0.000,0.000,0.000,0.000*7B
$GPRMC,065651.010,A,3114.2906993,N,12129.1500891,E,11.28,38.58,210523,0.0,E,A,V*70
$GPGGA,065651.010,3114.2906993,N,12129.1500891,E,1,23,1.0,1.889,M,11.084,M,32683.0,0000*7E
$GPESA,065651.010,+1.056,-5.699,-0.239,-0.739,+1.076,-169.166*79
$GPESD,065651.010,0.000,0.000,0.000,0.000,0.000,0.000,0.000,0.000,0.000*75
$GPRMC,065651.117,A,3114.2903697,N,12129.1501530,E,11.26,38.75,210523,0.0,E,A,V*7E
$GPGGA,065651.117,3114.2903697,N,12129.1501530,E,1,23,1.0,1.866,M,11.084,M,32683.0,0000*70
$GPESA,065651.117,+1.049,-5.690,-0.247,-0.764,+1.114,-169.197*72
$GPESD,065651.117,0.000,0.000,0.000,0.000,0.000,0.000,0.000,0.000,0.000*73
$GPRMC,065651.250,A,3114.2899640,N,12129.1502331,E,11.18,38.59,210523,0.0,E,A,V*71
$GPGGA,065651.250,3114.2899640,N,12129.1502331,E,1,23,1.0,1.834,M,11.084,M,32683.0,0000*7B
$GPESA,065651.250,+1.056,-5.647,-0.252,-0.899,+1.113,-169.244*75
$GPESD,065651.250,0.000,0.000,0.000,0.000,0.000,0.000,0.000,0.000,0.000*73
$GPRMC,065651.382,A,3114.2895662,N,12129.1503062,E,11.09,38.55,210523,0.0,E,A,V*7B
$GPGGA,065651.382,3114.2895662,N,12129.1503062,E,1,23,1.0,1.811,M,11.084,M,32683.0,0000*7A
$GPESA,065651.382,+1.027,-5.606,-0.212,-0.972,+1.134,-169.201*7C
$GPESD,065651.382,0.000,0.000,0.000,0.000,0.000,0.000,0.000,0.000,0.000*7D
$GPRMC,065651.518,A,3114.2891628,N,12129.1503856,E,10.95,38.94,210523,0.0,E,A,V*72
$GPGGA,065651.518,3114.2891628,N,12129.1503856,E,1,24,1.0,1.787,M,11.084,M,32683.0,0000*7D
$GPESA,065651.518,+1.001,-5.537,-0.231,-0.966,+1.211,-169.152*79
$GPESD,065651.518,0.000,0.000,0.000,0.000,0.000,0.000,0.000,0.000,0.000*78
$GPRMC,065651.665,A,3114.2887251,N,12129.1504744,E,10.79,39.16,210523,0.0,E,A,V*74
$GPGGA,065651.665,3114.2887251,N,12129.1504744,E,1,24,1.0,1.754,M,11.084,M,32683.0,0000*7C
$GPESA,065651.665,+0.983,-5.460,-0.244,-0.771,+1.235,-169.046*79
$GPESD,065651.665,0.000,0.000,0.000,0.000,0.000,0.000,0.000,0.000,0.000*71
$GPRMC,065651.780,A,3114.2883860,N,12129.1505414,E,10.74,38.29,210523,0.0,E,A,V*75
$GPGGA,065651.780,3114.2883860,N,12129.1505414,E,1,24,1.0,1.734,M,11.084,M,32683.0,0000*7B
$GPESA,065651.780,+1.024,-5.424,-0.226,-0.608,+1.343,-168.963*72
$GPESD,065651.780,0.000,0.000,0.000,0.000,0.000,0.000,0.000,0.000,0.000*7B
$GPRMC,065651.928,A,3114.2879511,N,12129.1506330,E,10.70,38.32,210523,0.0,E,A,V*7B
$GPGGA,065651.928,3114.2879511,N,12129.1506330,E,1,24,1.0,1.702,M,11.084,M,32683.0,0000*7E
$GPESA,065651.928,+1.029,-5.403,-0.243,-0.623,+1.264,-168.854*7D
$GPESD,065651.928,0.000,0.000,0.000,0.000,0.000,0.000,0.000,0.000,0.000*77
$GPRMC,065652.076,A,3114.2875194,N,12129.1507185,E,10.58,38.59,210523,0.0,E,A,V*75
$GPGGA,065652.076,3114.2875194,N,12129.1507185,E,1,24,1.0,1.669,M,11.084,M,32683.0,0000*7B
$GPESA,065652.076,+1.000,-5.344,-0.240,-0.808,+1.238,-168.723*71
$GPESD,065652.076,0.000,0.000,0.000,0.000,0.000,0.000,0.000,0.000,0.000*76
$GPRMC,065652.228,A,3114.2870836,N,12129.1508037,E,10.40,38.95,210523,0.0,E,A,V*76
$GPGGA,065652.228,3114.2870836,N,12129.1508037,E,1,24,1.0,1.644,M,11.084,M,32683.0,0000*7E
$GPESA,065652.228,+0.934,-5.267,-0.193,-0.964,+1.280,-168.653*74
$GPESD,065652.228,0.000,0.000,0.000,0.000,0.000,0.000,0.000,0.000,0.000*7F
$GPRMC,065652.383,A,3114.2866506,N,12129.1508846,E,10.21,38.93,210523,0.0,E,A,V*70
$GPGGA,065652.383,3114.2866506,N,12129.1508846,E,1,24,1.0,1.629,M,11.084,M,32683.0,0000*72
$GPESA,065652.383,+0.927,-5.165,-0.204,-0.981,+1.417,-168.652*78
$GPESD,065652.383,0.000,0.000,0.000,0.000,0.000,0.000,0.000,0.000,0.000*7F
$GPRMC,065652.483,A,3114.2863738,N,12129.1509413,E,10.14,38.49,210523,0.0,E,A,V*71
$GPGGA,065652.483,3114.2863738,N,12129.1509413,E,1,24,1.0,1.610,M,11.084,M,32683.0,0000*78
$GPESA,065652.483,+0.966,-5.120,-0.233,-0.853,+1.408,-168.651*7C
$GPESD,065652.483,0.000,0.000,0.000,0.000,0.000,0.000,0.000,0.000,0.000*78
$GPRMC,065652.599,A,3114.2860559,N,12129.1510090,E,10.13,37.80,210523,0.0,E,A,V*77
$GPGGA,065652.599,3114.2860559,N,12129.1510090,E,1,24,1.0,1.589,M,11.084,M,32683.0,0000*70
$GPESA,065652.599,+0.999,-5.110,-0.220,-0.724,+1.338,-168.665*7B
$GPESD,065652.599,0.000,0.000,0.000,0.000,0.000,0.000,0.000,0.000,0.000*72
$GPRMC,065652.716,A,3114.2857308,N,12129.1510797,E,10.11,37.97,210523,0.0,E,A,V*70
$GPGGA,065652.716,3114.2857308,N,12129.1510797,E,1,24,1.0,1.567,M,11.084,M,32683.0,0000*73
$GPESA,065652.716,+0.976,-5.105,-0.200,-0.695,+1.159,-168.708*7D
$GPESD,065652.716,0.000,0.000,0.000,0.000,0.000,0.000,0.000,0.000,0.000*77
$GPRMC,065652.864,A,3114.2853237,N,12129.1511637,E,10.03,39.06,210523,0.0,E,A,V*7C
$GPGGA,065652.864,3114.2853237,N,12129.1511637,E,1,24,1.0,1.543,M,11.084,M,32683.0,0000*7C
$GPESA,065652.864,+0.892,-5.081,-0.183,-0.767,+1.206,-168.711*74
$GPESD,065652.864,0.000,0.000,0.000,0.000,0.000,0.000,0.000,0.000,0.000*7D
$GPRMC,065653.011,A,3114.2849241,N,12129.1512396,E,9.92,38.73,210523,0.0,E,A,V*43
$GPGGA,065653.011,3114.2849241,N,12129.1512396,E,1,25,1.0,1.522,M,11.084,M,32683.0,0000*76
$GPESA,065653.011,+0.911,-5.017,-0.196,-0.792,+1.361,-168.744*74
$GPESD,065653.011,0.000,0.000,0.000,0.000,0.000,0.000,0.000,0.000,0.000*76
$GPRMC,065653.157,A,3114.2845372,N,12129.1513202,E,9.72,38.13,210523,0.0,E,A,V*48
$GPGGA,065653.157,3114.2845372,N,12129.1513202,E,1,25,1.0,1.494,M,11.084,M,32683.0,0000*79
$GPESA,065653.157,+0.940,-4.909,-0.211,-0.872,+1.240,-168.826*70
$GPESD,065653.157,0.000,0.000,0.000,0.000,0.000,0.000,0.000,0.000,0.000*75
$GPRMC,065653.317,A,3114.2841246,N,12129.1513936,E,9.38,39.03,210523,0.0,E,A,V*4E
$GPGGA,065653.317,3114.2841246,N,12129.1513936,E,1,25,1.0,1.472,M,11.084,M,32683.0,0000*79
$GPESA,065653.317,+0.863,-4.742,-0.215,-0.956,+1.093,-168.862*78
$GPESD,065653.317,0.000,0.000,0.000,0.000,0.000,0.000,0.000,0.000,0.000*73
$GPRMC,065653.434,A,3114.2838255,N,12129.1514467,E,9.16,39.72,210523,0.0,E,A,V*40
$GPGGA,065653.434,3114.2838255,N,12129.1514467,E,1,25,1.0,1.453,M,11.084,M,32683.0,0000*7E
$GPESA,065653.434,+0.792,-4.644,-0.190,-0.958,+1.126,-168.823*72
$GPESD,065653.434,0.000,0.000,0.000,0.000,0.000,0.000,0.000,0.000,0.000*75
$GPRMC,065653.564,A,3114.2835072,N,12129.1515077,E,8.88,39.38,210523,0.0,E,A,V*42
$GPGGA,065653.564,3114.2835072,N,12129.1515077,E,1,25,1.0,1.432,M,11.084,M,32683.0,0000*73
$GPESA,065653.564,+0.802,-4.493,-0.209,-0.965,+1.138,-168.823*7A
$GPESD,065653.564,0.000,0.000,0.000,0.000,0.000,0.000,0.000,0.000,0.000*71
$GPRMC,065653.687,A,3114.2832150,N,12129.1515670,E,8.62,38.54,210523,0.0,E,A,V*44
$GPGGA,065653.687,3114.2832150,N,12129.1515670,E,1,25,1.0,1.413,M,11.084,M,32683.0,0000*79
$GPESA,065653.687,+0.815,-4.357,-0.191,-0.891,+1.107,-168.785*7A
$GPESD,065653.687,0.000,0.000,0.000,0.000,0.000,0.000,0.000,0.000,0.000*7F
$GPRMC,065653.857,A,3114.2828296,N,12129.1516414,E,8.31,38.21,210523,0.0,E,A,V*42
$GPGGA,065653.857,3114.2828296,N,12129.1516414,E,1,25,1.0,1.393,M,11.084,M,32683.0,0000*74
$GPESA,065653.857,+0.806,-4.192,-0.192,-0.839,+0.938,-168.731*7B
$GPESD,065653.857,0.000,0.000,0.000,0.000,0.000,0.000,0.000,0.000,0.000*7C
$GPRMC,065653.992,A,3114.2825301,N,12129.1516951,E,8.00,38.88,210523,0.0,E,A,V*45
$GPGGA,065653.992,3114.2825301,N,12129.1516951,E,1,25,1.0,1.372,M,11.084,M,32683.0,0000*7D
$GPESA,065653.992,+0.748,-4.041,-0.191,-0.927,+0.858,-168.696*7F
$GPESD,065653.992,0.000,0.000,0.000,0.000,0.000,0.000,0.000,0.000,0.000*74
$GPRMC,065654.132,A,3114.2822328,N,12129.1517509,E,7.62,39.49,210523,0.0,E,A,V*4B
$GPGGA,065654.132,3114.2822328,N,12129.1517509,E,1,24,1.0,1.354,M,11.084,M,32683.0,0000*71
$GPESA,065654.132,+0.685,-3.853,-0.183,-0.943,+0.826,-168.652*76
$GPESD,065654.132,0.000,0.000,0.000,0.000,0.000,0.000,0.000,0.000,0.000*71
$GPRMC,065654.268,A,3114.2819615,N,12129.1518006,E,7.29,39.18,210523,0.0,E,A,V*4A
$GPGGA,065654.268,3114.2819615,N,12129.1518006,E,1,25,1.0,1.339,M,11.084,M,32683.0,0000*71
$GPESA,065654.268,+0.654,-3.688,-0.150,-0.894,+0.817,-168.647*7D
$GPESD,065654.268,0.000,0.000,0.000,0.000,0.000,0.000,0.000,0.000,0.000*7D
$GPRMC,065654.408,A,3114.2816898,N,12129.1518492,E,6.95,39.50,210523,0.0,E,A,V*4D
$GPGGA,065654.408,3114.2816898,N,12129.1518492,E,1,23,1.0,1.320,M,11.084,M,32683.0,0000*72
$GPESA,065654.408,+0.616,-3.519,-0.153,-0.894,+0.871,-168.558*7E
$GPESD,065654.408,0.000,0.000,0.000,0.000,0.000,0.000,0.000,0.000,0.000*7D
$GPRMC,065654.553,A,3114.2814248,N,12129.1518969,E,6.58,39.66,210523,0.0,E,A,V*4A
$GPGGA,065654.553,3114.2814248,N,12129.1518969,E,1,23,1.0,1.299,M,11.084,M,32683.0,0000*72
$GPESA,065654.553,+0.611,-3.324,-0.199,-0.807,+0.902,-168.527*7F
$GPESD,065654.553,0.000,0.000,0.000,0.000,0.000,0.000,0.000,0.000,0.000*72
$GPRMC,065654.708,A,3114.2811539,N,12129.1519414,E,6.29,39.65,210523,0.0,E,A,V*41
$GPGGA,065654.708,3114.2811539,N,12129.1519414,E,1,24,1.0,1.281,M,11.084,M,32683.0,0000*72
$GPESA,065654.708,+0.583,-3.175,-0.188,-0.635,+0.789,-168.444*7B
$GPESD,065654.708,0.000,0.000,0.000,0.000,0.000,0.000,0.000,0.000,0.000*7E
$GPRMC,065654.846,A,3114.2809209,N,12129.1519854,E,6.17,39.60,210523,0.0,E,A,V*49
$GPGGA,065654.846,3114.2809209,N,12129.1519854,E,1,24,1.0,1.264,M,11.084,M,32683.0,0000*79
$GPESA,065654.846,+0.558,-3.123,-0.159,-0.592,+0.730,-168.345*7D
$GPESD,065654.846,0.000,0.000,0.000,0.000,0.000,0.000,0.000,0.000,0.000*7B
$GPRMC,065654.998,A,3114.2806749,N,12129.1520301,E,5.98,40.17,210523,0.0,E,A,V*4E
$GPGGA,065654.998,3114.2806749,N,12129.1520301,E,1,24,1.0,1.244,M,11.084,M,32683.0,0000*76
$GPESA,065654.998,+0.525,-3.030,-0.161,-0.563,+0.705,-168.310*75
$GPESD,065654.998,0.000,0.000,0.000,0.000,0.000,0.000,0.000,0.000,0.000*79
$GPRMC,065655.146,A,3114.2804395,N,12129.1520790,E,5.87,40.42,210523,0.0,E,A,V*41
$GPGGA,065655.146,3114.2804395,N,12129.1520790,E,1,24,1.0,1.224,M,11.084,M,32683.0,0000*71
$GPESA,065655.146,+0.509,-2.970,-0.164,-0.517,+0.783,-168.277*75
$GPESD,065655.146,0.000,0.000,0.000,0.000,0.000,0.000,0.000,0.000,0.000*73
$GPRMC,065655.303,A,3114.2801877,N,12129.1521251,E,5.77,39.99,210523,0.0,E,A,V*4E
$GPGGA,065655.303,3114.2801877,N,12129.1521251,E,1,24,1.0,1.210,M,11.084,M,32683.0,0000*7E
$GPESA,065655.303,+0.519,-2.919,-0.166,-0.469,+0.896,-168.213*7B
$GPESD,065655.303,0.000,0.000,0.000,0.000,0.000,0.000,0.000,0.000,0.000*70
$GPRMC,065655.434,A,3114.2799821,N,12129.1521648,E,5.76,39.09,210523,0.0,E,A,V*44
$GPGGA,065655.434,3114.2799821,N,12129.1521648,E,1,24,1.0,1.197,M,11.084,M,32683.0,0000*70
$GPESA,065655.434,+0.549,-2.909,-0.165,-0.420,+0.941,-168.115*7C
$GPESD,065655.434,0.000,0.000,0.000,0.000,0.000,0.000,0.000,0.000,0.000*73
$GPRMC,065655.584,A,3114.2797510,N,12129.1522189,E,5.70,38.09,210523,0.0,E,A,V*41
$GPGGA,065655.584,3114.2797510,N,12129.1522189,E,1,24,1.0,1.172,M,11.084,M,32683.0,0000*79
$GPESA,065655.584,+0.587,-2.868,-0.182,-0.459,+0.778,-168.083*7F
$GPESD,065655.584,0.000,0.000,0.000,0.000,0.000,0.000,0.000,0.000,0.000*79
$GPRMC,065655.754,A,3114.2794904,N,12129.1522730,E,5.55,38.92,210523,0.0,E,A,V*45
$GPGGA,065655.754,3114.2794904,N,12129.1522730,E,1,24,1.0,1.156,M,11.084,M,32683.0,0000*7E
$GPESA,065655.754,+0.542,-2.798,-0.171,-0.545,+0.641,-168.034*7E
$GPESD,065655.754,0.000,0.000,0.000,0.000,0.000,0.000,0.000,0.000,0.000*76
$GPRMC,065655.904,A,3114.2792742,N,12129.1523089,E,5.41,38.46,210523,0.0,E,A,V*4C
$GPGGA,065655.904,3114.2792742,N,12129.1523089,E,1,23,1.0,1.153,M,11.084,M,32683.0,0000*79
$GPESA,065655.904,+0.515,-2.731,-0.122,-0.591,+0.721,-167.982*77
$GPESD,065655.904,0.000,0.000,0.000,0.000,0.000,0.000,0.000,0.000,0.000*7D
$GPRMC,065656.072,A,3114.2790271,N,12129.1523623,E,5.37,37.51,210523,0.0,E,A,V*4E
$GPGGA,065656.072,3114.2790271,N,12129.1523623,E,1,22,1.0,1.143,M,11.084,M,32683.0,0000*73
$GPESA,065656.072,+0.530,-2.708,-0.103,-0.676,+0.855,-167.880*77
$GPESD,065656.072,0.000,0.000,0.000,0.000,0.000,0.000,0.000,0.000,0.000*76
$GPRMC,065656.202,A,3114.2788349,N,12129.1524116,E,5.37,36.37,210523,0.0,E,A,V*4F
$GPGGA,065656.202,3114.2788349,N,12129.1524116,E,1,22,1.0,1.127,M,11.084,M,32683.0,0000*71
$GPESA,065656.202,+0.574,-2.702,-0.116,-0.745,+0.903,-167.788*78
$GPESD,065656.202,0.000,0.000,0.000,0.000,0.000,0.000,0.000,0.000,0.000*73
$GPRMC,065656.332,A,3114.2786437,N,12129.1524547,E,5.34,36.01,210523,0.0,E,A,V*4B
$GPGGA,065656.332,3114.2786437,N,12129.1524547,E,1,22,1.0,1.112,M,11.084,M,32683.0,0000*75
$GPESA,065656.332,+0.595,-2.680,-0.138,-0.813,+0.913,-167.756*7C
$GPESD,065656.332,0.000,0.000,0.000,0.000,0.000,0.000,0.000,0.000,0.000*71
$GPRMC,065656.447,A,3114.2784770,N,12129.1524925,E,5.32,35.79,210523,0.0,E,A,V*4E
$GPGGA,065656.447,3114.2784770,N,12129.1524925,E,1,22,1.0,1.107,M,11.084,M,32683.0,0000*7E
$GPESA,065656.447,+0.601,-2.665,-0.142,-0.822,+0.868,-167.723*7C
$GPESD,065656.447,0.000,0.000,0.000,0.000,0.000,0.000,0.000,0.000,0.000*74
$GPRMC,065656.602,A,3114.2782540,N,12129.1525477,E,5.34,35.44,210523,0.0,E,A,V*49
$GPGGA,065656.602,3114.2782540,N,12129.1525477,E,1,22,1.0,1.093,M,11.084,M,32683.0,0000*7D
$GPESA,065656.602,+0.610,-2.673,-0.137,-0.740,+0.764,-167.657*70
$GPESD,065656.602,0.000,0.000,0.000,0.000,0.000,0.000,0.000,0.000,0.000*77
$GPRMC,065656.702,A,3114.2781103,N,12129.1525858,E,5.26,35.73,210523,0.0,E,A,V*4E
$GPGGA,065656.702,3114.2781103,N,12129.1525858,E,1,22,1.0,1.080,M,11.084,M,32683.0,0000*7F
$GPESA,065656.702,+0.588,-2.638,-0.126,-0.763,+0.730,-167.634*79
$GPESD,065656.702,0.000,0.000,0.000,0.000,0.000,0.000,0.000,0.000,0.000*76
$GPRMC,065656.880,A,3114.2778614,N,12129.1526355,E,5.02,36.86,210523,0.0,E,A,V*46
$GPGGA,065656.880,3114.2778614,N,12129.1526355,E,1,22,1.0,1.065,M,11.084,M,32683.0,0000*73
$GPESA,065656.880,+0.531,-2.524,-0.123,-0.863,+0.735,-167.608*70
$GPESD,065656.880,0.000,0.000,0.000,0.000,0.000,0.000,0.000,0.000,0.000*73
$GPRMC,065656.985,A,3114.2778126,N,12129.1526455,E,4.33,37.23,210523,0.0,E,A,V*4E
$GPGGA,065656.985,3114.2778126,N,12129.1526455,E,1,22,1.0,1.050,M,11.084,M,32683.0,0000*70
$GPESA,065656.985,+0.467,-2.175,-0.137,-0.610,+0.717,-167.560*74
$GPESD,065656.985,0.000,0.000,0.000,0.000,0.000,0.000,0.000,0.000,0.000*77
$GPRMC,065657.153,A,3114.2777566,N,12129.1526565,E,3.47,37.88,210523,0.0,E,A,V*44
$GPGGA,065657.153,3114.2777566,N,12129.1526565,E,1,22,1.0,1.028,M,11.084,M,32683.0,0000*70
$GPESA,065657.153,+0.386,-1.734,-0.153,-0.186,+0.675,-167.465*75
$GPESD,065657.153,0.000,0.000,0.000,0.000,0.000,0.000,0.000,0.000,0.000*75
$GPRMC,065657.323,A,3114.2779562,N,12129.1526080,E,1.49,37.88,210523,0.0,E,A,V*49
$GPGGA,065657.323,3114.2779562,N,12129.1526080,E,1,22,1.0,1.029,M,11.084,M,32683.0,0000*70
$GPESA,065657.323,+0.178,-0.732,-0.134,+0.797,+0.628,-167.217*7E
$GPESD,065657.323,0.000,0.000,0.000,0.000,0.000,0.000,0.000,0.000,0.000*70
$GPRMC,065657.468,A,3114.2779980,N,12129.1526006,E,0.81,37.88,210523,0.0,E,A,V*4A
$GPGGA,065657.468,3114.2779980,N,12129.1526006,E,1,22,1.0,1.023,M,11.084,M,32683.0,0000*7C
$GPESA,065657.468,+0.134,-0.377,-0.120,+1.102,+0.651,-167.151*7A
$GPESD,065657.468,0.000,0.000,0.000,0.000,0.000,0.000,0.000,0.000,0.000*78
$GPRMC,065657.610,A,3114.2779258,N,12129.1526106,E,1.01,37.88,210523,0.0,E,A,V*41
$GPGGA,065657.610,3114.2779258,N,12129.1526106,E,1,22,1.0,0.992,M,11.084,M,32683.0,0000*7C
$GPESA,065657.610,+0.162,-0.467,-0.167,+0.881,+0.627,-167.444*72
$GPESD,065657.610,0.000,0.000,0.000,0.000,0.000,0.000,0.000,0.000,0.000*75
$GPRMC,065657.778,A,3114.2781950,N,12129.1525248,E,0.56,37.88,210523,0.0,E,A,V*43
$GPGGA,065657.778,3114.2781950,N,12129.1525248,E,1,22,1.0,1.058,M,11.084,M,32683.0,0000*73
$GPESA,065657.778,-0.037,+0.273,-0.074,+1.574,+0.555,-167.337*7F
$GPESD,065657.778,0.000,0.000,0.000,0.000,0.000,0.000,0.000,0.000,0.000*7A
$GPRMC,065657.893,A,3114.2781986,N,12129.1525073,E,0.66,37.88,210523,0.0,E,A,V*4B
$GPGGA,065657.893,3114.2781986,N,12129.1525073,E,1,22,1.0,1.077,M,11.084,M,32683.0,0000*75
$GPESA,065657.893,-0.077,+0.327,-0.047,+1.472,+0.576,-167.267*73
$GPESD,065657.893,0.000,0.000,0.000,0.000,0.000,0.000,0.000,0.000,0.000*70
$GPRMC,065657.998,A,3114.2781579,N,12129.1525196,E,0.58,37.88,210523,0.0,E,A,V*4A
$GPGGA,065657.998,3114.2781579,N,12129.1525196,E,1,23,1.0,1.047,M,11.084,M,32683.0,0000*7B
$GPESA,065657.998,-0.039,+0.283,-0.094,+1.300,+0.567,-167.213*73
$GPESD,065657.998,0.000,0.000,0.000,0.000,0.000,0.000,0.000,0.000,0.000*7A
$GPRMC,065658.111,A,3114.2781601,N,12129.1525100,E,0.72,37.88,210523,0.0,E,A,V*47
$GPGGA,065658.111,3114.2781601,N,12129.1525100,E,1,23,1.0,1.084,M,11.084,M,32683.0,0000*71
$GPESA,065658.111,-0.063,+0.359,-0.053,+1.272,+0.560,-167.138*7E
$GPESD,065658.111,0.000,0.000,0.000,0.000,0.000,0.000,0.000,0.000,0.000*7C
$GPRMC,065658.234,A,3114.2781269,N,12129.1525191,E,0.73,37.88,210523,0.0,E,A,V*40
$GPGGA,065658.234,3114.2781269,N,12129.1525191,E,1,23,1.0,1.076,M,11.084,M,32683.0,0000*7A
$GPESA,065658.234,-0.045,+0.367,-0.059,+1.173,+0.530,-167.110*74
$GPESD,065658.234,0.000,0.000,0.000,0.000,0.000,0.000,0.000,0.000,0.000*78
$GPRMC,065658.384,A,3114.2780529,N,12129.1525252,E,0.64,37.88,210523,0.0,E,A,V*42
$GPGGA,065658.384,3114.2780529,N,12129.1525252,E,1,23,1.0,1.084,M,11.084,M,32683.0,0000*73
$GPESA,065658.384,-0.055,+0.321,-0.047,+0.962,+0.508,-167.057*72
$GPESD,065658.384,0.000,0.000,0.000,0.000,0.000,0.000,0.000,0.000,0.000*72
$GPRMC,065658.559,A,3114.2780191,N,12129.1525221,E,0.70,37.88,210523,0.0,E,A,V*42
$GPGGA,065658.559,3114.2780191,N,12129.1525221,E,1,24,1.0,1.080,M,11.084,M,32683.0,0000*75
$GPESA,065658.559,-0.075,+0.347,-0.054,+0.864,+0.547,-166.984*7E
$GPESD,065658.559,0.000,0.000,0.000,0.000,0.000,0.000,0.000,0.000,0.000*74
$GPRMC,065658.676,A,3114.2780084,N,12129.1525148,E,0.86,37.88,210523,0.0,E,A,V*4C
$GPGGA,065658.676,3114.2780084,N,12129.1525148,E,1,24,1.0,1.101,M,11.084,M,32683.0,0000*7A
$GPESA,065658.676,-0.096,+0.430,-0.034,+0.789,+0.583,-167.028*76
$GPESD,065658.676,0.000,0.000,0.000,0.000,0.000,0.000,0.000,0.000,0.000*7A
$GPRMC,065658.819,A,3114.2779613,N,12129.1525212,E,0.90,37.88,210523,0.0,E,A,V*4E
$GPGGA,065658.819,3114.2779613,N,12129.1525212,E,1,24,1.0,1.114,M,11.084,M,32683.0,0000*7B
$GPESA,065658.819,-0.068,+0.457,-0.015,+0.583,+0.569,-167.006*72
$GPESD,065658.819,0.000,0.000,0.000,0.000,0.000,0.000,0.000,0.000,0.000*7D
$GPRMC,065658.967,A,3114.2779705,N,12129.1525241,E,0.95,37.88,210523,0.0,E,A,V*43
$GPGGA,065658.967,3114.2779705,N,12129.1525241,E,1,24,1.0,1.121,M,11.084,M,32683.0,0000*75
$GPESA,065658.967,-0.035,+0.486,+0.005,+0.616,+0.480,-166.976*7F
$GPESD,065658.967,0.000,0.000,0.000,0.000,0.000,0.000,0.000,0.000,0.000*75
$GPRMC,065659.097,A,3114.2778953,N,12129.1525340,E,0.68,37.88,210523,0.0,E,A,V*4A
$GPGGA,065659.097,3114.2778953,N,12129.1525340,E,1,24,1.0,1.106,M,11.084,M,32683.0,0000*7B
$GPESA,065659.097,-0.039,+0.345,-0.012,+0.508,+0.365,-166.978*72
$GPESD,065659.097,0.000,0.000,0.000,0.000,0.000,0.000,0.000,0.000,0.000*72
$GPRMC,065659.222,A,3114.2778210,N,12129.1525374,E,0.84,37.88,210523,0.0,E,A,V*4F
