$GPRMC,065616.872,A,3114.3481519,N,12129.1416296,E,8.36,42.56,210523,0.0,E,A,V*4D
$GPGGA,065616.872,3114.3481519,N,12129.1416296,E,1,21,1.0,3.966,M,11.082,M,202156272.0,0000*78
$GPESA,065616.872,+0.546,-4.263,-0.135,-0.467,+1.157,-173.344*7F
$GPESD,065616.872,0.000,0.000,0.000,0.000,0.000,0.000,0.000,0.000,0.000*7A
$GPRMC,065616.972,A,3114.3479510,N,12129.1416489,E,8.46,42.87,210523,0.0,E,A,V*41
$GPGGA,065616.972,3114.3479510,N,12129.1416489,E,1,21,1.0,3.707,M,11.082,M,202156272.0,0000*76
$GPESA,065616.972,+0.571,-4.308,-0.188,-0.722,+1.487,-173.579*72
$GPESD,065616.972,0.000,0.000,0.000,0.000,0.000,0.000,0.000,0.000,0.000*7B
$GPRMC,065617.079,A,3114.3476990,N,12129.1416847,E,8.46,43.70,210523,0.0,E,A,V*4E
$GPGGA,065617.079,3114.3476990,N,12129.1416847,E,1,21,1.0,3.687,M,11.082,M,202156272.0,0000*79
$GPESA,065617.079,+0.512,-4.319,-0.170,-0.838,+1.291,-173.607*7C
$GPESD,065617.079,0.000,0.000,0.000,0.000,0.000,0.000,0.000,0.000,0.000*78
$GPRMC,065617.214,A,3114.3474014,N,12129.1417123,E,8.54,43.90,210523,0.0,E,A,V*47
$GPGGA,065617.214,3114.3474014,N,12129.1417123,E,1,21,1.0,3.460,M,11.082,M,202156272.0,0000*76
$GPESA,065617.214,+0.514,-4.362,-0.183,-1.043,+1.355,-173.692*73
$GPESD,065617.214,0.000,0.000,0.000,0.000,0.000,0.000,0.000,0.000,0.000*71
$GPRMC,065617.314,A,3114.3472243,N,12129.1417520,E,8.63,44.66,210523,0.0,E,A,V*4D
$GPGGA,065617.314,3114.3472243,N,12129.1417520,E,1,22,1.0,3.050,M,11.082,M,202156272.0,0000*72
$GPESA,065617.314,+0.454,-4.416,-0.157,-1.196,+1.223,-173.575*79
$GPESD,065617.314,0.000,0.000,0.000,0.000,0.000,0.000,0.000,0.000,0.000*70
$GPRMC,065617.442,A,3114.3469694,N,12129.1417886,E,8.77,45.47,210523,0.0,E,A,V*4B
$GPGGA,065617.442,3114.3469694,N,12129.1417886,E,1,23,1.0,2.658,M,11.082,M,202156272.0,0000*7D
$GPESA,065617.442,+0.396,-4.492,-0.138,-1.453,+1.573,-173.723*7E
$GPESD,065617.442,0.000,0.000,0.000,0.000,0.000,0.000,0.000,0.000,0.000*74
$GPRMC,065617.542,A,3114.3467284,N,12129.1418175,E,8.72,45.58,210523,0.0,E,A,V*40
$GPGGA,065617.542,3114.3467284,N,12129.1418175,E,1,23,1.0,2.640,M,11.082,M,202156272.0,0000*74
$GPESA,065617.542,+0.430,-4.460,-0.194,-1.136,+1.681,-173.708*7E
$GPESD,065617.542,0.000,0.000,0.000,0.000,0.000,0.000,0.000,0.000,0.000*75
$GPRMC,065617.642,A,3114.3465158,N,12129.1418609,E,8.73,41.91,210523,0.0,E,A,V*4F
$GPGGA,065617.642,3114.3465158,N,12129.1418609,E,1,23,1.0,2.453,M,11.082,M,202156272.0,0000*7B
$GPESA,065617.642,+0.618,-4.443,-0.157,-0.836,+1.538,-173.686*75
$GPESD,065617.642,0.000,0.000,0.000,0.000,0.000,0.000,0.000,0.000,0.000*76
$GPRMC,065617.762,A,3114.3462636,N,12129.1419126,E,8.84,45.88,210523,0.0,E,A,V*4B
$GPGGA,065617.762,3114.3462636,N,12129.1419126,E,1,20,1.0,2.088,M,11.082,M,202156272.0,0000*7A
$GPESA,065617.762,+0.450,-4.522,-0.238,-0.909,+1.232,-173.800*74
$GPESD,065617.762,0.000,0.000,0.000,0.000,0.000,0.000,0.000,0.000,0.000*75
$GPRMC,065617.880,A,3114.3459929,N,12129.1419473,E,8.92,47.97,210523,0.0,E,A,V*4F
$GPGGA,065617.880,3114.3459929,N,12129.1419473,E,1,21,1.0,1.919,M,11.082,M,202156272.0,0000*76
$GPESA,065617.880,+0.391,-4.558,-0.324,-0.633,+1.156,-173.861*7C
$GPESD,065617.880,0.000,0.000,0.000,0.000,0.000,0.000,0.000,0.000,0.000*76
$GPRMC,065618.010,A,3114.3456923,N,12129.1419879,E,8.99,46.30,210523,0.0,E,A,V*45
$GPGGA,065618.010,3114.3456923,N,12129.1419879,E,1,21,1.0,1.763,M,11.082,M,202156272.0,0000*78
$GPESA,065618.010,+0.416,-4.603,-0.222,-0.622,+1.351,-173.807*75
$GPESD,065618.010,0.000,0.000,0.000,0.000,0.000,0.000,0.000,0.000,0.000*78
$GPRMC,065618.170,A,3114.3453045,N,12129.1420345,E,9.21,46.85,210523,0.0,E,A,V*4C
$GPGGA,065618.170,3114.3453045,N,12129.1420345,E,1,21,1.0,1.629,M,11.082,M,202156272.0,0000*72
$GPESA,065618.170,+0.416,-4.715,-0.259,-0.834,+1.587,-173.797*7A
$GPESD,065618.170,0.000,0.000,0.000,0.000,0.000,0.000,0.000,0.000,0.000*7F
$GPRMC,065618.275,A,3114.3450713,N,12129.1420928,E,9.18,43.89,210523,0.0,E,A,V*4F
$GPGGA,065618.275,3114.3450713,N,12129.1420928,E,1,22,1.0,1.440,M,11.082,M,202156272.0,0000*7C
$GPESA,065618.275,+0.580,-4.679,-0.234,-1.015,+1.265,-173.850*77
$GPESD,065618.275,0.000,0.000,0.000,0.000,0.000,0.000,0.000,0.000,0.000*79
$GPRMC,065618.375,A,3114.3448447,N,12129.1421491,E,9.08,45.54,210523,0.0,E,A,V*4C
$GPGGA,065618.375,3114.3448447,N,12129.1421491,E,1,21,1.0,1.363,M,11.082,M,202156272.0,0000*7D
$GPESA,065618.375,+0.503,-4.634,-0.271,-1.027,+1.185,-173.895*70
$GPESD,065618.375,0.000,0.000,0.000,0.000,0.000,0.000,0.000,0.000,0.000*78
$GPRMC,065618.513,A,3114.3445274,N,12129.1422400,E,9.18,45.84,210523,0.0,E,A,V*46
$GPGGA,065618.513,3114.3445274,N,12129.1422400,E,1,22,1.0,1.295,M,11.082,M,202156272.0,0000*70
$GPESA,065618.513,+0.497,-4.689,-0.283,-0.764,+1.248,-173.880*76
$GPESD,065618.513,0.000,0.000,0.000,0.000,0.000,0.000,0.000,0.000,0.000*7E
$GPRMC,065618.626,A,3114.3442600,N,12129.1423212,E,9.27,45.52,210523,0.0,E,A,V*40
$GPGGA,065618.626,3114.3442600,N,12129.1423212,E,1,21,1.0,1.270,M,11.082,M,202156272.0,0000*79
$GPESA,065618.626,+0.528,-4.730,-0.294,-0.815,+1.028,-173.900*77
$GPESD,065618.626,0.000,0.000,0.000,0.000,0.000,0.000,0.000,0.000,0.000*7B
$GPRMC,065618.786,A,3114.3438772,N,12129.1424527,E,9.34,43.87,210523,0.0,E,A,V*48
$GPGGA,065618.786,3114.3438772,N,12129.1424527,E,1,21,1.0,1.303,M,11.082,M,202156272.0,0000*78
$GPESA,065618.786,+0.611,-4.758,-0.265,-0.801,+0.928,-173.941*7D
$GPESD,065618.786,0.000,0.000,0.000,0.000,0.000,0.000,0.000,0.000,0.000*70
$GPRMC,065618.886,A,3114.3436366,N,12129.1425262,E,9.37,43.51,210523,0.0,E,A,V*47
$GPGGA,065618.886,3114.3436366,N,12129.1425262,E,1,22,1.0,1.328,M,11.082,M,202156272.0,0000*75
$GPESA,065618.886,+0.642,-4.772,-0.275,-0.772,+0.899,-173.905*7D
$GPESD,065618.886,0.000,0.000,0.000,0.000,0.000,0.000,0.000,0.000,0.000*7F
$GPRMC,065618.986,A,3114.3433799,N,12129.1425785,E,9.46,42.62,210523,0.0,E,A,V*4C
$GPGGA,065618.986,3114.3433799,N,12129.1425785,E,1,20,1.0,1.366,M,11.082,M,202156272.0,0000*71
$GPESA,065618.986,+0.703,-4.808,-0.280,-0.825,+0.798,-173.898*76
$GPESD,065618.986,0.000,0.000,0.000,0.000,0.000,0.000,0.000,0.000,0.000*7E
$GPRMC,065619.124,A,3114.3430189,N,12129.1426388,E,9.54,42.93,210523,0.0,E,A,V*4E
$GPGGA,065619.124,3114.3430189,N,12129.1426388,E,1,19,1.0,1.392,M,11.082,M,202156272.0,0000*7F
$GPESA,065619.124,+0.728,-4.844,-0.336,-0.844,+0.385,-173.856*77
$GPESD,065619.124,0.000,0.000,0.000,0.000,0.000,0.000,0.000,0.000,0.000*7F
$GPRMC,065619.224,A,3114.3427582,N,12129.1426784,E,9.53,43.93,210523,0.0,E,A,V*4A
$GPGGA,065619.224,3114.3427582,N,12129.1426784,E,1,21,1.0,1.408,M,11.082,M,202156272.0,0000*72
$GPESA,065619.224,+0.650,-4.850,-0.312,-0.790,+0.519,-173.835*79
$GPESD,065619.224,0.000,0.000,0.000,0.000,0.000,0.000,0.000,0.000,0.000*7C
$GPRMC,065619.361,A,3114.3424019,N,12129.1427390,E,9.51,42.76,210523,0.0,E,A,V*46
$GPGGA,065619.361,3114.3424019,N,12129.1427390,E,1,22,1.0,1.407,M,11.082,M,202156272.0,0000*7A
$GPESA,065619.361,+0.701,-4.835,-0.285,-0.755,+0.649,-173.830*7A
$GPESD,065619.361,0.000,0.000,0.000,0.000,0.000,0.000,0.000,0.000,0.000*7C
$GPRMC,065619.461,A,3114.3421391,N,12129.1427855,E,9.59,42.40,210523,0.0,E,A,V*48
$GPGGA,065619.461,3114.3421391,N,12129.1427855,E,1,22,1.0,1.430,M,11.082,M,202156272.0,0000*7D
$GPESA,065619.461,+0.738,-4.867,-0.301,-0.745,+0.689,-173.848*7F
$GPESD,065619.461,0.000,0.000,0.000,0.000,0.000,0.000,0.000,0.000,0.000*7B
$GPRMC,065619.576,A,3114.3418356,N,12129.1428518,E,9.62,40.62,210523,0.0,E,A,V*4F
$GPGGA,065619.576,3114.3418356,N,12129.1428518,E,1,21,1.0,1.535,M,11.082,M,202156272.0,0000*77
$GPESA,065619.576,+0.834,-4.871,-0.285,-0.601,+0.540,-173.753*73
$GPESD,065619.576,0.000,0.000,0.000,0.000,0.000,0.000,0.000,0.000,0.000*7C
$GPRMC,065619.677,A,3114.3415701,N,12129.1429049,E,9.67,41.63,210523,0.0,E,A,V*43
$GPGGA,065619.677,3114.3415701,N,12129.1429049,E,1,21,1.0,1.506,M,11.082,M,202156272.0,0000*7E
$GPESA,065619.677,+0.811,-4.897,-0.335,-0.734,+0.139,-173.763*7A
$GPESD,065619.677,0.000,0.000,0.000,0.000,0.000,0.000,0.000,0.000,0.000*7E
$GPRMC,065619.777,A,3114.3413040,N,12129.1429500,E,9.64,43.54,210523,0.0,E,A,V*4B
$GPGGA,065619.777,3114.3413040,N,12129.1429500,E,1,21,1.0,1.557,M,11.082,M,202156272.0,0000*77
$GPESA,065619.777,+0.689,-4.899,-0.326,-0.760,+0.350,-173.630*73
$GPESD,065619.777,0.000,0.000,0.000,0.000,0.000,0.000,0.000,0.000,0.000*7F
$GPRMC,065619.877,A,3114.3410714,N,12129.1430904,E,9.63,43.30,210523,0.0,E,A,V*44
$GPGGA,065619.877,3114.3410714,N,12129.1430904,E,1,22,1.0,1.777,M,11.082,M,202156272.0,0000*7E
$GPESA,065619.877,+0.688,-4.897,-0.304,-0.783,+0.603,-173.470*7B
$GPESD,065619.877,0.000,0.000,0.000,0.000,0.000,0.000,0.000,0.000,0.000*70
$GPRMC,065620.002,A,3114.3407332,N,12129.1431592,E,9.57,41.34,210523,0.0,E,A,V*41
$GPGGA,065620.002,3114.3407332,N,12129.1431592,E,1,21,1.0,1.830,M,11.082,M,202156272.0,0000*75
$GPESA,065620.002,+0.786,-4.850,-0.282,-0.881,+0.466,-173.455*7B
$GPESD,065620.002,0.000,0.000,0.000,0.000,0.000,0.000,0.000,0.000,0.000*70
$GPRMC,065620.119,A,3114.3404151,N,12129.1432120,E,9.56,41.35,210523,0.0,E,A,V*40
$GPGGA,065620.119,3114.3404151,N,12129.1432120,E,1,21,1.0,1.873,M,11.082,M,202156272.0,0000*73
$GPESA,065620.119,+0.788,-4.847,-0.286,-0.812,+0.537,-173.357*76
$GPESD,065620.119,0.000,0.000,0.000,0.000,0.000,0.000,0.000,0.000,0.000*7B
$GPRMC,065620.220,A,3114.3401437,N,12129.1432407,E,9.58,40.92,210523,0.0,E,A,V*4B
$GPGGA,065620.220,3114.3401437,N,12129.1432407,E,1,21,1.0,1.911,M,11.082,M,202156272.0,0000*7F
$GPESA,065620.220,+0.810,-4.852,-0.280,-0.797,+0.532,-173.346*74
$GPESD,065620.220,0.000,0.000,0.000,0.000,0.000,0.000,0.000,0.000,0.000*72
$GPRMC,065620.335,A,3114.3398366,N,12129.1432740,E,9.52,41.96,210523,0.0,E,A,V*45
$GPGGA,065620.335,3114.3398366,N,12129.1432740,E,1,21,1.0,1.931,M,11.082,M,202156272.0,0000*7C
$GPESA,065620.335,+0.751,-4.831,-0.288,-0.797,+0.508,-173.268*72
$GPESD,065620.335,0.000,0.000,0.000,0.000,0.000,0.000,0.000,0.000,0.000*77
$GPRMC,065620.435,A,3114.3395710,N,12129.1433091,E,9.50,41.80,210523,0.0,E,A,V*45
$GPGGA,065620.435,3114.3395710,N,12129.1433091,E,1,21,1.0,1.940,M,11.082,M,202156272.0,0000*7F
$GPESA,065620.435,+0.759,-4.821,-0.287,-0.789,+0.533,-173.170*7E
$GPESD,065620.435,0.000,0.000,0.000,0.000,0.000,0.000,0.000,0.000,0.000*70
$GPRMC,065620.555,A,3114.3392642,N,12129.1433550,E,9.47,41.64,210523,0.0,E,A,V*47
$GPGGA,065620.555,3114.3392642,N,12129.1433550,E,1,23,1.0,1.983,M,11.082,M,202156272.0,0000*7C
$GPESA,065620.555,+0.748,-4.810,-0.259,-0.872,+0.564,-173.012*74
$GPESD,065620.555,0.000,0.000,0.000,0.000,0.000,0.000,0.000,0.000,0.000*77
$GPRMC,065620.655,A,3114.3390044,N,12129.1434025,E,9.43,41.48,210523,0.0,E,A,V*4C
$GPGGA,065620.655,3114.3390044,N,12129.1434025,E,1,23,1.0,1.957,M,11.082,M,202156272.0,0000*74
$GPESA,065620.655,+0.762,-4.781,-0.270,-0.898,+0.561,-172.966*79
$GPESD,065620.655,0.000,0.000,0.000,0.000,0.000,0.000,0.000,0.000,0.000*74
$GPRMC,065620.775,A,3114.3386864,N,12129.1434212,E,9.34,40.91,210523,0.0,E,A,V*41
$GPGGA,065620.775,3114.3386864,N,12129.1434212,E,1,23,1.0,1.981,M,11.082,M,202156272.0,0000*77
$GPESA,065620.775,+0.774,-4.738,-0.247,-0.978,+0.588,-172.853*74
$GPESD,065620.775,0.000,0.000,0.000,0.000,0.000,0.000,0.000,0.000,0.000*77
$GPRMC,065620.923,A,3114.3383118,N,12129.1434649,E,9.11,41.45,210523,0.0,E,A,V*4E
$GPGGA,065620.923,3114.3383118,N,12129.1434649,E,1,23,1.0,1.956,M,11.082,M,202156272.0,0000*7D
$GPESA,065620.923,+0.733,-4.621,-0.254,-1.092,+0.614,-172.775*70
$GPESD,065620.923,0.000,0.000,0.000,0.000,0.000,0.000,0.000,0.000,0.000*7A
$GPRMC,065621.043,A,3114.3380152,N,12129.1435206,E,8.88,41.51,210523,0.0,E,A,V*47
$GPGGA,065621.043,3114.3380152,N,12129.1435206,E,1,23,1.0,1.924,M,11.082,M,202156272.0,0000*75
$GPESA,065621.043,+0.732,-4.502,-0.278,-1.172,+0.597,-172.738*7D
$GPESD,065621.043,0.000,0.000,0.000,0.000,0.000,0.000,0.000,0.000,0.000*74
$GPRMC,065621.163,A,3114.3377239,N,12129.1435472,E,8.64,41.20,210523,0.0,E,A,V*43
$GPGGA,065621.163,3114.3377239,N,12129.1435472,E,1,23,1.0,1.898,M,11.082,M,202156272.0,0000*73
$GPESA,065621.163,+0.732,-4.377,-0.276,-1.257,+0.631,-172.699*75
$GPESD,065621.163,0.000,0.000,0.000,0.000,0.000,0.000,0.000,0.000,0.000*77
$GPRMC,065621.288,A,3114.3374239,N,12129.1435274,E,8.40,40.91,210523,0.0,E,A,V*4B
$GPGGA,065621.288,3114.3374239,N,12129.1435274,E,1,24,1.0,1.873,M,11.082,M,202156272.0,0000*74
$GPESA,065621.288,+0.709,-4.258,-0.241,-1.314,+0.614,-172.613*70
$GPESD,065621.288,0.000,0.000,0.000,0.000,0.000,0.000,0.000,0.000,0.000*71
$GPRMC,065621.388,A,3114.3371980,N,12129.1435501,E,8.21,40.89,210523,0.0,E,A,V*4D
$GPGGA,065621.388,3114.3371980,N,12129.1435501,E,1,24,1.0,1.848,M,11.082,M,202156272.0,0000*74
$GPESA,065621.388,+0.700,-4.160,-0.245,-1.342,+0.549,-172.570*7A
$GPESD,065621.388,0.000,0.000,0.000,0.000,0.000,0.000,0.000,0.000,0.000*70
$GPRMC,065621.521,A,3114.3369092,N,12129.1435836,E,7.90,41.49,210523,0.0,E,A,V*4A
$GPGGA,065621.521,3114.3369092,N,12129.1435836,E,1,24,1.0,1.816,M,11.082,M,202156272.0,0000*70
$GPESA,065621.521,+0.649,-4.007,-0.243,-1.370,+0.608,-172.483*7F
$GPESD,065621.521,0.000,0.000,0.000,0.000,0.000,0.000,0.000,0.000,0.000*75
$GPRMC,065621.621,A,3114.3366938,N,12129.1436038,E,7.71,41.27,210523,0.0,E,A,V*4D
$GPGGA,065621.621,3114.3366938,N,12129.1436038,E,1,24,1.0,1.794,M,11.082,M,202156272.0,0000*75
$GPESA,065621.621,+0.642,-3.906,-0.234,-1.362,+0.654,-172.426*7D
$GPESD,065621.621,0.000,0.000,0.000,0.000,0.000,0.000,0.000,0.000,0.000*76
$GPRMC,065621.721,A,3114.3366898,N,12129.1435998,E,6.97,40.73,210523,0.0,E,A,V*4E
$GPGGA,065621.721,3114.3366898,N,12129.1435998,E,1,24,1.0,1.825,M,11.082,M,202156272.0,0000*7A
$GPESA,065621.721,+0.609,-3.526,-0.221,-0.712,+0.716,-172.363*7A
$GPESD,065621.721,0.000,0.000,0.000,0.000,0.000,0.000,0.000,0.000,0.000*77
$GPRMC,065621.831,A,3114.3366776,N,12129.1436069,E,6.22,39.80,210523,0.0,E,A,V*47
$GPGGA,065621.831,3114.3366776,N,12129.1436069,E,1,24,1.0,1.848,M,11.082,M,202156272.0,0000*74
$GPESA,065621.831,+0.592,-3.139,-0.219,-0.073,+0.710,-172.291*7E
$GPESD,065621.831,0.000,0.000,0.000,0.000,0.000,0.000,0.000,0.000,0.000*79
$GPRMC,065621.964,A,3114.3368002,N,12129.1435750,E,4.96,40.04,210523,0.0,E,A,V*4D
$GPGGA,065621.964,3114.3368002,N,12129.1435750,E,1,25,1.0,1.897,M,11.082,M,202156272.0,0000*72
$GPESA,065621.964,+0.490,-2.497,-0.214,+1.058,+0.680,-172.171*7A
$GPESD,065621.964,0.000,0.000,0.000,0.000,0.000,0.000,0.000,0.000,0.000*78
$GPRMC,065622.064,A,3114.3368176,N,12129.1435692,E,4.24,39.97,210523,0.0,E,A,V*47
$GPGGA,065622.064,3114.3368176,N,12129.1435692,E,1,25,1.0,1.908,M,11.082,M,202156272.0,0000*72
$GPESA,065622.064,+0.446,-2.125,-0.222,+1.685,+0.654,-172.078*75
$GPESD,065622.064,0.000,0.000,0.000,0.000,0.000,0.000,0.000,0.000,0.000*72
$GPRMC,065622.174,A,3114.3370437,N,12129.1435190,E,0.73,39.97,210523,0.0,E,A,V*4D
$GPGGA,065622.174,3114.3370437,N,12129.1435190,E,1,24,1.0,1.934,M,11.082,M,202156272.0,0000*70
$GPESA,065622.174,-0.040,+0.370,-0.045,+1.785,+0.682,-171.993*71
$GPESD,065622.174,0.000,0.000,0.000,0.000,0.000,0.000,0.000,0.000,0.000*72
$GPRMC,065622.291,A,3114.3369037,N,12129.1435509,E,2.67,38.72,210523,0.0,E,A,V*40
$GPGGA,065622.291,3114.3369037,N,12129.1435509,E,1,24,1.0,1.935,M,11.082,M,202156272.0,0000*71
$GPESA,065622.291,+0.348,-1.309,-0.223,+3.042,+0.754,-171.848*7C
$GPESD,065622.291,0.000,0.000,0.000,0.000,0.000,0.000,0.000,0.000,0.000*7A
$GPRMC,065622.404,A,3114.3369840,N,12129.1435371,E,1.89,38.72,210523,0.0,E,A,V*48
$GPGGA,065622.404,3114.3369840,N,12129.1435371,E,1,23,1.0,1.957,M,11.082,M,202156272.0,0000*79
$GPESA,065622.404,+0.330,-0.887,-0.223,+3.711,+0.769,-171.747*7A
$GPESD,065622.404,0.000,0.000,0.000,0.000,0.000,0.000,0.000,0.000,0.000*70
$GPRMC,065622.524,A,3114.3371438,N,12129.1434990,E,0.97,38.72,210523,0.0,E,A,V*4B
$GPGGA,065622.524,3114.3371438,N,12129.1434990,E,1,23,1.0,1.995,M,11.082,M,202156272.0,0000*7A
$GPESA,065622.524,+0.022,+0.494,-0.042,+3.801,+0.710,-171.679*78
$GPESD,065622.524,0.000,0.000,0.000,0.000,0.000,0.000,0.000,0.000,0.000*73
$GPRMC,065622.664,A,3114.3371978,N,12129.1434977,E,0.59,38.72,210523,0.0,E,A,V*4E
$GPGGA,065622.664,3114.3371978,N,12129.1434977,E,1,24,1.0,2.046,M,11.082,M,202156272.0,0000*7E
$GPESA,065622.664,+0.206,-0.000,-0.223,+5.056,+0.700,-171.396*78
$GPESD,065622.664,0.000,0.000,0.000,0.000,0.000,0.000,0.000,0.000,0.000*74
$GPRMC,065622.784,A,3114.3373270,N,12129.1434074,E,1.01,38.72,210523,0.0,E,A,V*46
$GPGGA,065622.784,3114.3373270,N,12129.1434074,E,1,24,1.0,2.297,M,11.082,M,202156272.0,0000*74
$GPESA,065622.784,+0.006,+0.499,-0.136,+5.755,+0.928,-170.789*7B
$GPESD,065622.784,0.000,0.000,0.000,0.000,0.000,0.000,0.000,0.000,0.000*7B
$GPRMC,065622.884,A,3114.3372633,N,12129.1434115,E,1.24,38.72,210523,0.0,E,A,V*4A
$GPGGA,065622.884,3114.3372633,N,12129.1434115,E,1,24,1.0,2.359,M,11.082,M,202156272.0,0000*7C
$GPESA,065622.884,-0.049,+0.624,-0.118,+5.567,+0.994,-170.695*79
$GPESD,065622.884,0.000,0.000,0.000,0.000,0.000,0.000,0.000,0.000,0.000*74
$GPRMC,065623.012,A,3114.3372969,N,12129.1434145,E,1.89,38.72,210523,0.0,E,A,V*4E
$GPGGA,065623.012,3114.3372969,N,12129.1434145,E,1,24,1.0,2.358,M,11.082,M,202156272.0,0000*7E
$GPESA,065623.012,-0.069,+0.961,-0.150,+5.666,+1.017,-170.735*75
$GPESD,065623.012,0.000,0.000,0.000,0.000,0.000,0.000,0.000,0.000,0.000*72
$GPRMC,065623.132,A,3114.3373354,N,12129.1434142,E,2.46,218.56,210523,0.0,E,A,V*79
$GPGGA,065623.132,3114.3373354,N,12129.1434142,E,1,24,1.0,2.339,M,11.082,M,202156272.0,0000*78
$GPESA,065623.132,-0.077,+1.249,-0.190,+5.791,+0.994,-170.749*74
$GPESD,065623.132,0.000,0.000,0.000,0.000,0.000,0.000,0.000,0.000,0.000*71
$GPRMC,065623.232,A,3114.3373694,N,12129.1434117,E,2.89,219.15,210523,0.0,E,A,V*76
$GPGGA,065623.232,3114.3373694,N,12129.1434117,E,1,24,1.0,2.315,M,11.082,M,202156272.0,0000*7C
$GPESA,065623.232,-0.088,+1.470,-0.207,+5.914,+0.963,-170.774*73
$GPESD,065623.232,0.000,0.000,0.000,0.000,0.000,0.000,0.000,0.000,0.000*72
$GPRMC,065623.332,A,3114.3374174,N,12129.1434078,E,3.33,219.19,210523,0.0,E,A,V*7D
$GPGGA,065623.332,3114.3374174,N,12129.1434078,E,1,24,1.0,2.286,M,11.082,M,202156272.0,0000*70
$GPESA,065623.332,-0.109,+1.694,-0.225,+5.990,+0.918,-170.806*78
$GPESD,065623.332,0.000,0.000,0.000,0.000,0.000,0.000,0.000,0.000,0.000*73
$GPRMC,065623.455,A,3114.3375401,N,12129.1433991,E,3.91,219.52,210523,0.0,E,A,V*73
$GPGGA,065623.455,3114.3375401,N,12129.1433991,E,1,24,1.0,2.257,M,11.082,M,202156272.0,0000*75
$GPESA,065623.455,-0.121,+1.990,-0.259,+6.156,+0.904,-170.758*7C
$GPESD,065623.455,0.000,0.000,0.000,0.000,0.000,0.000,0.000,0.000,0.000*75
$GPRMC,065623.555,A,3114.3375650,N,12129.1433955,E,4.27,219.96,210523,0.0,E,A,V*7E
$GPGGA,065623.555,3114.3375650,N,12129.1433955,E,1,24,1.0,2.204,M,11.082,M,202156272.0,0000*7C
$GPESA,065623.555,-0.124,+2.178,-0.274,+6.264,+0.828,-170.898*74
$GPESD,065623.555,0.000,0.000,0.000,0.000,0.000,0.000,0.000,0.000,0.000*74
$GPRMC,065623.655,A,3114.3376363,N,12129.1434432,E,4.61,220.45,210523,0.0,E,A,V*76
$GPGGA,065623.655,3114.3376363,N,12129.1434432,E,1,25,1.0,2.212,M,11.082,M,202156272.0,0000*74
$GPESA,065623.655,-0.124,+2.350,-0.284,+6.393,+0.791,-170.938*7F
$GPESD,065623.655,0.000,0.000,0.000,0.000,0.000,0.000,0.000,0.000,0.000*77
$GPRMC,065640.981,A,3114.3201783,N,12129.1450680,E,8.05,43.35,210523,0.0,E,A,V*49
$GPGGA,065640.981,3114.3201783,N,12129.1450680,E,1,21,1.0,2.642,M,11.083,M,0.0,0000*74
$GPESA,065640.981,+0.482,-4.113,-0.128,-0.780,+1.475,-173.370*78
$GPESD,065640.981,0.000,0.000,0.000,0.000,0.000,0.000,0.000,0.000,0.000*74
$GPRMC,065641.081,A,3114.3199677,N,12129.1451230,E,8.20,43.72,210523,0.0,E,A,V*43
$GPGGA,065641.081,3114.3199677,N,12129.1451230,E,1,21,1.0,2.651,M,11.083,M,0.0,0000*78
$GPESA,065641.081,+0.458,-4.194,-0.114,-0.584,+1.805,-173.492*71
$GPESD,065641.081,0.000,0.000,0.000,0.000,0.000,0.000,0.000,0.000,0.000*7C
$GPRMC,065641.181,A,3114.3197379,N,12129.1451523,E,8.39,43.76,210523,0.0,E,A,V*4E
$GPGGA,065641.181,3114.3197379,N,12129.1451523,E,1,21,1.0,2.638,M,11.083,M,0.0,0000*76
$GPESA,065641.181,+0.487,-4.285,-0.144,-0.585,+1.791,-173.573*79
$GPESD,065641.181,0.000,0.000,0.000,0.000,0.000,0.000,0.000,0.000,0.000*7D
$GPRMC,065641.318,A,3114.3194279,N,12129.1452276,E,8.61,43.96,210523,0.0,E,A,V*49
$GPGGA,065641.318,3114.3194279,N,12129.1452276,E,1,21,1.0,2.637,M,11.083,M,0.0,0000*7D
$GPESA,065641.318,+0.484,-4.399,-0.143,-0.459,+1.618,-173.731*77
$GPESD,065641.318,0.000,0.000,0.000,0.000,0.000,0.000,0.000,0.000,0.000*7F
$GPRMC,065641.421,A,3114.3191797,N,12129.1452669,E,8.83,44.05,210523,0.0,E,A,V*4F
$GPGGA,065641.421,3114.3191797,N,12129.1452669,E,1,21,1.0,2.629,M,11.083,M,0.0,0000*75
$GPESA,065641.421,+0.487,-4.512,-0.141,-0.512,+1.537,-173.812*70
$GPESD,065641.421,0.000,0.000,0.000,0.000,0.000,0.000,0.000,0.000,0.000*72
$GPRMC,065641.521,A,3114.3189393,N,12129.1453299,E,9.00,43.94,210523,0.0,E,A,V*48
$GPGGA,065641.521,3114.3189393,N,12129.1453299,E,1,21,1.0,2.623,M,11.083,M,0.0,0000*7D
$GPESA,065641.521,+0.505,-4.599,-0.145,-0.594,+1.404,-173.799*7E
$GPESD,065641.521,0.000,0.000,0.000,0.000,0.000,0.000,0.000,0.000,0.000*73
$GPRMC,065641.649,A,3114.3186204,N,12129.1453754,E,9.14,44.10,210523,0.0,E,A,V*4F
$GPGGA,065641.649,3114.3186204,N,12129.1453754,E,1,21,1.0,2.614,M,11.083,M,0.0,0000*70
$GPESA,065641.649,+0.508,-4.673,-0.156,-0.623,+1.457,-173.815*79
$GPESD,065641.649,0.000,0.000,0.000,0.000,0.000,0.000,0.000,0.000,0.000*7E
$GPRMC,065641.749,A,3114.3183758,N,12129.1454378,E,9.21,43.39,210523,0.0,E,A,V*40
$GPGGA,065641.749,3114.3183758,N,12129.1454378,E,1,21,1.0,2.616,M,11.083,M,0.0,0000*77
$GPESA,065641.749,+0.545,-4.704,-0.141,-0.612,+1.418,-173.805*7E
$GPESD,065641.749,0.000,0.000,0.000,0.000,0.000,0.000,0.000,0.000,0.000*7F
$GPRMC,065641.861,A,3114.3180895,N,12129.1454955,E,9.28,42.93,210523,0.0,E,A,V*45
$GPGGA,065641.861,3114.3180895,N,12129.1454955,E,1,21,1.0,2.601,M,11.083,M,0.0,0000*7C
$GPESA,065641.861,+0.595,-4.735,-0.166,-0.737,+1.140,-173.789*74
$GPESD,065641.861,0.000,0.000,0.000,0.000,0.000,0.000,0.000,0.000,0.000*7A
$GPRMC,065641.969,A,3114.3178175,N,12129.1455636,E,9.32,42.47,210523,0.0,E,A,V*45
$GPGGA,065641.969,3114.3178175,N,12129.1455636,E,1,21,1.0,2.594,M,11.083,M,0.0,0000*71
$GPESA,065641.969,+0.634,-4.749,-0.178,-0.800,+1.005,-173.738*70
$GPESD,065641.969,0.000,0.000,0.000,0.000,0.000,0.000,0.000,0.000,0.000*73
$GPRMC,065642.069,A,3114.3175597,N,12129.1456045,E,9.31,42.95,210523,0.0,E,A,V*47
$GPGGA,065642.069,3114.3175597,N,12129.1456045,E,1,21,1.0,2.581,M,11.083,M,0.0,0000*7B
$GPESA,065642.069,+0.610,-4.749,-0.187,-0.840,+1.018,-173.704*7B
$GPESD,065642.069,0.000,0.000,0.000,0.000,0.000,0.000,0.000,0.000,0.000*79
$GPRMC,065642.169,A,3114.3173002,N,12129.1456441,E,9.34,43.06,210523,0.0,E,A,V*47
$GPGGA,065642.169,3114.3173002,N,12129.1456441,E,1,21,1.0,2.569,M,11.083,M,0.0,0000*73
$GPESA,065642.169,+0.602,-4.763,-0.183,-0.852,+1.124,-173.665*7E
$GPESD,065642.169,0.000,0.000,0.000,0.000,0.000,0.000,0.000,0.000,0.000*78
$GPRMC,065642.269,A,3114.3170408,N,12129.1456834,E,9.36,42.78,210523,0.0,E,A,V*4D
$GPGGA,065642.269,3114.3170408,N,12129.1456834,E,1,21,1.0,2.558,M,11.083,M,0.0,0000*71
$GPESA,065642.269,+0.621,-4.773,-0.184,-0.843,+1.148,-173.615*77
$GPESD,065642.269,0.000,0.000,0.000,0.000,0.000,0.000,0.000,0.000,0.000*7B
$GPRMC,065642.389,A,3114.3167285,N,12129.1457324,E,9.40,43.04,210523,0.0,E,A,V*47
$GPGGA,065642.389,3114.3167285,N,12129.1457324,E,1,21,1.0,2.541,M,11.083,M,0.0,0000*78
$GPESA,065642.389,+0.636,-4.787,-0.225,-0.888,+1.148,-173.581*74
$GPESD,065642.389,0.000,0.000,0.000,0.000,0.000,0.000,0.000,0.000,0.000*74
$GPRMC,065642.515,A,3114.3164024,N,12129.1457845,E,9.40,42.72,210523,0.0,E,A,V*42
$GPGGA,065642.515,3114.3164024,N,12129.1457845,E,1,21,1.0,2.520,M,11.083,M,0.0,0000*7A
$GPESA,065642.515,+0.656,-4.784,-0.226,-0.936,+1.095,-173.542*7B
$GPESD,065642.515,0.000,0.000,0.000,0.000,0.000,0.000,0.000,0.000,0.000*77
$GPRMC,065642.615,A,3114.3161442,N,12129.1458303,E,9.38,42.52,210523,0.0,E,A,V*4B
$GPGGA,065642.615,3114.3161442,N,12129.1458303,E,1,21,1.0,2.504,M,11.083,M,0.0,0000*78
$GPESA,065642.615,+0.667,-4.775,-0.226,-0.916,+1.011,-173.491*75
$GPESD,065642.615,0.000,0.000,0.000,0.000,0.000,0.000,0.000,0.000,0.000*74
$GPRMC,065642.730,A,3114.3158486,N,12129.1458779,E,9.36,42.58,210523,0.0,E,A,V*42
$GPGGA,065642.730,3114.3158486,N,12129.1458779,E,1,20,1.0,2.490,M,11.083,M,0.0,0000*78
$GPESA,065642.730,+0.658,-4.765,-0.219,-0.898,+1.015,-173.419*71
$GPESD,065642.730,0.000,0.000,0.000,0.000,0.000,0.000,0.000,0.000,0.000*72
$GPRMC,065642.832,A,3114.3155860,N,12129.1459223,E,9.33,42.33,210523,0.0,E,A,V*45
$GPGGA,065642.832,3114.3155860,N,12129.1459223,E,1,20,1.0,2.478,M,11.083,M,0.0,0000*71
$GPESA,065642.832,+0.679,-4.746,-0.230,-0.959,+0.985,-173.379*79
$GPESD,065642.832,0.000,0.000,0.000,0.000,0.000,0.000,0.000,0.000,0.000*7F
$GPRMC,065642.947,A,3114.3152897,N,12129.1459732,E,9.29,42.43,210523,0.0,E,A,V*40
$GPGGA,065642.947,3114.3152897,N,12129.1459732,E,1,20,1.0,2.469,M,11.083,M,0.0,0000*78
$GPESA,065642.947,+0.685,-4.722,-0.252,-0.994,+0.955,-173.293*76
$GPESD,065642.947,0.000,0.000,0.000,0.000,0.000,0.000,0.000,0.000,0.000*7C
$GPRMC,065643.047,A,3114.3150347,N,12129.1460170,E,9.25,42.28,210523,0.0,E,A,V*47
$GPGGA,065643.047,3114.3150347,N,12129.1460170,E,1,20,1.0,2.443,M,11.083,M,0.0,0000*76
$GPESA,065643.047,+0.696,-4.702,-0.257,-0.959,+0.930,-173.275*71
$GPESD,065643.047,0.000,0.000,0.000,0.000,0.000,0.000,0.000,0.000,0.000*74
$GPRMC,065643.188,A,3114.3146783,N,12129.1460788,E,9.22,42.10,210523,0.0,E,A,V*43
$GPGGA,065643.188,3114.3146783,N,12129.1460788,E,1,20,1.0,2.421,M,11.083,M,0.0,0000*7A
$GPESA,065643.188,+0.700,-4.686,-0.251,-0.949,+0.887,-173.293*72
$GPESD,065643.188,0.000,0.000,0.000,0.000,0.000,0.000,0.000,0.000,0.000*76
$GPRMC,065643.288,A,3114.3144326,N,12129.1461101,E,9.15,42.18,210523,0.0,E,A,V*43
$GPGGA,065643.288,3114.3144326,N,12129.1461101,E,1,20,1.0,2.463,M,11.083,M,0.0,0000*70
$GPESA,065643.288,+0.687,-4.649,-0.245,-0.898,+0.911,-173.298*71
$GPESD,065643.288,0.000,0.000,0.000,0.000,0.000,0.000,0.000,0.000,0.000*75
$GPRMC,065643.393,A,3114.3141679,N,12129.1461497,E,9.11,42.11,210523,0.0,E,A,V*45
$GPGGA,065643.393,3114.3141679,N,12129.1461497,E,1,20,1.0,2.482,M,11.083,M,0.0,0000*74
$GPESA,065643.393,+0.692,-4.627,-0.249,-0.853,+0.905,-173.307*7F
$GPESD,065643.393,0.000,0.000,0.000,0.000,0.000,0.000,0.000,0.000,0.000*7E
$GPRMC,065643.533,A,3114.3138169,N,12129.1462116,E,9.08,41.64,210523,0.0,E,A,V*47
$GPGGA,065643.533,3114.3138169,N,12129.1462116,E,1,20,1.0,2.456,M,11.083,M,0.0,0000*76
$GPESA,065643.533,+0.734,-4.608,-0.274,-0.693,+0.702,-173.256*73
$GPESD,065643.533,0.000,0.000,0.000,0.000,0.000,0.000,0.000,0.000,0.000*72
$GPRMC,065643.633,A,3114.3135653,N,12129.1462549,E,9.13,41.46,210523,0.0,E,A,V*43
$GPGGA,065643.633,3114.3135653,N,12129.1462549,E,1,20,1.0,2.444,M,11.083,M,0.0,0000*7B
$GPESA,065643.633,+0.742,-4.628,-0.266,-0.662,+0.603,-173.245*7C
$GPESD,065643.633,0.000,0.000,0.000,0.000,0.000,0.000,0.000,0.000,0.000*71
$GPRMC,065643.771,A,3114.3132170,N,12129.1463117,E,9.25,43.07,210523,0.0,E,A,V*49
$GPGGA,065643.771,3114.3132170,N,12129.1463117,E,1,21,1.0,2.505,M,11.083,M,0.0,0000*76
$GPESA,065643.771,+0.673,-4.704,-0.290,-0.719,+0.694,-173.203*7F
$GPESD,065643.771,0.000,0.000,0.000,0.000,0.000,0.000,0.000,0.000,0.000*76
$GPRMC,065643.873,A,3114.3129561,N,12129.1463539,E,9.37,42.60,210523,0.0,E,A,V*41
$GPGGA,065643.873,3114.3129561,N,12129.1463539,E,1,21,1.0,2.490,M,11.083,M,0.0,0000*70
$GPESA,065643.873,+0.706,-4.759,-0.290,-0.739,+0.820,-173.121*79
$GPESD,065643.873,0.000,0.000,0.000,0.000,0.000,0.000,0.000,0.000,0.000*7B
$GPRMC,065643.976,A,3114.3126891,N,12129.1463958,E,9.53,41.86,210523,0.0,E,A,V*4A
$GPGGA,065643.976,3114.3126891,N,12129.1463958,E,1,21,1.0,2.475,M,11.083,M,0.0,0000*79
$GPESA,065643.976,+0.754,-4.837,-0.282,-0.818,+0.934,-173.070*73
$GPESD,065643.976,0.000,0.000,0.000,0.000,0.000,0.000,0.000,0.000,0.000*7F
$GPRMC,065644.076,A,3114.3124264,N,12129.1464398,E,9.67,40.15,210523,0.0,E,A,V*4B
$GPGGA,065644.076,3114.3124264,N,12129.1464398,E,1,21,1.0,2.466,M,11.083,M,0.0,0000*76
$GPESA,065644.076,+0.858,-4.891,-0.274,-0.930,+0.799,-173.056*7D
$GPESD,065644.076,0.000,0.000,0.000,0.000,0.000,0.000,0.000,0.000,0.000*71
$GPRMC,065644.181,A,3114.3121467,N,12129.1464963,E,9.76,40.50,210523,0.0,E,A,V*4D
$GPGGA,065644.181,3114.3121467,N,12129.1464963,E,1,21,1.0,2.436,M,11.083,M,0.0,0000*74
$GPESA,065644.181,+0.857,-4.939,-0.294,-0.955,+0.625,-173.066*70
$GPESD,065644.181,0.000,0.000,0.000,0.000,0.000,0.000,0.000,0.000,0.000*78
$GPRMC,065644.321,A,3114.3117684,N,12129.1465267,E,9.89,43.06,210523,0.0,E,A,V*41
$GPGGA,065644.321,3114.3117684,N,12129.1465267,E,1,20,1.0,2.475,M,11.083,M,0.0,0000*7E
$GPESA,065644.321,+0.732,-5.024,-0.328,-0.737,+0.656,-172.966*70
$GPESD,065644.321,0.000,0.000,0.000,0.000,0.000,0.000,0.000,0.000,0.000*70
$GPRMC,065644.439,A,3114.3114381,N,12129.1465729,E,10.15,42.45,210523,0.0,E,A,V*78
$GPGGA,065644.439,3114.3114381,N,12129.1465729,E,1,20,1.0,2.489,M,11.083,M,0.0,0000*7F
$GPESA,065644.439,+0.774,-5.155,-0.314,-0.605,+0.800,-172.871*7E
$GPESD,065644.439,0.000,0.000,0.000,0.000,0.000,0.000,0.000,0.000,0.000*7E
$GPRMC,065644.539,A,3114.3111501,N,12129.1465970,E,10.35,41.88,210523,0.0,E,A,V*70
$GPGGA,065644.539,3114.3111501,N,12129.1465970,E,1,21,1.0,2.513,M,11.083,M,0.0,0000*74
$GPESA,065644.539,+0.825,-5.253,-0.318,-0.574,+0.902,-172.806*7B
$GPESD,065644.539,0.000,0.000,0.000,0.000,0.000,0.000,0.000,0.000,0.000*7F
$GPRMC,065644.667,A,3114.3107782,N,12129.1466532,E,10.58,40.38,210523,0.0,E,A,V*7E
$GPGGA,065644.667,3114.3107782,N,12129.1466532,E,1,21,1.0,2.526,M,11.083,M,0.0,0000*7D
$GPESA,065644.667,+0.914,-5.359,-0.285,-0.593,+0.865,-172.806*77
$GPESD,065644.667,0.000,0.000,0.000,0.000,0.000,0.000,0.000,0.000,0.000*77
$GPRMC,065644.787,A,3114.3104240,N,12129.1466942,E,10.75,40.36,210523,0.0,E,A,V*73
$GPGGA,065644.787,3114.3104240,N,12129.1466942,E,1,20,1.0,2.582,M,11.083,M,0.0,0000*7E
$GPESA,065644.787,+0.928,-5.443,-0.286,-0.705,+0.798,-172.748*7D
$GPESD,065644.787,0.000,0.000,0.000,0.000,0.000,0.000,0.000,0.000,0.000*78
$GPRMC,065644.902,A,3114.3100768,N,12129.1467447,E,10.96,40.63,210523,0.0,E,A,V*7F
$GPGGA,065644.902,3114.3100768,N,12129.1467447,E,1,20,1.0,2.589,M,11.083,M,0.0,0000*74
$GPESA,065644.902,+0.941,-5.552,-0.311,-0.678,+0.779,-172.766*77
$GPESD,065644.902,0.000,0.000,0.000,0.000,0.000,0.000,0.000,0.000,0.000*7B
$GPRMC,065645.007,A,3114.3097520,N,12129.1467885,E,11.17,40.89,210523,0.0,E,A,V*7D
$GPGGA,065645.007,3114.3097520,N,12129.1467885,E,1,21,1.0,2.599,M,11.083,M,0.0,0000*7A
$GPESA,065645.007,+0.934,-5.664,-0.307,-0.657,+0.785,-172.724*71
$GPESD,065645.007,0.000,0.000,0.000,0.000,0.000,0.000,0.000,0.000,0.000*76
$GPRMC,065645.114,A,3114.3094115,N,12129.1468211,E,11.37,41.05,210523,0.0,E,A,V*70
$GPGGA,065645.114,3114.3094115,N,12129.1468211,E,1,21,1.0,2.612,M,11.083,M,0.0,0000*70
$GPESA,065645.114,+0.935,-5.768,-0.304,-0.650,+0.769,-172.672*7A
$GPESD,065645.114,0.000,0.000,0.000,0.000,0.000,0.000,0.000,0.000,0.000*75
$GPRMC,065645.214,A,3114.3090917,N,12129.1468431,E,11.52,40.85,210523,0.0,E,A,V*73
$GPGGA,065645.214,3114.3090917,N,12129.1468431,E,1,21,1.0,2.632,M,11.083,M,0.0,0000*7B
$GPESA,065645.214,+0.949,-5.843,-0.289,-0.646,+0.847,-172.607*76
$GPESD,065645.214,0.000,0.000,0.000,0.000,0.000,0.000,0.000,0.000,0.000*76
$GPRMC,065645.355,A,3114.3086383,N,12129.1468883,E,11.73,40.75,210523,0.0,E,A,V*7E
$GPGGA,065645.355,3114.3086383,N,12129.1468883,E,1,21,1.0,2.638,M,11.083,M,0.0,0000*70
$GPESA,065645.355,+0.982,-5.945,-0.309,-0.670,+0.899,-172.527*7C
$GPESD,065645.355,0.000,0.000,0.000,0.000,0.000,0.000,0.000,0.000,0.000*72
$GPRMC,065645.492,A,3114.3081799,N,12129.1468998,E,11.83,40.86,210523,0.0,E,A,V*72
$GPGGA,065645.492,3114.3081799,N,12129.1468998,E,1,21,1.0,2.674,M,11.083,M,0.0,0000*77
$GPESA,065645.492,+0.975,-5.997,-0.300,-0.724,+0.959,-172.462*73
$GPESD,065645.492,0.000,0.000,0.000,0.000,0.000,0.000,0.000,0.000,0.000*7E
$GPRMC,065645.612,A,3114.3077843,N,12129.1469391,E,11.80,40.82,210523,0.0,E,A,V*7C
$GPGGA,065645.612,3114.3077843,N,12129.1469391,E,1,21,1.0,2.675,M,11.083,M,0.0,0000*7F
$GPESA,065645.612,+0.968,-5.984,-0.287,-0.805,+0.991,-172.388*72
$GPESD,065645.612,0.000,0.000,0.000,0.000,0.000,0.000,0.000,0.000,0.000*74
$GPRMC,065645.712,A,3114.3074517,N,12129.1469661,E,11.79,40.65,210523,0.0,E,A,V*77
$GPGGA,065645.712,3114.3074517,N,12129.1469661,E,1,21,1.0,2.682,M,11.083,M,0.0,0000*73
$GPESA,065645.712,+0.974,-5.978,-0.278,-0.852,+1.013,-172.321*7E
$GPESD,065645.712,0.000,0.000,0.000,0.000,0.000,0.000,0.000,0.000,0.000*75
$GPRMC,065645.855,A,3114.3069847,N,12129.1470224,E,11.81,40.45,210523,0.0,E,A,V*77
$GPGGA,065645.855,3114.3069847,N,12129.1470224,E,1,21,1.0,2.679,M,11.083,M,0.0,0000*72
$GPESA,065645.855,+0.987,-5.987,-0.275,-0.798,+1.062,-172.212*7D
$GPESD,065645.855,0.000,0.000,0.000,0.000,0.000,0.000,0.000,0.000,0.000*79
$GPRMC,065645.955,A,3114.3066500,N,12129.1470319,E,11.84,40.23,210523,0.0,E,A,V*7D
$GPGGA,065645.955,3114.3066500,N,12129.1470319,E,1,21,1.0,2.717,M,11.083,M,0.0,0000*74
$GPESA,065645.955,+0.990,-6.006,-0.251,-0.786,+1.044,-172.121*77
$GPESD,065645.955,0.000,0.000,0.000,0.000,0.000,0.000,0.000,0.000,0.000*78
$GPRMC,065646.055,A,3114.3063221,N,12129.1470667,E,11.84,40.43,210523,0.0,E,A,V*7C
$GPGGA,065646.055,3114.3063221,N,12129.1470667,E,1,21,1.0,2.724,M,11.083,M,0.0,0000*73
$GPESA,065646.055,+0.975,-6.006,-0.250,-0.799,+1.106,-172.045*7D
$GPESD,065646.055,0.000,0.000,0.000,0.000,0.000,0.000,0.000,0.000,0.000*72
$GPRMC,065646.205,A,3114.3058299,N,12129.1471344,E,11.85,40.17,210523,0.0,E,A,V*75
$GPGGA,065646.205,3114.3058299,N,12129.1471344,E,1,21,1.0,2.717,M,11.083,M,0.0,0000*7A
$GPESA,065646.205,+0.993,-6.010,-0.248,-0.898,+1.237,-171.922*78
$GPESD,065646.205,0.000,0.000,0.000,0.000,0.000,0.000,0.000,0.000,0.000*75
$GPRMC,065646.345,A,3114.3053752,N,12129.1472048,E,11.83,39.87,210523,0.0,E,A,V*74
$GPGGA,065646.345,3114.3053752,N,12129.1472048,E,1,22,1.0,2.714,M,11.083,M,0.0,0000*7A
$GPESA,065646.345,+1.026,-5.993,-0.266,-0.922,+1.207,-171.812*77
$GPESD,065646.345,0.000,0.000,0.000,0.000,0.000,0.000,0.000,0.000,0.000*70
$GPRMC,065646.446,A,3114.3050503,N,12129.1472471,E,11.80,39.95,210523,0.0,E,A,V*7B
$GPGGA,065646.446,3114.3050503,N,12129.1472471,E,1,22,1.0,2.724,M,11.083,M,0.0,0000*76
$GPESA,065646.446,+1.013,-5.982,-0.259,-0.904,+1.168,-171.748*77
$GPESD,065646.446,0.000,0.000,0.000,0.000,0.000,0.000,0.000,0.000,0.000*74
$GPRMC,065646.576,A,3114.3046206,N,12129.1472907,E,11.76,40.24,210523,0.0,E,A,V*7D
$GPGGA,065646.576,3114.3046206,N,12129.1472907,E,1,21,1.0,2.764,M,11.083,M,0.0,0000*7A
$GPESA,065646.576,+0.979,-5.965,-0.244,-0.889,+1.332,-171.650*75
$GPESD,065646.576,0.000,0.000,0.000,0.000,0.000,0.000,0.000,0.000,0.000*76
$GPRMC,065646.708,A,3114.3041926,N,12129.1473746,E,11.76,39.92,210523,0.0,E,A,V*71
$GPGGA,065646.708,3114.3041926,N,12129.1473746,E,1,21,1.0,2.730,M,11.083,M,0.0,0000*74
$GPESA,065646.708,+1.014,-5.958,-0.262,-0.881,+1.368,-171.551*72
$GPESD,065646.708,0.000,0.000,0.000,0.000,0.000,0.000,0.000,0.000,0.000*7D
$GPRMC,065646.828,A,3114.3038022,N,12129.1474389,E,11.73,39.90,210523,0.0,E,A,V*78
$GPGGA,065646.828,3114.3038022,N,12129.1474389,E,1,21,1.0,2.758,M,11.083,M,0.0,0000*74
$GPESA,065646.828,+1.013,-5.941,-0.261,-0.893,+1.444,-171.466*7C
$GPESD,065646.828,0.000,0.000,0.000,0.000,0.000,0.000,0.000,0.000,0.000*70
$GPRMC,065646.974,A,3114.3033368,N,12129.1475235,E,11.70,39.70,210523,0.0,E,A,V*7C
$GPGGA,065646.974,3114.3033368,N,12129.1475235,E,1,21,1.0,2.731,M,11.083,M,0.0,0000*72
$GPESA,065646.974,+1.015,-5.925,-0.246,-0.918,+1.424,-171.367*77
$GPESD,065646.974,0.000,0.000,0.000,0.000,0.000,0.000,0.000,0.000,0.000*78
$GPRMC,065647.089,A,3114.3029684,N,12129.1475942,E,11.65,40.02,210523,0.0,E,A,V*7E
$GPGGA,065647.089,3114.3029684,N,12129.1475942,E,1,21,1.0,2.703,M,11.083,M,0.0,0000*7E
$GPESA,065647.089,+0.994,-5.907,-0.252,-0.941,+1.468,-171.270*7A
$GPESD,065647.089,0.000,0.000,0.000,0.000,0.000,0.000,0.000,0.000,0.000*72
$GPRMC,065647.189,A,3114.3026497,N,12129.1476604,E,11.63,40.01,210523,0.0,E,A,V*7B
$GPGGA,065647.189,3114.3026497,N,12129.1476604,E,1,21,1.0,2.674,M,11.083,M,0.0,0000*7F
$GPESA,065647.189,+1.007,-5.893,-0.274,-0.933,+1.478,-171.173*75
$GPESD,065647.189,0.000,0.000,0.000,0.000,0.000,0.000,0.000,0.000,0.000*73
$GPRMC,065647.289,A,3114.3023302,N,12129.1477217,E,11.59,39.63,210523,0.0,E,A,V*72
$GPGGA,065647.289,3114.3023302,N,12129.1477217,E,1,21,1.0,2.650,M,11.083,M,0.0,0000*73
$GPESA,065647.289,+1.031,-5.864,-0.276,-0.904,+1.507,-171.068*7F
$GPESD,065647.289,0.000,0.000,0.000,0.000,0.000,0.000,0.000,0.000,0.000*70
$GPRMC,065647.429,A,3114.3018821,N,12129.1478068,E,11.64,39.68,210523,0.0,E,A,V*7C
$GPGGA,065647.429,3114.3018821,N,12129.1478068,E,1,21,1.0,2.622,M,11.083,M,0.0,0000*7D
$GPESA,065647.429,+1.029,-5.891,-0.273,-0.803,+1.495,-170.891*76
$GPESD,065647.429,0.000,0.000,0.000,0.000,0.000,0.000,0.000,0.000,0.000*7C
$GPRMC,065647.552,A,3114.3014920,N,12129.1478862,E,11.63,39.24,210523,0.0,E,A,V*70
$GPGGA,065647.552,3114.3014920,N,12129.1478862,E,1,21,1.0,2.593,M,11.083,M,0.0,0000*77
$GPESA,065647.552,+1.071,-5.882,-0.291,-0.742,+1.454,-170.751*7C
$GPESD,065647.552,0.000,0.000,0.000,0.000,0.000,0.000,0.000,0.000,0.000*71
$GPRMC,065647.669,A,3114.3011180,N,12129.1479591,E,11.59,38.92,210523,0.0,E,A,V*79
$GPGGA,065647.669,3114.3011180,N,12129.1479591,E,1,21,1.0,2.569,M,11.083,M,0.0,0000*7E
$GPESA,065647.669,+1.077,-5.861,-0.269,-0.733,+1.383,-170.649*78
$GPESD,065647.669,0.000,0.000,0.000,0.000,0.000,0.000,0.000,0.000,0.000*7A
$GPRMC,065647.769,A,3114.3008008,N,12129.1480239,E,11.56,39.09,210523,0.0,E,A,V*7E
$GPGGA,065647.769,3114.3008008,N,12129.1480239,E,1,21,1.0,2.547,M,11.083,M,0.0,0000*79
$GPESA,065647.769,+1.058,-5.849,-0.261,-0.713,+1.323,-170.544*70
$GPESD,065647.769,0.000,0.000,0.000,0.000,0.000,0.000,0.000,0.000,0.000*7B
$GPRMC,065647.877,A,3114.3004627,N,12129.1480919,E,11.53,39.01,210523,0.0,E,A,V*7D
$GPGGA,065647.877,3114.3004627,N,12129.1480919,E,1,21,1.0,2.529,M,11.083,M,0.0,0000*7F
$GPESA,065647.877,+1.052,-5.833,-0.247,-0.721,+1.313,-170.418*79
$GPESD,065647.877,0.000,0.000,0.000,0.000,0.000,0.000,0.000,0.000,0.000*7B
$GPRMC,065647.984,A,3114.3001259,N,12129.1481605,E,11.45,38.85,210523,0.0,E,A,V*71
$GPGGA,065647.984,3114.3001259,N,12129.1481605,E,1,21,1.0,2.509,M,11.083,M,0.0,0000*7B
$GPESA,065647.984,+1.066,-5.785,-0.262,-0.742,+1.321,-170.298*7C
$GPESD,065647.984,0.000,0.000,0.000,0.000,0.000,0.000,0.000,0.000,0.000*76
$GPRMC,065648.087,A,3114.2998057,N,12129.1482252,E,11.42,38.65,210523,0.0,E,A,V*7C
$GPGGA,065648.087,3114.2998057,N,12129.1482252,E,1,21,1.0,2.490,M,11.083,M,0.0,0000*7E
$GPESA,065648.087,+1.070,-5.773,-0.249,-0.685,+1.258,-170.217*7C
$GPESD,065648.087,0.000,0.000,0.000,0.000,0.000,0.000,0.000,0.000,0.000*73
$GPRMC,065648.245,A,3114.2993166,N,12129.1483183,E,11.38,38.95,210523,0.0,E,A,V*74
$GPGGA,065648.245,3114.2993166,N,12129.1483183,E,1,21,1.0,2.468,M,11.083,M,0.0,0000*73
$GPESA,065648.245,+1.023,-5.759,-0.214,-0.704,+1.357,-170.064*76
$GPESD,065648.245,0.000,0.000,0.000,0.000,0.000,0.000,0.000,0.000,0.000*7F
$GPRMC,065648.382,A,3114.2988897,N,12129.1484008,E,11.32,38.87,210523,0.0,E,A,V*7F
$GPGGA,065648.382,3114.2988897,N,12129.1484008,E,1,21,1.0,2.444,M,11.083,M,0.0,0000*7F
$GPESA,065648.382,+1.030,-5.726,-0.223,-0.773,+1.394,-170.000*7F
$GPESD,065648.382,0.000,0.000,0.000,0.000,0.000,0.000,0.000,0.000,0.000*75
$GPRMC,065648.520,A,3114.2984642,N,12129.1484892,E,11.28,38.33,210523,0.0,E,A,V*74
$GPGGA,065648.520,3114.2984642,N,12129.1484892,E,1,21,1.0,2.425,M,11.083,M,0.0,0000*77
$GPESA,065648.520,+1.054,-5.704,-0.206,-0.836,+1.355,-169.839*7D
$GPESD,065648.520,0.000,0.000,0.000,0.000,0.000,0.000,0.000,0.000,0.000*7B
$GPRMC,065648.638,A,3114.2981017,N,12129.1485611,E,11.24,38.23,210523,0.0,E,A,V*74
$GPGGA,065648.638,3114.2981017,N,12129.1485611,E,1,21,1.0,2.409,M,11.083,M,0.0,0000*74
$GPESA,065648.638,+1.050,-5.682,-0.195,-0.823,+1.310,-169.763*70
$GPESD,065648.638,0.000,0.000,0.000,0.000,0.000,0.000,0.000,0.000,0.000*71
$GPRMC,065648.768,A,3114.2976977,N,12129.1486482,E,11.23,38.03,210523,0.0,E,A,V*79
$GPGGA,065648.768,3114.2976977,N,12129.1486482,E,1,21,1.0,2.399,M,11.083,M,0.0,0000*72
$GPESA,065648.768,+1.051,-5.678,-0.176,-0.805,+1.219,-169.501*77
$GPESD,065648.768,0.000,0.000,0.000,0.000,0.000,0.000,0.000,0.000,0.000*75
$GPRMC,065648.868,A,3114.2973897,N,12129.1487090,E,11.23,38.14,210523,0.0,E,A,V*7C
$GPGGA,065648.868,3114.2973897,N,12129.1487090,E,1,21,1.0,2.385,M,11.083,M,0.0,0000*7C
$GPESA,065648.868,+1.050,-5.677,-0.187,-0.722,+1.241,-169.452*78
$GPESD,065648.868,0.000,0.000,0.000,0.000,0.000,0.000,0.000,0.000,0.000*7A
$GPRMC,065648.968,A,3114.2970806,N,12129.1487743,E,11.28,38.02,210523,0.0,E,A,V*73
$GPGGA,065648.968,3114.2970806,N,12129.1487743,E,1,22,1.0,2.368,M,11.083,M,0.0,0000*7F
$GPESA,065648.968,+1.062,-5.700,-0.187,-0.662,+1.229,-169.341*77
$GPESD,065648.968,0.000,0.000,0.000,0.000,0.000,0.000,0.000,0.000,0.000*7B
$GPRMC,065649.088,A,3114.2967109,N,12129.1488447,E,11.30,37.76,210523,0.0,E,A,V*78
$GPGGA,065649.088,3114.2967109,N,12129.1488447,E,1,21,1.0,2.353,M,11.083,M,0.0,0000*7A
$GPESA,065649.088,+1.079,-5.708,-0.182,-0.641,+1.213,-169.189*78
$GPESD,065649.088,0.000,0.000,0.000,0.000,0.000,0.000,0.000,0.000,0.000*7D
$GPRMC,065649.216,A,3114.2963195,N,12129.1489260,E,11.28,37.96,210523,0.0,E,A,V*79
$GPGGA,065649.216,3114.2963195,N,12129.1489260,E,1,22,1.0,2.335,M,11.083,M,0.0,0000*7F
$GPESA,065649.216,+1.054,-5.704,-0.165,-0.693,+1.074,-169.095*77
$GPESD,065649.216,0.000,0.000,0.000,0.000,0.000,0.000,0.000,0.000,0.000*78
$GPRMC,065649.326,A,3114.2959816,N,12129.1489940,E,11.26,37.76,210523,0.0,E,A,V*79
$GPGGA,065649.326,3114.2959816,N,12129.1489940,E,1,23,1.0,2.324,M,11.083,M,0.0,0000*7E
$GPESA,065649.326,+1.064,-5.693,-0.161,-0.672,+1.063,-168.895*7D
$GPESD,065649.326,0.000,0.000,0.000,0.000,0.000,0.000,0.000,0.000,0.000*7A
$GPRMC,065649.468,A,3114.2955483,N,12129.1490876,E,11.22,37.54,210523,0.0,E,A,V*70
$GPGGA,065649.468,3114.2955483,N,12129.1490876,E,1,23,1.0,2.309,M,11.083,M,0.0,0000*7C
$GPESA,065649.468,+1.073,-5.668,-0.158,-0.452,+0.931,-168.601*74
$GPESD,065649.468,0.000,0.000,0.000,0.000,0.000,0.000,0.000,0.000,0.000*77
$GPRMC,065649.596,A,3114.2951560,N,12129.1491693,E,11.24,37.67,210523,0.0,E,A,V*7A
$GPGGA,065649.596,3114.2951560,N,12129.1491693,E,1,22,1.0,2.295,M,11.083,M,0.0,0000*75
$GPESA,065649.596,+1.063,-5.683,-0.153,-0.240,+0.870,-168.423*78
$GPESD,065649.596,0.000,0.000,0.000,0.000,0.000,0.000,0.000,0.000,0.000*77
$GPRMC,065649.713,A,3114.2947931,N,12129.1492456,E,11.37,37.93,210523,0.0,E,A,V*7B
$GPGGA,065649.713,3114.2947931,N,12129.1492456,E,1,22,1.0,2.279,M,11.083,M,0.0,0000*7F
$GPESA,065649.713,+1.058,-5.749,-0.157,-0.228,+0.950,-168.302*75
$GPESD,065649.713,0.000,0.000,0.000,0.000,0.000,0.000,0.000,0.000,0.000*78
$GPRMC,065649.814,A,3114.2944758,N,12129.1493028,E,11.45,37.88,210523,0.0,E,A,V*72
$GPGGA,065649.814,3114.2944758,N,12129.1493028,E,1,22,1.0,2.268,M,11.083,M,0.0,0000*79
$GPESA,065649.814,+1.068,-5.791,-0.155,-0.538,+1.072,-168.753*77
$GPESD,065649.814,0.000,0.000,0.000,0.000,0.000,0.000,0.000,0.000,0.000*70
$GPRMC,065649.914,A,3114.2941614,N,12129.1493698,E,11.44,36.98,210523,0.0,E,A,V*73
$GPGGA,065649.914,3114.2941614,N,12129.1493698,E,1,22,1.0,2.254,M,11.083,M,0.0,0000*76
$GPESA,065649.914,+1.123,-5.776,-0.146,-0.840,+1.050,-168.885*75
$GPESD,065649.914,0.000,0.000,0.000,0.000,0.000,0.000,0.000,0.000,0.000*71
$GPRMC,065650.029,A,3114.2937960,N,12129.1494419,E,11.38,37.60,210523,0.0,E,A,V*70
$GPGGA,065650.029,3114.2937960,N,12129.1494419,E,1,22,1.0,2.239,M,11.083,M,0.0,0000*73
$GPESA,065650.029,+1.076,-5.753,-0.147,-1.088,+0.887,-169.296*7A
$GPESD,065650.029,0.000,0.000,0.000,0.000,0.000,0.000,0.000,0.000,0.000*7E
$GPRMC,065650.129,A,3114.2934855,N,12129.1495030,E,11.29,38.37,210523,0.0,E,A,V*76
$GPGGA,065650.129,3114.2934855,N,12129.1495030,E,1,22,1.0,2.227,M,11.083,M,0.0,0000*77
$GPESA,065650.129,+1.029,-5.713,-0.170,-1.045,+0.846,-169.149*7C
$GPESD,065650.129,0.000,0.000,0.000,0.000,0.000,0.000,0.000,0.000,0.000*7F
$GPRMC,065650.229,A,3114.2931754,N,12129.1495684,E,11.26,38.61,210523,0.0,E,A,V*7B
$GPGGA,065650.229,3114.2931754,N,12129.1495684,E,1,22,1.0,2.210,M,11.083,M,0.0,0000*72
$GPESA,065650.229,+1.024,-5.701,-0.190,-0.829,+0.938,-169.028*72
$GPESD,065650.229,0.000,0.000,0.000,0.000,0.000,0.000,0.000,0.000,0.000*7C
$GPRMC,065650.359,A,3114.2927689,N,12129.1496423,E,11.41,38.47,210523,0.0,E,A,V*72
$GPGGA,065650.359,3114.2927689,N,12129.1496423,E,1,22,1.0,2.191,M,11.083,M,0.0,0000*74
$GPESA,065650.359,+1.044,-5.773,-0.188,-0.657,+1.119,-168.768*71
$GPESD,065650.359,0.000,0.000,0.000,0.000,0.000,0.000,0.000,0.000,0.000*7A
$GPRMC,065650.459,A,3114.2924536,N,12129.1497083,E,11.44,37.94,210523,0.0,E,A,V*7A
$GPGGA,065650.459,3114.2924536,N,12129.1497083,E,1,22,1.0,2.173,M,11.083,M,0.0,0000*74
$GPESA,065650.459,+1.078,-5.783,-0.180,-0.743,+1.050,-168.695*75
$GPESD,065650.459,0.000,0.000,0.000,0.000,0.000,0.000,0.000,0.000,0.000*7D
$GPRMC,065650.559,A,3114.2921406,N,12129.1497778,E,11.43,37.81,210523,0.0,E,A,V*7C
$GPGGA,065650.559,3114.2921406,N,12129.1497778,E,1,22,1.0,2.157,M,11.083,M,0.0,0000*77
$GPESA,065650.559,+1.091,-5.774,-0.189,-0.872,+0.952,-168.534*7D
$GPESD,065650.559,0.000,0.000,0.000,0.000,0.000,0.000,0.000,0.000,0.000*7C
$GPRMC,065650.659,A,3114.2918316,N,12129.1498436,E,11.38,37.86,210523,0.0,E,A,V*7E
$GPGGA,065650.659,3114.2918316,N,12129.1498436,E,1,22,1.0,2.141,M,11.084,M,0.0,0000*7E
$GPESA,065650.659,+1.081,-5.751,-0.185,-0.962,+0.919,-168.456*7E
$GPESD,065650.659,0.000,0.000,0.000,0.000,0.000,0.000,0.000,0.000,0.000*7F
$GPRMC,065650.762,A,3114.2915141,N,12129.1499093,E,11.29,38.15,210523,0.0,E,A,V*75
$GPGGA,065650.762,3114.2915141,N,12129.1499093,E,1,23,1.0,2.127,M,11.084,M,0.0,0000*71
$GPESA,065650.762,+1.061,-5.707,-0.197,-1.053,+0.941,-168.330*79
$GPESD,065650.762,0.000,0.000,0.000,0.000,0.000,0.000,0.000,0.000,0.000*76
$GPRMC,065650.900,A,3114.2910953,N,12129.1499995,E,11.18,37.79,210523,0.0,E,A,V*79
$GPGGA,065650.900,3114.2910953,N,12129.1499995,E,1,23,1.0,2.106,M,11.084,M,0.0,0000*79
$GPESA,065650.900,+1.072,-5.649,-0.189,-0.959,+1.034,-168.161*7B
$GPESD,065650.900,0.000,0.000,0.000,0.000,0.000,0.000,0.000,0.000,0.000*7C
$GPRMC,065651.000,A,3114.2907917,N,12129.1500540,E,11.14,38.07,210523,0.0,E,A,V*78
$GPGGA,065651.000,3114.2907917,N,12129.1500540,E,1,23,1.0,2.094,M,11.084,M,0.0,0000*78
$GPESA,065651.000,+1.050,-5.633,-0.191,-0.869,+1.050,-168.624*71
$GPESD,065651.000,0.000,0.000,0.000,0.000,0.000,0.000,0.000,0.000,0.000*74
$GPRMC,065651.100,A,3114.2904852,N,12129.1501146,E,11.15,38.27,210523,0.0,E,A,V*7A
$GPGGA,065651.100,3114.2904852,N,12129.1501146,E,1,23,1.0,2.075,M,11.084,M,0.0,0000*76
$GPESA,065651.100,+1.049,-5.636,-0.209,-0.892,+1.089,-168.703*7B
$GPESD,065651.100,0.000,0.000,0.000,0.000,0.000,0.000,0.000,0.000,0.000*75
$GPRMC,065651.200,A,3114.2901820,N,12129.1501817,E,11.13,38.10,210523,0.0,E,A,V*76
$GPGGA,065651.200,3114.2901820,N,12129.1501817,E,1,23,1.0,2.055,M,11.084,M,0.0,0000*7A
$GPESA,065651.200,+1.065,-5.624,-0.220,-0.951,+1.097,-168.629*76
$GPESD,065651.200,0.000,0.000,0.000,0.000,0.000,0.000,0.000,0.000,0.000*76
$GPRMC,065651.302,A,3114.2898697,N,12129.1502349,E,11.08,38.20,210523,0.0,E,A,V*7C
$GPGGA,065651.302,3114.2898697,N,12129.1502349,E,1,23,1.0,2.036,M,11.084,M,0.0,0000*7C
$GPESA,065651.302,+1.047,-5.602,-0.207,-1.067,+1.084,-168.800*7E
$GPESD,065651.302,0.000,0.000,0.000,0.000,0.000,0.000,0.000,0.000,0.000*75
$GPRMC,065651.428,A,3114.2894938,N,12129.1503085,E,10.96,38.74,210523,0.0,E,A,V*70
$GPGGA,065651.428,3114.2894938,N,12129.1503085,E,1,23,1.0,2.012,M,11.084,M,0.0,0000*71
$GPESA,065651.428,+0.998,-5.545,-0.203,-1.162,+1.077,-168.748*74
$GPESD,065651.428,0.000,0.000,0.000,0.000,0.000,0.000,0.000,0.000,0.000*7A
$GPRMC,065651.575,A,3114.2890542,N,12129.1503975,E,10.83,38.62,210523,0.0,E,A,V*79
$GPGGA,065651.575,3114.2890542,N,12129.1503975,E,1,24,1.0,1.985,M,11.084,M,0.0,0000*78
$GPESA,065651.575,+1.008,-5.475,-0.224,-1.108,+1.123,-168.587*76
$GPESD,065651.575,0.000,0.000,0.000,0.000,0.000,0.000,0.000,0.000,0.000*73
$GPRMC,065651.675,A,3114.2887595,N,12129.1504576,E,10.75,38.76,210523,0.0,E,A,V*72
$GPGGA,065651.675,3114.2887595,N,12129.1504576,E,1,24,1.0,1.965,M,11.084,M,0.0,0000*71
$GPESA,065651.675,+0.990,-5.437,-0.218,-0.955,+1.193,-168.524*76
$GPESD,065651.675,0.000,0.000,0.000,0.000,0.000,0.000,0.000,0.000,0.000*70
$GPRMC,065651.778,A,3114.2884562,N,12129.1505190,E,10.72,37.70,210523,0.0,E,A,V*76
$GPGGA,065651.778,3114.2884562,N,12129.1505190,E,1,24,1.0,1.950,M,11.084,M,0.0,0000*7D
$GPESA,065651.778,+1.047,-5.413,-0.204,-0.828,+1.265,-168.421*76
$GPESD,065651.778,0.000,0.000,0.000,0.000,0.000,0.000,0.000,0.000,0.000*7C
$GPRMC,065651.878,A,3114.2881613,N,12129.1505801,E,10.71,37.69,210523,0.0,E,A,V*73
$GPGGA,065651.878,3114.2881613,N,12129.1505801,E,1,24,1.0,1.931,M,11.084,M,0.0,0000*74
$GPESA,065651.878,+1.054,-5.403,-0.218,-0.807,+1.189,-168.349*72
$GPESD,065651.878,0.000,0.000,0.000,0.000,0.000,0.000,0.000,0.000,0.000*73
$GPRMC,065651.983,A,3114.2878547,N,12129.1506498,E,10.64,37.98,210523,0.0,E,A,V*77
$GPGGA,065651.983,3114.2878547,N,12129.1506498,E,1,24,1.0,1.906,M,11.084,M,0.0,0000*7E
$GPESA,065651.983,+1.045,-5.369,-0.243,-0.904,+1.138,-168.251*72
$GPESD,065651.983,0.000,0.000,0.000,0.000,0.000,0.000,0.000,0.000,0.000*76
$GPRMC,065652.086,A,3114.2875545,N,12129.1507049,E,10.58,38.00,210523,0.0,E,A,V*7F
$GPGGA,065652.086,3114.2875545,N,12129.1507049,E,1,23,1.0,1.885,M,11.084,M,0.0,0000*7A
$GPESA,065652.086,+1.032,-5.341,-0.231,-1.059,+1.129,-168.210*77
$GPESD,065652.086,0.000,0.000,0.000,0.000,0.000,0.000,0.000,0.000,0.000*79
$GPRMC,065652.201,A,3114.2872226,N,12129.1507778,E,10.47,38.43,210523,0.0,E,A,V*7B
$GPGGA,065652.201,3114.2872226,N,12129.1507778,E,1,23,1.0,1.861,M,11.084,M,0.0,0000*7D
$GPESA,065652.201,+0.979,-5.291,-0.203,-1.210,+1.108,-168.123*7F
$GPESD,065652.201,0.000,0.000,0.000,0.000,0.000,0.000,0.000,0.000,0.000*74
$GPRMC,065652.311,A,3114.2869135,N,12129.1508385,E,10.32,38.25,210523,0.0,E,A,V*7B
$GPGGA,065652.311,3114.2869135,N,12129.1508385,E,1,24,1.0,1.848,M,11.084,M,0.0,0000*73
$GPESA,065652.311,+0.972,-5.217,-0.194,-1.279,+1.213,-168.099*71
$GPESD,065652.311,0.000,0.000,0.000,0.000,0.000,0.000,0.000,0.000,0.000*74
$GPRMC,065652.438,A,3114.2865564,N,12129.1509156,E,10.18,38.13,210523,0.0,E,A,V*7B
$GPGGA,065652.438,3114.2865564,N,12129.1509156,E,1,24,1.0,1.823,M,11.084,M,0.0,0000*73
$GPESA,065652.438,+0.992,-5.136,-0.235,-1.185,+1.270,-168.040*7A
$GPESD,065652.438,0.000,0.000,0.000,0.000,0.000,0.000,0.000,0.000,0.000*78
$GPRMC,065652.546,A,3114.2862581,N,12129.1509831,E,10.16,37.67,210523,0.0,E,A,V*75
$GPGGA,065652.546,3114.2862581,N,12129.1509831,E,1,24,1.0,1.803,M,11.084,M,0.0,0000*7D
$GPESA,065652.546,+1.018,-5.119,-0.235,-1.040,+1.185,-167.981*7F
$GPESD,065652.546,0.000,0.000,0.000,0.000,0.000,0.000,0.000,0.000,0.000*70
$GPRMC,065652.649,A,3114.2859757,N,12129.1510462,E,10.13,37.09,210523,0.0,E,A,V*77
$GPGGA,065652.649,3114.2859757,N,12129.1510462,E,1,24,1.0,1.781,M,11.084,M,0.0,0000*77
$GPESA,065652.649,+1.045,-5.101,-0.226,-0.963,+1.071,-168.028*76
$GPESD,065652.649,0.000,0.000,0.000,0.000,0.000,0.000,0.000,0.000,0.000*7C
$GPRMC,065652.759,A,3114.2856751,N,12129.1511084,E,10.11,37.63,210523,0.0,E,A,V*7D
$GPGGA,065652.759,3114.2856751,N,12129.1511084,E,1,24,1.0,1.765,M,11.084,M,0.0,0000*79
$GPESA,065652.759,+0.995,-5.099,-0.199,-0.983,+0.970,-168.129*73
$GPESD,065652.759,0.000,0.000,0.000,0.000,0.000,0.000,0.000,0.000,0.000*7C
$GPRMC,065652.869,A,3114.2853725,N,12129.1511746,E,10.04,38.48,210523,0.0,E,A,V*7C
$GPGGA,065652.869,3114.2853725,N,12129.1511746,E,1,24,1.0,1.744,M,11.084,M,0.0,0000*79
$GPESA,065652.869,+0.939,-5.077,-0.199,-1.037,+1.025,-168.114*78
$GPESD,065652.869,0.000,0.000,0.000,0.000,0.000,0.000,0.000,0.000,0.000*70
$GPRMC,065652.969,A,3114.2851010,N,12129.1512290,E,9.98,38.23,210523,0.0,E,A,V*43
$GPGGA,065652.969,3114.2851010,N,12129.1512290,E,1,24,1.0,1.725,M,11.084,M,0.0,0000*71
$GPESA,065652.969,+0.955,-5.039,-0.211,-1.046,+1.156,-168.142*7A
$GPESD,065652.969,0.000,0.000,0.000,0.000,0.000,0.000,0.000,0.000,0.000*71
$GPRMC,065653.119,A,3114.2847024,N,12129.1513098,E,9.79,37.54,210523,0.0,E,A,V*46
$GPGGA,065653.119,3114.2847024,N,12129.1513098,E,1,25,1.0,1.697,M,11.084,M,0.0,0000*7D
$GPESA,065653.119,+0.993,-4.933,-0.233,-1.072,+1.092,-168.364*74
$GPESD,065653.119,0.000,0.000,0.000,0.000,0.000,0.000,0.000,0.000,0.000*7F
$GPRMC,065653.224,A,3114.2844268,N,12129.1513755,E,9.59,37.58,210523,0.0,E,A,V*4A
$GPGGA,065653.224,3114.2844268,N,12129.1513755,E,1,24,1.0,1.672,M,11.084,M,0.0,0000*75
$GPESA,065653.224,+0.977,-4.830,-0.241,-1.159,+0.896,-168.371*75
$GPESD,065653.224,0.000,0.000,0.000,0.000,0.000,0.000,0.000,0.000,0.000*72
$GPRMC,065653.329,A,3114.2841566,N,12129.1514264,E,9.35,38.28,210523,0.0,E,A,V*48
$GPGGA,065653.329,3114.2841566,N,12129.1514264,E,1,25,1.0,1.657,M,11.084,M,0.0,0000*73
$GPESA,065653.329,+0.910,-4.718,-0.226,-1.202,+0.849,-168.418*7B
$GPESD,065653.329,0.000,0.000,0.000,0.000,0.000,0.000,0.000,0.000,0.000*7E
$GPRMC,065653.437,A,3114.2838850,N,12129.1514868,E,9.16,38.61,210523,0.0,E,A,V*4C
$GPGGA,065653.437,3114.2838850,N,12129.1514868,E,1,25,1.0,1.633,M,11.084,M,0.0,0000*79
$GPESA,065653.437,+0.870,-4.624,-0.217,-1.199,+0.869,-168.381*7C
$GPESD,065653.437,0.000,0.000,0.000,0.000,0.000,0.000,0.000,0.000,0.000*76
$GPRMC,065653.557,A,3114.2835882,N,12129.1515439,E,8.91,38.48,210523,0.0,E,A,V*45
$GPGGA,065653.557,3114.2835882,N,12129.1515439,E,1,25,1.0,1.615,M,11.084,M,0.0,0000*71
$GPESA,065653.557,+0.864,-4.495,-0.228,-1.217,+0.888,-168.359*75
$GPESD,065653.557,0.000,0.000,0.000,0.000,0.000,0.000,0.000,0.000,0.000*71
$GPRMC,065653.677,A,3114.2833005,N,12129.1516096,E,8.65,37.71,210523,0.0,E,A,V*49
$GPGGA,065653.677,3114.2833005,N,12129.1516096,E,1,25,1.0,1.588,M,11.084,M,0.0,0000*74
$GPESA,065653.677,+0.876,-4.358,-0.219,-1.142,+0.875,-168.318*77
$GPESD,065653.677,0.000,0.000,0.000,0.000,0.000,0.000,0.000,0.000,0.000*70
$GPRMC,065653.782,A,3114.2830558,N,12129.1516669,E,8.48,37.57,210523,0.0,E,A,V*41
$GPGGA,065653.782,3114.2830558,N,12129.1516669,E,1,25,1.0,1.565,M,11.084,M,0.0,0000*74
$GPESA,065653.782,+0.870,-4.270,-0.221,-1.108,+0.772,-168.254*75
$GPESD,065653.782,0.000,0.000,0.000,0.000,0.000,0.000,0.000,0.000,0.000*7B
$GPRMC,065653.940,A,3114.2827031,N,12129.1517428,E,8.14,37.34,210523,0.0,E,A,V*47
$GPGGA,065653.940,3114.2827031,N,12129.1517428,E,1,25,1.0,1.543,M,11.084,M,0.0,0000*7A
$GPESA,065653.940,+0.844,-4.097,-0.209,-1.153,+0.610,-168.136*7F
$GPESD,065653.940,0.000,0.000,0.000,0.000,0.000,0.000,0.000,0.000,0.000*7B
$GPRMC,065654.060,A,3114.2824429,N,12129.1517841,E,7.82,38.09,210523,0.0,E,A,V*47
$GPGGA,065654.060,3114.2824429,N,12129.1517841,E,1,24,1.0,1.541,M,11.084,M,0.0,0000*78
$GPESA,065654.060,+0.767,-3.947,-0.184,-1.175,+0.601,-168.033*78
$GPESD,065654.060,0.000,0.000,0.000,0.000,0.000,0.000,0.000,0.000,0.000*77
$GPRMC,065654.170,A,3114.2822139,N,12129.1518350,E,7.55,37.90,210523,0.0,E,A,V*44
$GPGGA,065654.170,3114.2822139,N,12129.1518350,E,1,24,1.0,1.525,M,11.084,M,0.0,0000*7C
$GPESA,065654.170,+0.747,-3.805,-0.176,-1.129,+0.599,-167.951*79
$GPESD,065654.170,0.000,0.000,0.000,0.000,0.000,0.000,0.000,0.000,0.000*77
$GPRMC,065654.280,A,3114.2819939,N,12129.1518780,E,7.27,37.71,210523,0.0,E,A,V*4B
$GPGGA,065654.280,3114.2819939,N,12129.1518780,E,1,25,1.0,1.516,M,11.084,M,0.0,0000*78
$GPESA,065654.280,+0.713,-3.669,-0.145,-1.110,+0.597,-167.885*7C
$GPESD,065654.280,0.000,0.000,0.000,0.000,0.000,0.000,0.000,0.000,0.000*7B
$GPRMC,065654.400,A,3114.2817586,N,12129.1519290,E,7.02,37.91,210523,0.0,E,A,V*4F
$GPGGA,065654.400,3114.2817586,N,12129.1519290,E,1,23,1.0,1.499,M,11.084,M,0.0,0000*75
$GPESA,065654.400,+0.680,-3.544,-0.139,-1.124,+0.653,-167.797*7E
$GPESD,065654.400,0.000,0.000,0.000,0.000,0.000,0.000,0.000,0.000,0.000*75
$GPRMC,065654.538,A,3114.2815040,N,12129.1519827,E,6.68,37.93,210523,0.0,E,A,V*41
$GPGGA,065654.538,3114.2815040,N,12129.1519827,E,1,23,1.0,1.481,M,11.084,M,0.0,0000*7D
$GPESA,065654.538,+0.669,-3.364,-0.172,-1.067,+0.657,-167.726*70
$GPESD,065654.538,0.000,0.000,0.000,0.000,0.000,0.000,0.000,0.000,0.000*7F
$GPRMC,065654.660,A,3114.2812841,N,12129.1520331,E,6.45,37.45,210523,0.0,E,A,V*43
$GPGGA,065654.660,3114.2812841,N,12129.1520331,E,1,24,1.0,1.460,M,11.084,M,0.0,0000*73
$GPESA,065654.660,+0.671,-3.243,-0.178,-0.923,+0.607,-167.660*77
$GPESD,065654.660,0.000,0.000,0.000,0.000,0.000,0.000,0.000,0.000,0.000*71
$GPRMC,065654.760,A,3114.2811116,N,12129.1520621,E,6.33,37.59,210523,0.0,E,A,V*42
$GPGGA,065654.760,3114.2811116,N,12129.1520621,E,1,24,1.0,1.460,M,11.084,M,0.0,0000*7E
$GPESA,065654.760,+0.635,-3.190,-0.143,-0.841,+0.531,-167.593*7F
$GPESD,065654.760,0.000,0.000,0.000,0.000,0.000,0.000,0.000,0.000,0.000*70
$GPRMC,065654.861,A,3114.2809401,N,12129.1521017,E,6.24,37.74,210523,0.0,E,A,V*4D
$GPGGA,065654.861,3114.2809401,N,12129.1521017,E,1,24,1.0,1.446,M,11.084,M,0.0,0000*7C
$GPESA,065654.861,+0.619,-3.145,-0.138,-0.832,+0.483,-167.533*7D
$GPESD,065654.861,0.000,0.000,0.000,0.000,0.000,0.000,0.000,0.000,0.000*7E
$GPRMC,065655.003,A,3114.2807076,N,12129.1521450,E,6.08,38.28,210523,0.0,E,A,V*45
$GPGGA,065655.003,3114.2807076,N,12129.1521450,E,1,24,1.0,1.431,M,11.084,M,0.0,0000*7C
$GPESA,065655.003,+0.585,-3.071,-0.136,-0.797,+0.467,-167.485*78
$GPESD,065655.003,0.000,0.000,0.000,0.000,0.000,0.000,0.000,0.000,0.000*73
$GPRMC,065655.116,A,3114.2805269,N,12129.1521822,E,5.99,38.33,210523,0.0,E,A,V*46
$GPGGA,065655.116,3114.2805269,N,12129.1521822,E,1,24,1.0,1.422,M,11.084,M,0.0,0000*7C
$GPESA,065655.116,+0.568,-3.026,-0.123,-0.746,+0.533,-167.403*7A
$GPESD,065655.116,0.000,0.000,0.000,0.000,0.000,0.000,0.000,0.000,0.000*76
$GPRMC,065655.261,A,3114.2802921,N,12129.1522381,E,5.91,37.53,210523,0.0,E,A,V*45
$GPGGA,065655.261,3114.2802921,N,12129.1522381,E,1,24,1.0,1.409,M,11.084,M,0.0,0000*77
$GPESA,065655.261,+0.591,-2.981,-0.126,-0.699,+0.636,-167.449*74
$GPESD,065655.261,0.000,0.000,0.000,0.000,0.000,0.000,0.000,0.000,0.000*75
$GPRMC,065655.394,A,3114.2800850,N,12129.1522829,E,5.86,36.92,210523,0.0,E,A,V*48
$GPGGA,065655.394,3114.2800850,N,12129.1522829,E,1,24,1.0,1.393,M,11.084,M,0.0,0000*74
$GPESA,065655.394,+0.617,-2.946,-0.143,-0.628,+0.709,-167.392*7C
$GPESD,065655.394,0.000,0.000,0.000,0.000,0.000,0.000,0.000,0.000,0.000*7E
$GPRMC,065655.524,A,3114.2798817,N,12129.1523260,E,5.83,36.18,210523,0.0,E,A,V*49
$GPGGA,065655.524,3114.2798817,N,12129.1523260,E,1,24,1.0,1.381,M,11.084,M,0.0,0000*71
$GPESA,065655.524,+0.643,-2.924,-0.150,-0.634,+0.655,-167.360*7E
$GPESD,065655.524,0.000,0.000,0.000,0.000,0.000,0.000,0.000,0.000,0.000*73
$GPRMC,065655.659,A,3114.2796673,N,12129.1523805,E,5.78,36.02,210523,0.0,E,A,V*44
$GPGGA,065655.659,3114.2796673,N,12129.1523805,E,1,24,1.0,1.360,M,11.084,M,0.0,0000*7C
$GPESA,065655.659,+0.653,-2.898,-0.167,-0.699,+0.510,-167.296*79
$GPESD,065655.659,0.000,0.000,0.000,0.000,0.000,0.000,0.000,0.000,0.000*7A
$GPRMC,065655.759,A,3114.2795095,N,12129.1524143,E,5.75,36.77,210523,0.0,E,A,V*4B
$GPGGA,065655.759,3114.2795095,N,12129.1524143,E,1,24,1.0,1.352,M,11.084,M,0.0,0000*7D
$GPESA,065655.759,+0.619,-2.889,-0.155,-0.706,+0.460,-167.249*74
$GPESD,065655.759,0.000,0.000,0.000,0.000,0.000,0.000,0.000,0.000,0.000*7B
$GPRMC,065655.859,A,3114.2793548,N,12129.1524423,E,5.73,37.19,210523,0.0,E,A,V*4B
$GPGGA,065655.859,3114.2793548,N,12129.1524423,E,1,23,1.0,1.353,M,11.084,M,0.0,0000*74
$GPESA,065655.859,+0.582,-2.886,-0.118,-0.704,+0.539,-167.180*75
