$GPRMC,065616.882,A,3114.3481243,N,12129.1416361,E,8.36,42.06,210523,0.0,E,A,V*46
$GPGGA,065616.882,3114.3481243,N,12129.1416361,E,1,21,1.0,4.013,M,11.082,M,-85101016.0,0000*68
$GPESA,065616.882,+0.585,-4.258,-0.152,-0.564,+0.928,-173.361*72
$GPESD,065616.882,0.000,0.000,0.000,0.000,0.000,0.000,0.000,0.000,0.000*75
$GPRMC,065617.027,A,3114.3478196,N,12129.1416726,E,8.40,43.19,210523,0.0,E,A,V*44
$GPGGA,065617.027,3114.3478196,N,12129.1416726,E,1,21,1.0,3.739,M,11.082,M,-85101016.0,0000*6C
$GPESA,065617.027,+0.562,-4.279,-0.204,-0.947,+1.124,-173.622*74
$GPESD,065617.027,0.000,0.000,0.000,0.000,0.000,0.000,0.000,0.000,0.000*73
$GPRMC,065617.127,A,3114.3476062,N,12129.1416935,E,8.52,43.58,210523,0.0,E,A,V*4B
$GPGGA,065617.127,3114.3476062,N,12129.1416935,E,1,21,1.0,3.510,M,11.082,M,-85101016.0,0000*6C
$GPESA,065617.127,+0.561,-4.341,-0.224,-1.151,+1.180,-173.694*73
$GPESD,065617.127,0.000,0.000,0.000,0.000,0.000,0.000,0.000,0.000,0.000*72
$GPRMC,065617.234,A,3114.3473800,N,12129.1417314,E,8.65,43.04,210523,0.0,E,A,V*46
$GPGGA,065617.234,3114.3473800,N,12129.1417314,E,1,22,1.0,3.289,M,11.082,M,-85101016.0,0000*68
$GPESA,065617.234,+0.588,-4.404,-0.211,-1.193,+1.006,-173.649*74
$GPESD,065617.234,0.000,0.000,0.000,0.000,0.000,0.000,0.000,0.000,0.000*73
$GPRMC,065617.337,A,3114.3471647,N,12129.1417713,E,8.69,43.47,210523,0.0,E,A,V*43
$GPGGA,065617.337,3114.3471647,N,12129.1417713,E,1,22,1.0,3.083,M,11.082,M,-85101016.0,0000*6E
$GPESA,065617.337,+0.542,-4.433,-0.178,-1.307,+1.028,-173.687*79
$GPESD,065617.337,0.000,0.000,0.000,0.000,0.000,0.000,0.000,0.000,0.000*71
$GPRMC,065617.462,A,3114.3469149,N,12129.1418040,E,8.81,46.48,210523,0.0,E,A,V*46
$GPGGA,065617.462,3114.3469149,N,12129.1418040,E,1,23,1.0,2.694,M,11.082,M,-85101016.0,0000*67
$GPESA,065617.462,+0.403,-4.507,-0.227,-1.491,+1.786,-173.710*71
$GPESD,065617.462,0.000,0.000,0.000,0.000,0.000,0.000,0.000,0.000,0.000*76
$GPRMC,065617.610,A,3114.3465976,N,12129.1418684,E,8.34,41.96,210523,0.0,E,A,V*4D
$GPGGA,065617.610,3114.3465976,N,12129.1418684,E,1,23,1.0,2.490,M,11.082,M,-85101016.0,0000*60
$GPESA,065617.610,+0.605,-4.246,-0.174,-0.981,+1.308,-173.760*7D
$GPESD,065617.610,0.000,0.000,0.000,0.000,0.000,0.000,0.000,0.000,0.000*71
$GPRMC,065617.717,A,3114.3463710,N,12129.1419166,E,8.49,41.61,210523,0.0,E,A,V*4B
$GPGGA,065617.717,3114.3463710,N,12129.1419166,E,1,20,1.0,2.293,M,11.082,M,-85101016.0,0000*62
$GPESA,065617.717,+0.606,-4.325,-0.135,-0.825,+1.483,-173.793*7E
$GPESD,065617.717,0.000,0.000,0.000,0.000,0.000,0.000,0.000,0.000,0.000*77
$GPRMC,065617.817,A,3114.3461507,N,12129.1419543,E,8.66,41.90,210523,0.0,E,A,V*42
$GPGGA,065617.817,3114.3461507,N,12129.1419543,E,1,20,1.0,2.098,M,11.082,M,-85101016.0,0000*61
$GPESA,065617.817,+0.638,-4.404,-0.191,-0.957,+1.549,-173.764*7D
$GPESD,065617.817,0.000,0.000,0.000,0.000,0.000,0.000,0.000,0.000,0.000*78
$GPRMC,065617.920,A,3114.3459168,N,12129.1419793,E,8.72,46.06,210523,0.0,E,A,V*43
$GPGGA,065617.920,3114.3459168,N,12129.1419793,E,1,21,1.0,1.921,M,11.082,M,-85101016.0,0000*64
$GPESA,065617.920,+0.452,-4.456,-0.259,-0.850,+1.849,-173.771*79
$GPESD,065617.920,0.000,0.000,0.000,0.000,0.000,0.000,0.000,0.000,0.000*7D
$GPRMC,065618.020,A,3114.3456880,N,12129.1420096,E,8.88,44.73,210523,0.0,E,A,V*48
$GPGGA,065618.020,3114.3456880,N,12129.1420096,E,1,21,1.0,1.772,M,11.082,M,-85101016.0,0000*62
$GPESA,065618.020,+0.480,-4.539,-0.184,-0.979,+1.990,-173.697*7D
$GPESD,065618.020,0.000,0.000,0.000,0.000,0.000,0.000,0.000,0.000,0.000*7B
$GPRMC,065618.150,A,3114.3453765,N,12129.1420406,E,8.98,46.01,210523,0.0,E,A,V*44
$GPGGA,065618.150,3114.3453765,N,12129.1420406,E,1,21,1.0,1.640,M,11.082,M,-85101016.0,0000*68
$GPESA,065618.150,+0.464,-4.589,-0.261,-1.339,+2.022,-173.731*73
$GPESD,065618.150,0.000,0.000,0.000,0.000,0.000,0.000,0.000,0.000,0.000*7D
$GPRMC,065618.250,A,3114.3451294,N,12129.1420688,E,9.01,45.44,210523,0.0,E,A,V*49
$GPGGA,065618.250,3114.3451294,N,12129.1420688,E,1,21,1.0,1.516,M,11.082,M,-85101016.0,0000*66
$GPESA,065618.250,+0.511,-4.601,-0.276,-1.570,+2.141,-173.723*7A
$GPESD,065618.250,0.000,0.000,0.000,0.000,0.000,0.000,0.000,0.000,0.000*7E
$GPRMC,065618.350,A,3114.3449213,N,12129.1421326,E,9.04,45.67,210523,0.0,E,A,V*4A
$GPGGA,065618.350,3114.3449213,N,12129.1421326,E,1,21,1.0,1.351,M,11.082,M,-85101016.0,0000*64
$GPESA,065618.350,+0.483,-4.620,-0.256,-1.543,+2.243,-173.732*71
$GPESD,065618.350,0.000,0.000,0.000,0.000,0.000,0.000,0.000,0.000,0.000*7F
$GPRMC,065618.471,A,3114.3446211,N,12129.1421669,E,9.09,48.08,210523,0.0,E,A,V*44
$GPGGA,065618.471,3114.3446211,N,12129.1421669,E,1,22,1.0,1.315,M,11.082,M,-85101016.0,0000*60
$GPESA,065618.471,+0.391,-4.648,-0.328,-1.450,+2.018,-173.748*75
$GPESD,065618.471,0.000,0.000,0.000,0.000,0.000,0.000,0.000,0.000,0.000*7B
$GPRMC,065618.646,A,3114.3442175,N,12129.1423069,E,9.26,47.62,210523,0.0,E,A,V*4D
$GPGGA,065618.646,3114.3442175,N,12129.1423069,E,1,21,1.0,1.239,M,11.082,M,-85101016.0,0000*6B
$GPESA,065618.646,+0.412,-4.736,-0.315,-1.418,+1.948,-173.799*76
$GPESD,065618.646,0.000,0.000,0.000,0.000,0.000,0.000,0.000,0.000,0.000*7D
$GPRMC,065618.786,A,3114.3438817,N,12129.1424291,E,9.38,45.72,210523,0.0,E,A,V*4E
$GPGGA,065618.786,3114.3438817,N,12129.1424291,E,1,21,1.0,1.276,M,11.082,M,-85101016.0,0000*6F
$GPESA,065618.786,+0.507,-4.789,-0.279,-1.411,+1.786,-173.862*7F
$GPESD,065618.786,0.000,0.000,0.000,0.000,0.000,0.000,0.000,0.000,0.000*70
$GPRMC,065618.896,A,3114.3436143,N,12129.1425066,E,9.43,45.49,210523,0.0,E,A,V*49
$GPGGA,065618.896,3114.3436143,N,12129.1425066,E,1,22,1.0,1.302,M,11.082,M,-85101016.0,0000*6D
$GPESA,065618.896,+0.535,-4.812,-0.293,-1.368,+1.724,-173.869*73
$GPESD,065618.896,0.000,0.000,0.000,0.000,0.000,0.000,0.000,0.000,0.000*7E
$GPRMC,065619.049,A,3114.3432152,N,12129.1425743,E,9.56,45.15,210523,0.0,E,A,V*4B
$GPGGA,065619.049,3114.3432152,N,12129.1425743,E,1,20,1.0,1.321,M,11.082,M,-85101016.0,0000*61
$GPESA,065619.049,+0.582,-4.871,-0.322,-1.507,+1.528,-173.889*75
$GPESD,065619.049,0.000,0.000,0.000,0.000,0.000,0.000,0.000,0.000,0.000*75
$GPRMC,065619.169,A,3114.3428958,N,12129.1426216,E,9.64,45.43,210523,0.0,E,A,V*45
$GPGGA,065619.169,3114.3428958,N,12129.1426216,E,1,19,1.0,1.350,M,11.082,M,-85101016.0,0000*61
$GPESA,065619.169,+0.576,-4.914,-0.333,-1.437,+1.307,-173.887*78
$GPESD,065619.169,0.000,0.000,0.000,0.000,0.000,0.000,0.000,0.000,0.000*76
$GPRMC,065619.289,A,3114.3425882,N,12129.1426769,E,9.69,46.03,210523,0.0,E,A,V*44
$GPGGA,065619.289,3114.3425882,N,12129.1426769,E,1,22,1.0,1.393,M,11.082,M,-85101016.0,0000*6D
$GPESA,065619.289,+0.532,-4.946,-0.324,-1.316,+1.269,-173.885*7B
$GPESD,065619.289,0.000,0.000,0.000,0.000,0.000,0.000,0.000,0.000,0.000*7B
$GPRMC,065619.419,A,3114.3422420,N,12129.1427317,E,9.74,45.09,210523,0.0,E,A,V*41
$GPGGA,065619.419,3114.3422420,N,12129.1427317,E,1,22,1.0,1.403,M,11.082,M,-85101016.0,0000*63
$GPESA,065619.419,+0.583,-4.965,-0.309,-1.294,+1.373,-173.888*7C
$GPESD,065619.419,0.000,0.000,0.000,0.000,0.000,0.000,0.000,0.000,0.000*74
$GPRMC,065619.521,A,3114.3419680,N,12129.1427837,E,9.74,44.29,210523,0.0,E,A,V*41
$GPGGA,065619.521,3114.3419680,N,12129.1427837,E,1,22,1.0,1.435,M,11.082,M,-85101016.0,0000*65
$GPESA,065619.521,+0.672,-4.953,-0.360,-1.192,+1.269,-173.856*7D
$GPESD,065619.521,0.000,0.000,0.000,0.000,0.000,0.000,0.000,0.000,0.000*7E
$GPRMC,065619.632,A,3114.3416745,N,12129.1428437,E,9.89,42.05,210523,0.0,E,A,V*4E
$GPGGA,065619.632,3114.3416745,N,12129.1428437,E,1,21,1.0,1.474,M,11.082,M,-85101016.0,0000*66
$GPESA,065619.632,+0.769,-5.023,-0.290,-1.132,+1.100,-173.853*75
$GPESD,065619.632,0.000,0.000,0.000,0.000,0.000,0.000,0.000,0.000,0.000*7F
$GPRMC,065619.732,A,3114.3414065,N,12129.1428932,E,9.87,43.74,210523,0.0,E,A,V*49
$GPGGA,065619.732,3114.3414065,N,12129.1428932,E,1,21,1.0,1.529,M,11.082,M,-85101016.0,0000*61
$GPESA,065619.732,+0.662,-5.025,-0.291,-1.185,+0.917,-173.802*7E
$GPESD,065619.732,0.000,0.000,0.000,0.000,0.000,0.000,0.000,0.000,0.000*7E
$GPRMC,065619.832,A,3114.3411571,N,12129.1430064,E,9.86,44.67,210523,0.0,E,A,V*44
$GPGGA,065619.832,3114.3411571,N,12129.1430064,E,1,21,1.0,1.634,M,11.082,M,-85101016.0,0000*67
$GPESA,065619.832,+0.611,-5.029,-0.304,-1.307,+0.948,-173.700*7B
$GPESD,065619.832,0.000,0.000,0.000,0.000,0.000,0.000,0.000,0.000,0.000*71
$GPRMC,065619.932,A,3114.3409084,N,12129.1430841,E,9.79,45.05,210523,0.0,E,A,V*49
$GPGGA,065619.932,3114.3409084,N,12129.1430841,E,1,22,1.0,1.723,M,11.082,M,-85101016.0,0000*6B
$GPESA,065619.932,+0.599,-4.990,-0.325,-1.295,+1.050,-173.651*7E
$GPESD,065619.932,0.000,0.000,0.000,0.000,0.000,0.000,0.000,0.000,0.000*70
$GPRMC,065620.052,A,3114.3405827,N,12129.1431510,E,9.77,43.70,210523,0.0,E,A,V*43
$GPGGA,065620.052,3114.3405827,N,12129.1431510,E,1,21,1.0,1.773,M,11.082,M,-85101016.0,0000*6D
$GPESA,065620.052,+0.675,-4.972,-0.311,-1.186,+0.992,-173.602*70
$GPESD,065620.052,0.000,0.000,0.000,0.000,0.000,0.000,0.000,0.000,0.000*75
$GPRMC,065620.152,A,3114.3403120,N,12129.1431955,E,9.78,43.25,210523,0.0,E,A,V*48
$GPGGA,065620.152,3114.3403120,N,12129.1431955,E,1,21,1.0,1.815,M,11.082,M,-85101016.0,0000*66
$GPESA,065620.152,+0.700,-4.972,-0.307,-1.175,+0.926,-173.547*74
$GPESD,065620.152,0.000,0.000,0.000,0.000,0.000,0.000,0.000,0.000,0.000*74
$GPRMC,065620.282,A,3114.3399613,N,12129.1432198,E,9.73,44.31,210523,0.0,E,A,V*46
$GPGGA,065620.282,3114.3399613,N,12129.1432198,E,1,21,1.0,1.892,M,11.082,M,-85101016.0,0000*6E
$GPESA,065620.282,+0.631,-4.954,-0.307,-1.076,+0.911,-173.525*7F
$GPESD,065620.282,0.000,0.000,0.000,0.000,0.000,0.000,0.000,0.000,0.000*7A
$GPRMC,065620.405,A,3114.3396356,N,12129.1432679,E,9.69,44.04,210523,0.0,E,A,V*41
$GPGGA,065620.405,3114.3396356,N,12129.1432679,E,1,21,1.0,1.890,M,11.082,M,-85101016.0,0000*66
$GPESA,065620.405,+0.650,-4.934,-0.312,-1.061,+0.824,-173.456*77
$GPESD,065620.405,0.000,0.000,0.000,0.000,0.000,0.000,0.000,0.000,0.000*73
$GPRMC,065620.525,A,3114.3393324,N,12129.1433240,E,9.65,43.88,210523,0.0,E,A,V*42
$GPGGA,065620.525,3114.3393324,N,12129.1433240,E,1,22,1.0,1.889,M,11.082,M,-85101016.0,0000*61
$GPESA,065620.525,+0.664,-4.912,-0.320,-1.058,+0.845,-173.354*7E
$GPESD,065620.525,0.000,0.000,0.000,0.000,0.000,0.000,0.000,0.000,0.000*70
$GPRMC,065620.625,A,3114.3390709,N,12129.1433672,E,9.61,43.26,210523,0.0,E,A,V*4C
$GPGGA,065620.625,3114.3390709,N,12129.1433672,E,1,23,1.0,1.891,M,11.082,M,-85101016.0,0000*67
$GPESA,065620.625,+0.691,-4.885,-0.307,-1.086,+0.821,-173.284*70
$GPESD,065620.625,0.000,0.000,0.000,0.000,0.000,0.000,0.000,0.000,0.000*73
$GPRMC,065620.745,A,3114.3387565,N,12129.1434132,E,9.52,42.93,210523,0.0,E,A,V*4E
$GPGGA,065620.745,3114.3387565,N,12129.1434132,E,1,23,1.0,1.883,M,11.082,M,-85101016.0,0000*69
$GPESA,065620.745,+0.702,-4.838,-0.301,-1.124,+0.808,-173.209*7B
$GPESD,065620.745,0.000,0.000,0.000,0.000,0.000,0.000,0.000,0.000,0.000*74
$GPRMC,065620.845,A,3114.3384969,N,12129.1434408,E,9.42,42.66,210523,0.0,E,A,V*45
$GPGGA,065620.845,3114.3384969,N,12129.1434408,E,1,23,1.0,1.877,M,11.082,M,-85101016.0,0000*62
$GPESA,065620.845,+0.708,-4.783,-0.294,-1.195,+0.735,-173.161*7A
$GPESD,065620.845,0.000,0.000,0.000,0.000,0.000,0.000,0.000,0.000,0.000*7B
$GPRMC,065620.965,A,3114.3381971,N,12129.1434484,E,9.18,42.85,210523,0.0,E,A,V*4C
$GPGGA,065620.965,3114.3381971,N,12129.1434484,E,1,23,1.0,1.865,M,11.082,M,-85101016.0,0000*6A
$GPESA,065620.965,+0.683,-4.666,-0.292,-1.280,+0.777,-173.080*78
$GPESD,065620.965,0.000,0.000,0.000,0.000,0.000,0.000,0.000,0.000,0.000*78
$GPRMC,065621.085,A,3114.3378978,N,12129.1434996,E,8.95,42.81,210523,0.0,E,A,V*4B
$GPGGA,065621.085,3114.3378978,N,12129.1434996,E,1,23,1.0,1.829,M,11.082,M,-85101016.0,0000*65
$GPESA,065621.085,+0.685,-4.544,-0.309,-1.340,+0.773,-173.058*74
$GPESD,065621.085,0.000,0.000,0.000,0.000,0.000,0.000,0.000,0.000,0.000*7E
$GPRMC,065621.198,A,3114.3376266,N,12129.1435065,E,8.71,42.15,210523,0.0,E,A,V*4F
$GPGGA,065621.198,3114.3376266,N,12129.1435065,E,1,23,1.0,1.806,M,11.082,M,-85101016.0,0000*6B
$GPESA,065621.198,+0.691,-4.420,-0.284,-1.398,+0.732,-173.001*77
$GPESD,065621.198,0.000,0.000,0.000,0.000,0.000,0.000,0.000,0.000,0.000*73
$GPRMC,065621.298,A,3114.3373935,N,12129.1435262,E,8.53,41.89,210523,0.0,E,A,V*47
$GPGGA,065621.298,3114.3373935,N,12129.1435262,E,1,24,1.0,1.785,M,11.082,M,-85101016.0,0000*66
$GPESA,065621.298,+0.685,-4.324,-0.270,-1.397,+0.703,-172.960*7B
$GPESD,065621.298,0.000,0.000,0.000,0.000,0.000,0.000,0.000,0.000,0.000*70
$GPRMC,065621.436,A,3114.3370835,N,12129.1435653,E,8.23,42.24,210523,0.0,E,A,V*42
$GPGGA,065621.436,3114.3370835,N,12129.1435653,E,1,24,1.0,1.752,M,11.082,M,-85101016.0,0000*6A
$GPESA,065621.436,+0.654,-4.176,-0.276,-1.407,+0.622,-172.909*75
$GPESD,065621.436,0.000,0.000,0.000,0.000,0.000,0.000,0.000,0.000,0.000*72
$GPRMC,065621.606,A,3114.3369254,N,12129.1435672,E,7.27,42.17,210523,0.0,E,A,V*4E
$GPGGA,065621.606,3114.3369254,N,12129.1435672,E,1,24,1.0,1.773,M,11.082,M,-85101016.0,0000*6E
$GPESA,065621.606,+0.573,-3.691,-0.233,-0.758,+0.718,-172.764*7F
$GPESD,065621.606,0.000,0.000,0.000,0.000,0.000,0.000,0.000,0.000,0.000*73
$GPRMC,065621.731,A,3114.3368741,N,12129.1435773,E,6.46,41.75,210523,0.0,E,A,V*4A
$GPGGA,065621.731,3114.3368741,N,12129.1435773,E,1,24,1.0,1.800,M,11.082,M,-85101016.0,0000*60
$GPESA,065621.731,+0.538,-3.274,-0.224,-0.106,+0.779,-172.671*73
$GPESD,065621.731,0.000,0.000,0.000,0.000,0.000,0.000,0.000,0.000,0.000*76
$GPRMC,065621.841,A,3114.3368790,N,12129.1435893,E,5.69,40.54,210523,0.0,E,A,V*43
$GPGGA,065621.841,3114.3368790,N,12129.1435893,E,1,24,1.0,1.828,M,11.082,M,-85101016.0,0000*6F
$GPESA,065621.841,+0.533,-2.870,-0.225,+0.544,+0.738,-172.600*79
$GPESD,065621.841,0.000,0.000,0.000,0.000,0.000,0.000,0.000,0.000,0.000*7E
$GPRMC,065621.959,A,3114.3370243,N,12129.1435601,E,4.45,40.49,210523,0.0,E,A,V*4F
$GPGGA,065621.959,3114.3370243,N,12129.1435601,E,1,25,1.0,1.891,M,11.082,M,-85101016.0,0000*63
$GPESA,065621.959,+0.443,-2.237,-0.215,+1.673,+0.692,-172.498*79
$GPESD,065621.959,0.000,0.000,0.000,0.000,0.000,0.000,0.000,0.000,0.000*76
$GPRMC,065622.066,A,3114.3368986,N,12129.1435901,E,4.16,40.39,210523,0.0,E,A,V*4C
$GPGGA,065622.066,3114.3368986,N,12129.1435901,E,1,25,1.0,1.866,M,11.082,M,-85101016.0,0000*69
$GPESA,065622.066,+0.437,-2.081,-0.232,+1.763,+0.645,-172.433*7D
$GPESD,065622.066,0.000,0.000,0.000,0.000,0.000,0.000,0.000,0.000,0.000*70
$GPRMC,065622.181,A,3114.3372622,N,12129.1435083,E,0.84,40.39,210523,0.0,E,A,V*42
$GPGGA,065622.181,3114.3372622,N,12129.1435083,E,1,24,1.0,1.936,M,11.082,M,-85101016.0,0000*6D
$GPESA,065622.181,-0.031,+0.430,-0.043,+2.472,+0.669,-172.331*74
$GPESD,065622.181,0.000,0.000,0.000,0.000,0.000,0.000,0.000,0.000,0.000*78
$GPRMC,065622.289,A,3114.3371857,N,12129.1435267,E,2.06,38.22,210523,0.0,E,A,V*43
$GPGGA,065622.289,3114.3371857,N,12129.1435267,E,1,24,1.0,1.959,M,11.082,M,-85101016.0,0000*68
$GPESA,065622.289,+0.302,-0.992,-0.221,+3.789,+0.730,-172.176*75
$GPESD,065622.289,0.000,0.000,0.000,0.000,0.000,0.000,0.000,0.000,0.000*73
$GPRMC,065622.389,A,3114.3372848,N,12129.1435052,E,1.33,38.22,210523,0.0,E,A,V*4E
$GPGGA,065622.389,3114.3372848,N,12129.1435052,E,1,23,1.0,1.998,M,11.082,M,-85101016.0,0000*6A
$GPESA,065622.389,+0.275,-0.585,-0.217,+4.461,+0.761,-172.057*7E
$GPESD,065622.389,0.000,0.000,0.000,0.000,0.000,0.000,0.000,0.000,0.000*72
$GPRMC,065622.507,A,3114.3373996,N,12129.1434766,E,0.95,38.22,210523,0.0,E,A,V*41
$GPGGA,065622.507,3114.3373996,N,12129.1434766,E,1,23,1.0,2.032,M,11.082,M,-85101016.0,0000*62
$GPESA,065622.507,+0.030,+0.487,-0.045,+4.568,+0.705,-171.986*71
$GPESD,065622.507,0.000,0.000,0.000,0.000,0.000,0.000,0.000,0.000,0.000*72
$GPRMC,065622.607,A,3114.3375112,N,12129.1434409,E,0.66,38.22,210523,0.0,E,A,V*46
$GPGGA,065622.607,3114.3375112,N,12129.1434409,E,1,24,1.0,2.155,M,11.082,M,-85101016.0,0000*6E
$GPESA,065622.607,+0.151,+0.235,-0.191,+5.738,+0.791,-171.592*71
$GPESD,065622.607,0.000,0.000,0.000,0.000,0.000,0.000,0.000,0.000,0.000*71
$GPRMC,065622.707,A,3114.3375500,N,12129.1433999,E,1.03,38.22,210523,0.0,E,A,V*41
$GPGGA,065622.707,3114.3375500,N,12129.1433999,E,1,24,1.0,2.278,M,11.082,M,-85101016.0,0000*67
$GPESA,065622.707,+0.042,+0.505,-0.146,+6.045,+0.865,-171.232*7A
$GPESD,065622.707,0.000,0.000,0.000,0.000,0.000,0.000,0.000,0.000,0.000*70
$GPRMC,065622.824,A,3114.3374957,N,12129.1433968,E,1.34,38.22,210523,0.0,E,A,V*4A
$GPGGA,065622.824,3114.3374957,N,12129.1433968,E,1,24,1.0,2.346,M,11.082,M,-85101016.0,0000*64
$GPESA,065622.824,-0.015,+0.679,-0.134,+5.905,+0.910,-171.087*7C
$GPESD,065622.824,0.000,0.000,0.000,0.000,0.000,0.000,0.000,0.000,0.000*7E
$GPRMC,065622.924,A,3114.3375110,N,12129.1434058,E,1.83,38.22,210523,0.0,E,A,V*40
$GPGGA,065622.924,3114.3375110,N,12129.1434058,E,1,24,1.0,2.350,M,11.082,M,-85101016.0,0000*65
$GPESA,065622.924,-0.043,+0.925,-0.159,+5.971,+0.905,-171.160*7C
$GPESD,065622.924,0.000,0.000,0.000,0.000,0.000,0.000,0.000,0.000,0.000*7F
$GPRMC,065623.045,A,3114.3375471,N,12129.1434069,E,2.43,219.04,210523,0.0,E,A,V*75
$GPGGA,065623.045,3114.3375471,N,12129.1434069,E,1,24,1.0,2.333,M,11.082,M,-85101016.0,0000*6F
$GPESA,065623.045,-0.066,+1.234,-0.189,+6.049,+0.916,-171.165*75
$GPESD,065623.045,0.000,0.000,0.000,0.000,0.000,0.000,0.000,0.000,0.000*70
$GPRMC,065623.155,A,3114.3375869,N,12129.1434041,E,2.95,219.73,210523,0.0,E,A,V*71
$GPGGA,065623.155,3114.3375869,N,12129.1434041,E,1,24,1.0,2.309,M,11.082,M,-85101016.0,0000*69
$GPESA,065623.155,-0.072,+1.500,-0.217,+6.184,+0.871,-171.184*7B
$GPESD,065623.155,0.000,0.000,0.000,0.000,0.000,0.000,0.000,0.000,0.000*70
$GPRMC,065623.255,A,3114.3375898,N,12129.1434038,E,3.39,220.64,210523,0.0,E,A,V*79
$GPGGA,065623.255,3114.3375898,N,12129.1434038,E,1,24,1.0,2.270,M,11.082,M,-85101016.0,0000*65
$GPESA,065623.255,-0.070,+1.725,-0.232,+6.276,+0.803,-171.298*7D
$GPESD,065623.255,0.000,0.000,0.000,0.000,0.000,0.000,0.000,0.000,0.000*73
$GPRMC,065623.375,A,3114.3377112,N,12129.1433974,E,3.94,220.24,210523,0.0,E,A,V*76
$GPGGA,065623.375,3114.3377112,N,12129.1433974,E,1,24,1.0,2.240,M,11.082,M,-85101016.0,0000*6A
$GPESA,065623.375,-0.103,+2.007,-0.256,+6.410,+0.766,-171.242*70
$GPESD,065623.375,0.000,0.000,0.000,0.000,0.000,0.000,0.000,0.000,0.000*70
$GPRMC,065623.475,A,3114.3378263,N,12129.1433906,E,4.39,220.00,210523,0.0,E,A,V*78
$GPGGA,065623.475,3114.3378263,N,12129.1433906,E,1,24,1.0,2.213,M,11.082,M,-85101016.0,0000*64
$GPESA,065623.475,-0.120,+2.238,-0.292,+6.566,+0.740,-171.211*72
$GPESD,065623.475,0.000,0.000,0.000,0.000,0.000,0.000,0.000,0.000,0.000*77
$GPRMC,065623.595,A,3114.3378298,N,12129.1434444,E,4.81,221.35,210523,0.0,E,A,V*7B
$GPGGA,065623.595,3114.3378298,N,12129.1434444,E,1,25,1.0,2.191,M,11.082,M,-85101016.0,0000*6B
$GPESA,065623.595,-0.092,+2.454,-0.301,+6.678,+0.617,-171.437*7F
$GPESD,065623.595,0.000,0.000,0.000,0.000,0.000,0.000,0.000,0.000,0.000*78
$GPRMC,065623.695,A,3114.3379677,N,12129.1434382,E,5.17,221.31,210523,0.0,E,A,V*7B
$GPGGA,065623.695,3114.3379677,N,12129.1434382,E,1,25,1.0,2.160,M,11.082,M,-85101016.0,0000*6F
$GPESA,065623.695,-0.105,+2.638,-0.317,+6.829,+0.598,-171.400*76
$GPESD,065623.695,0.000,0.000,0.000,0.000,0.000,0.000,0.000,0.000,0.000*7B
$GPRMC,065641.026,A,3114.3200882,N,12129.1451147,E,8.14,43.96,210523,0.0,E,A,V*47
$GPGGA,065641.026,3114.3200882,N,12129.1451147,E,1,21,1.0,2.647,M,11.083,M,-1065948032.0,0000*6D
$GPESA,065641.026,+0.459,-4.159,-0.137,-0.757,+1.611,-173.385*7B
$GPESD,065641.026,0.000,0.000,0.000,0.000,0.000,0.000,0.000,0.000,0.000*71
$GPRMC,065641.163,A,3114.3197885,N,12129.1451741,E,8.33,43.91,210523,0.0,E,A,V*4F
$GPGGA,065641.163,3114.3197885,N,12129.1451741,E,1,21,1.0,2.653,M,11.083,M,-1065948032.0,0000*62
$GPESA,065641.163,+0.463,-4.260,-0.126,-0.544,+1.868,-173.546*72
$GPESD,065641.163,0.000,0.000,0.000,0.000,0.000,0.000,0.000,0.000,0.000*71
$GPRMC,065641.293,A,3114.3195015,N,12129.1452608,E,8.52,43.07,210523,0.0,E,A,V*47
$GPGGA,065641.293,3114.3195015,N,12129.1452608,E,1,21,1.0,2.658,M,11.083,M,-1065948032.0,0000*69
$GPESA,065641.293,+0.511,-4.353,-0.114,-0.438,+1.623,-173.728*7B
$GPESD,065641.293,0.000,0.000,0.000,0.000,0.000,0.000,0.000,0.000,0.000*7D
$GPRMC,065641.394,A,3114.3192608,N,12129.1452981,E,8.75,43.57,210523,0.0,E,A,V*42
$GPGGA,065641.394,3114.3192608,N,12129.1452981,E,1,21,1.0,2.650,M,11.083,M,-1065948032.0,0000*64
$GPESA,065641.394,+0.498,-4.471,-0.122,-0.523,+1.536,-173.805*73
$GPESD,065641.394,0.000,0.000,0.000,0.000,0.000,0.000,0.000,0.000,0.000*7B
$GPRMC,065641.494,A,3114.3190196,N,12129.1453539,E,8.94,43.71,210523,0.0,E,A,V*42
$GPGGA,065641.494,3114.3190196,N,12129.1453539,E,1,21,1.0,2.645,M,11.083,M,-1065948032.0,0000*6B
$GPESA,065641.494,+0.510,-4.571,-0.137,-0.611,+1.448,-173.805*7A
$GPESD,065641.494,0.000,0.000,0.000,0.000,0.000,0.000,0.000,0.000,0.000*7C
$GPRMC,065641.606,A,3114.3187389,N,12129.1453917,E,9.10,43.89,210523,0.0,E,A,V*4B
$GPGGA,065641.606,3114.3187389,N,12129.1453917,E,1,21,1.0,2.638,M,11.083,M,-1065948032.0,0000*62
$GPESA,065641.606,+0.509,-4.652,-0.141,-0.645,+1.532,-173.818*79
$GPESD,065641.606,0.000,0.000,0.000,0.000,0.000,0.000,0.000,0.000,0.000*75
$GPRMC,065641.724,A,3114.3184477,N,12129.1454510,E,9.19,43.70,210523,0.0,E,A,V*4C
$GPGGA,065641.724,3114.3184477,N,12129.1454510,E,1,21,1.0,2.636,M,11.083,M,-1065948032.0,0000*64
$GPESA,065641.724,+0.524,-4.694,-0.141,-0.657,+1.489,-173.827*73
$GPESD,065641.724,0.000,0.000,0.000,0.000,0.000,0.000,0.000,0.000,0.000*74
$GPRMC,065641.824,A,3114.3181925,N,12129.1454931,E,9.27,43.18,210523,0.0,E,A,V*40
$GPGGA,065641.824,3114.3181925,N,12129.1454931,E,1,21,1.0,2.620,M,11.083,M,-1065948032.0,0000*6C
$GPESA,065641.824,+0.579,-4.732,-0.167,-0.759,+1.338,-173.848*76
$GPESD,065641.824,0.000,0.000,0.000,0.000,0.000,0.000,0.000,0.000,0.000*7B
$GPRMC,065641.929,A,3114.3179229,N,12129.1455386,E,9.31,43.10,210523,0.0,E,A,V*44
$GPGGA,065641.929,3114.3179229,N,12129.1455386,E,1,21,1.0,2.605,M,11.083,M,-1065948032.0,0000*60
$GPESA,065641.929,+0.600,-4.748,-0.186,-0.851,+1.187,-173.846*7A
$GPESD,065641.929,0.000,0.000,0.000,0.000,0.000,0.000,0.000,0.000,0.000*77
$GPRMC,065642.039,A,3114.3176419,N,12129.1456023,E,9.31,42.96,210523,0.0,E,A,V*45
$GPGGA,065642.039,3114.3176419,N,12129.1456023,E,1,21,1.0,2.593,M,11.083,M,-1065948032.0,0000*62
$GPESA,065642.039,+0.616,-4.746,-0.197,-0.888,+1.045,-173.775*7C
$GPESD,065642.039,0.000,0.000,0.000,0.000,0.000,0.000,0.000,0.000,0.000*7C
$GPRMC,065642.147,A,3114.3173640,N,12129.1456438,E,9.32,43.44,210523,0.0,E,A,V*45
$GPGGA,065642.147,3114.3173640,N,12129.1456438,E,1,21,1.0,2.579,M,11.083,M,-1065948032.0,0000*6B
$GPESA,065642.147,+0.586,-4.753,-0.195,-0.887,+1.111,-173.735*73
$GPESD,065642.147,0.000,0.000,0.000,0.000,0.000,0.000,0.000,0.000,0.000*74
$GPRMC,065642.259,A,3114.3170698,N,12129.1456880,E,9.36,42.91,210523,0.0,E,A,V*4D
$GPGGA,065642.259,3114.3170698,N,12129.1456880,E,1,21,1.0,2.571,M,11.083,M,-1065948032.0,0000*66
$GPESA,065642.259,+0.616,-4.770,-0.188,-0.913,+1.173,-173.667*76
$GPESD,065642.259,0.000,0.000,0.000,0.000,0.000,0.000,0.000,0.000,0.000*78
$GPRMC,065642.379,A,3114.3167573,N,12129.1457362,E,9.40,43.15,210523,0.0,E,A,V*44
$GPGGA,065642.379,3114.3167573,N,12129.1457362,E,1,21,1.0,2.554,M,11.083,M,-1065948032.0,0000*64
$GPESA,065642.379,+0.629,-4.789,-0.225,-0.951,+1.149,-173.632*74
$GPESD,065642.379,0.000,0.000,0.000,0.000,0.000,0.000,0.000,0.000,0.000*7B
$GPRMC,065642.507,A,3114.3164244,N,12129.1457888,E,9.39,42.78,210523,0.0,E,A,V*40
$GPGGA,065642.507,3114.3164244,N,12129.1457888,E,1,21,1.0,2.532,M,11.083,M,-1065948032.0,0000*64
$GPESA,065642.507,+0.655,-4.782,-0.231,-1.000,+1.118,-173.593*7E
$GPESD,065642.507,0.000,0.000,0.000,0.000,0.000,0.000,0.000,0.000,0.000*74
$GPRMC,065642.687,A,3114.3159590,N,12129.1458702,E,9.40,42.17,210523,0.0,E,A,V*4E
$GPGGA,065642.687,3114.3159590,N,12129.1458702,E,1,21,1.0,2.496,M,11.083,M,-1065948032.0,0000*62
$GPESA,065642.687,+0.698,-4.781,-0.239,-0.962,+1.007,-173.504*72
$GPESD,065642.687,0.000,0.000,0.000,0.000,0.000,0.000,0.000,0.000,0.000*7F
$GPRMC,065642.787,A,3114.3157031,N,12129.1459139,E,9.36,41.95,210523,0.0,E,A,V*48
$GPGGA,065642.787,3114.3157031,N,12129.1459139,E,1,20,1.0,2.495,M,11.083,M,-1065948032.0,0000*6E
$GPESA,065642.787,+0.702,-4.756,-0.229,-0.964,+1.004,-173.410*7B
$GPESD,065642.787,0.000,0.000,0.000,0.000,0.000,0.000,0.000,0.000,0.000*7E
$GPRMC,065642.897,A,3114.3154179,N,12129.1459645,E,9.34,41.95,210523,0.0,E,A,V*46
$GPGGA,065642.897,3114.3154179,N,12129.1459645,E,1,20,1.0,2.477,M,11.083,M,-1065948032.0,0000*6E
$GPESA,065642.897,+0.723,-4.741,-0.261,-1.055,+0.982,-173.368*78
$GPESD,065642.897,0.000,0.000,0.000,0.000,0.000,0.000,0.000,0.000,0.000*70
$GPRMC,065643.012,A,3114.3151244,N,12129.1460130,E,9.28,42.09,210523,0.0,E,A,V*4E
$GPGGA,065643.012,3114.3151244,N,12129.1460130,E,1,20,1.0,2.459,M,11.083,M,-1065948032.0,0000*61
$GPESA,065643.012,+0.718,-4.711,-0.271,-1.025,+0.997,-173.289*7D
$GPESD,065643.012,0.000,0.000,0.000,0.000,0.000,0.000,0.000,0.000,0.000*74
$GPRMC,065643.143,A,3114.3147929,N,12129.1460702,E,9.26,42.16,210523,0.0,E,A,V*4B
$GPGGA,065643.143,3114.3147929,N,12129.1460702,E,1,20,1.0,2.437,M,11.083,M,-1065948032.0,0000*6C
$GPESA,065643.143,+0.709,-4.705,-0.264,-0.967,+0.956,-173.275*79
$GPESD,065643.143,0.000,0.000,0.000,0.000,0.000,0.000,0.000,0.000,0.000*71
$GPRMC,065643.270,A,3114.3144752,N,12129.1461084,E,9.18,42.42,210523,0.0,E,A,V*4D
$GPGGA,065643.270,3114.3144752,N,12129.1461084,E,1,20,1.0,2.495,M,11.083,M,-1065948032.0,0000*6E
$GPESA,065643.270,+0.677,-4.667,-0.247,-0.918,+0.987,-173.275*72
$GPESD,065643.270,0.000,0.000,0.000,0.000,0.000,0.000,0.000,0.000,0.000*72
$GPRMC,065643.378,A,3114.3142027,N,12129.1461479,E,9.14,42.45,210523,0.0,E,A,V*4A
$GPGGA,065643.378,3114.3142027,N,12129.1461479,E,1,20,1.0,2.510,M,11.083,M,-1065948032.0,0000*6E
$GPESA,065643.378,+0.681,-4.643,-0.260,-0.874,+1.000,-173.289*7E
$GPESD,065643.378,0.000,0.000,0.000,0.000,0.000,0.000,0.000,0.000,0.000*7B
$GPRMC,065643.498,A,3114.3139010,N,12129.1461998,E,9.10,41.73,210523,0.0,E,A,V*4B
$GPGGA,065643.498,3114.3139010,N,12129.1461998,E,1,20,1.0,2.488,M,11.083,M,-1065948032.0,0000*6D
$GPESA,065643.498,+0.726,-4.615,-0.269,-0.760,+0.851,-173.230*74
$GPESD,065643.498,0.000,0.000,0.000,0.000,0.000,0.000,0.000,0.000,0.000*72
$GPRMC,065643.618,A,3114.3136000,N,12129.1462531,E,9.11,41.29,210523,0.0,E,A,V*4D
$GPGGA,065643.618,3114.3136000,N,12129.1462531,E,1,20,1.0,2.470,M,11.083,M,-1065948032.0,0000*62
$GPESA,065643.618,+0.748,-4.620,-0.263,-0.675,+0.737,-173.222*73
$GPESD,065643.618,0.000,0.000,0.000,0.000,0.000,0.000,0.000,0.000,0.000*78
$GPRMC,065643.718,A,3114.3133497,N,12129.1462945,E,9.18,42.46,210523,0.0,E,A,V*4F
$GPGGA,065643.718,3114.3133497,N,12129.1462945,E,1,21,1.0,2.491,M,11.083,M,-1065948032.0,0000*6D
$GPESA,065643.718,+0.694,-4.663,-0.275,-0.729,+0.635,-173.229*72
$GPESD,065643.718,0.000,0.000,0.000,0.000,0.000,0.000,0.000,0.000,0.000*79
$GPRMC,065643.818,A,3114.3130955,N,12129.1463376,E,9.27,42.86,210523,0.0,E,A,V*4B
$GPGGA,065643.818,3114.3130955,N,12129.1463376,E,1,21,1.0,2.509,M,11.083,M,-1065948032.0,0000*69
$GPESA,065643.818,+0.692,-4.710,-0.299,-0.780,+0.808,-173.180*7F
$GPESD,065643.818,0.000,0.000,0.000,0.000,0.000,0.000,0.000,0.000,0.000*76
$GPRMC,065643.918,A,3114.3128406,N,12129.1463792,E,9.39,42.30,210523,0.0,E,A,V*44
$GPGGA,065643.918,3114.3128406,N,12129.1463792,E,1,21,1.0,2.495,M,11.083,M,-1065948032.0,0000*60
$GPESA,065643.918,+0.728,-4.764,-0.295,-0.778,+0.965,-173.090*7C
$GPESD,065643.918,0.000,0.000,0.000,0.000,0.000,0.000,0.000,0.000,0.000*77
$GPRMC,065644.043,A,3114.3125129,N,12129.1464348,E,9.63,39.84,210523,0.0,E,A,V*49
$GPGGA,065644.043,3114.3125129,N,12129.1464348,E,1,21,1.0,2.475,M,11.083,M,-1065948032.0,0000*6F
$GPESA,065644.043,+0.866,-4.871,-0.262,-0.905,+0.989,-173.054*74
$GPESD,065644.043,0.000,0.000,0.000,0.000,0.000,0.000,0.000,0.000,0.000*77
$GPRMC,065644.151,A,3114.3122290,N,12129.1464845,E,9.70,40.25,210523,0.0,E,A,V*4C
$GPGGA,065644.151,3114.3122290,N,12129.1464845,E,1,21,1.0,2.465,M,11.083,M,-1065948032.0,0000*6C
$GPESA,065644.151,+0.852,-4.909,-0.271,-1.018,+0.734,-173.060*76
$GPESD,065644.151,0.000,0.000,0.000,0.000,0.000,0.000,0.000,0.000,0.000*75
$GPRMC,065644.284,A,3114.3118714,N,12129.1465098,E,9.81,42.28,210523,0.0,E,A,V*4F
$GPGGA,065644.284,3114.3118714,N,12129.1465098,E,1,20,1.0,2.510,M,11.083,M,-1065948032.0,0000*6C
$GPESA,065644.284,+0.750,-4.985,-0.290,-0.887,+0.643,-172.996*74
$GPESD,065644.284,0.000,0.000,0.000,0.000,0.000,0.000,0.000,0.000,0.000*7E
$GPRMC,065644.386,A,3114.3115847,N,12129.1465468,E,10.01,43.05,210523,0.0,E,A,V*7D
$GPGGA,065644.386,3114.3115847,N,12129.1465468,E,1,20,1.0,2.530,M,11.083,M,-1065948032.0,0000*62
$GPESA,065644.386,+0.730,-5.088,-0.316,-0.722,+0.758,-172.885*73
$GPESD,065644.386,0.000,0.000,0.000,0.000,0.000,0.000,0.000,0.000,0.000*7D
$GPRMC,065644.486,A,3114.3112997,N,12129.1465678,E,10.23,42.64,210523,0.0,E,A,V*74
$GPGGA,065644.486,3114.3112997,N,12129.1465678,E,1,21,1.0,2.551,M,11.083,M,-1065948032.0,0000*6B
$GPESA,065644.486,+0.759,-5.197,-0.304,-0.615,+0.936,-172.826*7D
$GPESD,065644.486,0.000,0.000,0.000,0.000,0.000,0.000,0.000,0.000,0.000*7A
$GPRMC,065644.669,A,3114.3107730,N,12129.1466496,E,10.50,40.62,210523,0.0,E,A,V*71
$GPGGA,065644.669,3114.3107730,N,12129.1466496,E,1,21,1.0,2.547,M,11.083,M,-1065948032.0,0000*69
$GPESA,065644.669,+0.871,-5.325,-0.250,-0.664,+1.008,-172.803*74
$GPESD,065644.669,0.000,0.000,0.000,0.000,0.000,0.000,0.000,0.000,0.000*79
$GPRMC,065644.769,A,3114.3104785,N,12129.1466764,E,10.66,40.67,210523,0.0,E,A,V*73
$GPGGA,065644.769,3114.3104785,N,12129.1466764,E,1,20,1.0,2.606,M,11.083,M,-1065948032.0,0000*6C
$GPESA,065644.769,+0.874,-5.407,-0.245,-0.750,+0.974,-172.763*7F
$GPESD,065644.769,0.000,0.000,0.000,0.000,0.000,0.000,0.000,0.000,0.000*78
$GPRMC,065644.877,A,3114.3101535,N,12129.1467198,E,10.83,41.31,210523,0.0,E,A,V*72
$GPGGA,065644.877,3114.3101535,N,12129.1467198,E,1,20,1.0,2.620,M,11.083,M,-1065948032.0,0000*60
$GPESA,065644.877,+0.871,-5.495,-0.287,-0.777,+0.892,-172.742*70
$GPESD,065644.877,0.000,0.000,0.000,0.000,0.000,0.000,0.000,0.000,0.000*78
$GPRMC,065644.982,A,3114.3098293,N,12129.1467623,E,11.05,41.81,210523,0.0,E,A,V*70
$GPGGA,065644.982,3114.3098293,N,12129.1467623,E,1,21,1.0,2.632,M,11.083,M,-1065948032.0,0000*64
$GPESA,065644.982,+0.847,-5.616,-0.283,-0.725,+0.934,-172.713*7D
$GPESD,065644.982,0.000,0.000,0.000,0.000,0.000,0.000,0.000,0.000,0.000*73
$GPRMC,065645.082,A,3114.3095134,N,12129.1467901,E,11.27,41.34,210523,0.0,E,A,V*7A
$GPGGA,065645.082,3114.3095134,N,12129.1467901,E,1,21,1.0,2.645,M,11.083,M,-1065948032.0,0000*60
$GPESA,065645.082,+0.880,-5.725,-0.263,-0.704,+0.898,-172.675*74
$GPESD,065645.082,0.000,0.000,0.000,0.000,0.000,0.000,0.000,0.000,0.000*7B
$GPRMC,065645.207,A,3114.3091171,N,12129.1468270,E,11.43,41.59,210523,0.0,E,A,V*7B
$GPGGA,065645.207,3114.3091171,N,12129.1468270,E,1,21,1.0,2.654,M,11.083,M,-1065948032.0,0000*68
$GPESA,065645.207,+0.880,-5.807,-0.275,-0.726,+0.947,-172.612*71
$GPESD,065645.207,0.000,0.000,0.000,0.000,0.000,0.000,0.000,0.000,0.000*74
$GPRMC,065645.307,A,3114.3087942,N,12129.1468482,E,11.57,41.39,210523,0.0,E,A,V*7D
$GPGGA,065645.307,3114.3087942,N,12129.1468482,E,1,21,1.0,2.667,M,11.083,M,-1065948032.0,0000*6D
$GPESA,065645.307,+0.896,-5.880,-0.264,-0.766,+1.010,-172.562*72
$GPESD,065645.307,0.000,0.000,0.000,0.000,0.000,0.000,0.000,0.000,0.000*75
$GPRMC,065645.455,A,3114.3083148,N,12129.1469009,E,11.70,41.20,210523,0.0,E,A,V*70
$GPGGA,065645.455,3114.3083148,N,12129.1469009,E,1,21,1.0,2.663,M,11.083,M,-1065948032.0,0000*69
$GPESA,065645.455,+0.932,-5.938,-0.285,-0.814,+1.016,-172.506*7E
$GPESD,065645.455,0.000,0.000,0.000,0.000,0.000,0.000,0.000,0.000,0.000*75
$GPRMC,065645.597,A,3114.3078376,N,12129.1469191,E,11.74,41.45,210523,0.0,E,A,V*73
$GPGGA,065645.597,3114.3078376,N,12129.1469191,E,1,21,1.0,2.690,M,11.083,M,-1065948032.0,0000*61
$GPESA,065645.597,+0.910,-5.962,-0.275,-0.949,+1.016,-172.429*74
$GPESD,065645.597,0.000,0.000,0.000,0.000,0.000,0.000,0.000,0.000,0.000*7A
$GPRMC,065645.697,A,3114.3075038,N,12129.1469471,E,11.74,41.28,210523,0.0,E,A,V*74
$GPGGA,065645.697,3114.3075038,N,12129.1469471,E,1,21,1.0,2.694,M,11.083,M,-1065948032.0,0000*69
$GPESA,065645.697,+0.916,-5.966,-0.266,-1.015,+1.052,-172.365*79
$GPESD,065645.697,0.000,0.000,0.000,0.000,0.000,0.000,0.000,0.000,0.000*79
$GPRMC,065645.818,A,3114.3071087,N,12129.1469890,E,11.76,41.06,210523,0.0,E,A,V*70
$GPGGA,065645.818,3114.3071087,N,12129.1469890,E,1,21,1.0,2.693,M,11.083,M,-1065948032.0,0000*64
$GPESA,065645.818,+0.932,-5.971,-0.264,-0.996,+1.048,-172.282*72
$GPESD,065645.818,0.000,0.000,0.000,0.000,0.000,0.000,0.000,0.000,0.000*70
$GPRMC,065645.933,A,3114.3067303,N,12129.1470366,E,11.82,40.42,210523,0.0,E,A,V*70
$GPGGA,065645.933,3114.3067303,N,12129.1470366,E,1,21,1.0,2.688,M,11.083,M,-1065948032.0,0000*64
$GPESA,065645.933,+0.977,-5.995,-0.255,-0.953,+1.019,-172.185*7A
$GPESD,065645.933,0.000,0.000,0.000,0.000,0.000,0.000,0.000,0.000,0.000*78
$GPRMC,065646.093,A,3114.3062007,N,12129.1470820,E,11.90,40.16,210523,0.0,E,A,V*79
$GPGGA,065646.093,3114.3062007,N,12129.1470820,E,1,21,1.0,2.705,M,11.083,M,-1065948032.0,0000*6B
$GPESA,065646.093,+1.004,-6.032,-0.258,-0.980,+1.060,-172.070*77
$GPESD,065646.093,0.000,0.000,0.000,0.000,0.000,0.000,0.000,0.000,0.000*78
$GPRMC,065646.213,A,3114.3058052,N,12129.1471339,E,11.89,40.34,210523,0.0,E,A,V*70
$GPGGA,065646.213,3114.3058052,N,12129.1471339,E,1,21,1.0,2.699,M,11.083,M,-1065948032.0,0000*6E
$GPESA,065646.213,+0.993,-6.032,-0.261,-1.057,+1.100,-171.989*78
$GPESD,065646.213,0.000,0.000,0.000,0.000,0.000,0.000,0.000,0.000,0.000*72
$GPRMC,065646.356,A,3114.3053407,N,12129.1472072,E,11.89,40.05,210523,0.0,E,A,V*72
$GPGGA,065646.356,3114.3053407,N,12129.1472072,E,1,22,1.0,2.693,M,11.083,M,-1065948032.0,0000*67
$GPESA,065646.356,+1.032,-6.021,-0.291,-1.074,+1.059,-171.875*78
$GPESD,065646.356,0.000,0.000,0.000,0.000,0.000,0.000,0.000,0.000,0.000*72
$GPRMC,065646.491,A,3114.3048994,N,12129.1472523,E,11.87,40.10,210523,0.0,E,A,V*78
$GPGGA,065646.491,3114.3048994,N,12129.1472523,E,1,22,1.0,2.720,M,11.083,M,-1065948032.0,0000*6E
$GPESA,065646.491,+1.013,-6.015,-0.268,-1.044,+1.071,-171.783*79
$GPESD,065646.491,0.000,0.000,0.000,0.000,0.000,0.000,0.000,0.000,0.000*7E
$GPRMC,065646.631,A,3114.3044420,N,12129.1473378,E,11.87,39.88,210523,0.0,E,A,V*78
$GPGGA,065646.631,3114.3044420,N,12129.1473378,E,1,21,1.0,2.685,M,11.083,M,-1065948032.0,0000*6C
$GPESA,065646.631,+1.037,-6.013,-0.280,-0.999,+1.186,-171.674*7F
$GPESD,065646.631,0.000,0.000,0.000,0.000,0.000,0.000,0.000,0.000,0.000*76
$GPRMC,065646.733,A,3114.3041081,N,12129.1473991,E,11.87,39.94,210523,0.0,E,A,V*71
$GPGGA,065646.733,3114.3041081,N,12129.1473991,E,1,21,1.0,2.662,M,11.083,M,-1065948032.0,0000*61
$GPESA,065646.733,+1.032,-6.014,-0.278,-0.981,+1.243,-171.594*77
$GPESD,065646.733,0.000,0.000,0.000,0.000,0.000,0.000,0.000,0.000,0.000*75
$GPRMC,065646.851,A,3114.3037275,N,12129.1474739,E,11.84,39.70,210523,0.0,E,A,V*70
$GPGGA,065646.851,3114.3037275,N,12129.1474739,E,1,21,1.0,2.630,M,11.083,M,-1065948032.0,0000*6E
$GPESA,065646.851,+1.053,-5.992,-0.290,-0.976,+1.245,-171.519*72
$GPESD,065646.851,0.000,0.000,0.000,0.000,0.000,0.000,0.000,0.000,0.000*7E
$GPRMC,065646.986,A,3114.3032909,N,12129.1475569,E,11.83,39.60,210523,0.0,E,A,V*7E
$GPGGA,065646.986,3114.3032909,N,12129.1475569,E,1,21,1.0,2.599,M,11.083,M,-1065948032.0,0000*66
$GPESA,065646.986,+1.060,-5.987,-0.290,-0.994,+1.191,-171.427*77
$GPESD,065646.986,0.000,0.000,0.000,0.000,0.000,0.000,0.000,0.000,0.000*75
$GPRMC,065647.086,A,3114.3029722,N,12129.1476216,E,11.75,39.69,210523,0.0,E,A,V*77
$GPGGA,065647.086,3114.3029722,N,12129.1476216,E,1,21,1.0,2.570,M,11.083,M,-1065948032.0,0000*68
$GPESA,065647.086,+1.051,-5.945,-0.295,-0.991,+1.247,-171.243*7F
$GPESD,065647.086,0.000,0.000,0.000,0.000,0.000,0.000,0.000,0.000,0.000*7D
$GPRMC,065647.186,A,3114.3026507,N,12129.1476884,E,11.73,39.68,210523,0.0,E,A,V*7A
$GPGGA,065647.186,3114.3026507,N,12129.1476884,E,1,21,1.0,2.540,M,11.083,M,-1065948032.0,0000*61
$GPESA,065647.186,+1.058,-5.932,-0.309,-0.981,+1.269,-171.150*7F
$GPESD,065647.186,0.000,0.000,0.000,0.000,0.000,0.000,0.000,0.000,0.000*7C
$GPRMC,065647.286,A,3114.3023309,N,12129.1477466,E,11.67,39.43,210523,0.0,E,A,V*79
$GPGGA,065647.286,3114.3023309,N,12129.1477466,E,1,21,1.0,2.518,M,11.083,M,-1065948032.0,0000*63
$GPESA,065647.286,+1.068,-5.900,-0.302,-0.934,+1.331,-171.045*72
$GPESD,065647.286,0.000,0.000,0.000,0.000,0.000,0.000,0.000,0.000,0.000*7F
$GPRMC,065647.399,A,3114.3019722,N,12129.1478152,E,11.62,39.29,210523,0.0,E,A,V*76
$GPGGA,065647.399,3114.3019722,N,12129.1478152,E,1,21,1.0,2.496,M,11.083,M,-1065948032.0,0000*62
$GPESA,065647.399,+1.066,-5.877,-0.289,-0.876,+1.350,-170.929*72
$GPESD,065647.399,0.000,0.000,0.000,0.000,0.000,0.000,0.000,0.000,0.000*70
$GPRMC,065647.519,A,3114.3015924,N,12129.1478908,E,11.56,38.98,210523,0.0,E,A,V*77
$GPGGA,065647.519,3114.3015924,N,12129.1478908,E,1,21,1.0,2.468,M,11.083,M,-1065948032.0,0000*6E
$GPESA,065647.519,+1.083,-5.843,-0.290,-0.810,+1.320,-170.832*74
$GPESD,065647.519,0.000,0.000,0.000,0.000,0.000,0.000,0.000,0.000,0.000*7E
$GPRMC,065647.659,A,3114.3011508,N,12129.1479866,E,11.53,38.37,210523,0.0,E,A,V*7E
$GPGGA,065647.659,3114.3011508,N,12129.1479866,E,1,21,1.0,2.434,M,11.083,M,-1065948032.0,0000*6E
$GPESA,065647.659,+1.114,-5.819,-0.276,-0.772,+1.221,-170.689*7E
$GPESD,065647.659,0.000,0.000,0.000,0.000,0.000,0.000,0.000,0.000,0.000*79
$GPRMC,065647.794,A,3114.3007244,N,12129.1480763,E,11.47,38.13,210523,0.0,E,A,V*79
$GPGGA,065647.794,3114.3007244,N,12129.1480763,E,1,21,1.0,2.407,M,11.083,M,-1065948032.0,0000*6A
$GPESA,065647.794,+1.109,-5.790,-0.250,-0.774,+1.172,-170.544*79
$GPESD,065647.794,0.000,0.000,0.000,0.000,0.000,0.000,0.000,0.000,0.000*79
$GPRMC,065647.954,A,3114.3002246,N,12129.1481721,E,11.36,38.23,210523,0.0,E,A,V*7E
$GPGGA,065647.954,3114.3002246,N,12129.1481721,E,1,21,1.0,2.388,M,11.083,M,-1065948032.0,0000*68
$GPESA,065647.954,+1.080,-5.740,-0.228,-0.839,+1.209,-170.417*77
$GPESD,065647.954,0.000,0.000,0.000,0.000,0.000,0.000,0.000,0.000,0.000*7B
$GPRMC,065648.090,A,3114.2998051,N,12129.1482562,E,11.32,37.91,210523,0.0,E,A,V*7B
$GPGGA,065648.090,3114.2998051,N,12129.1482562,E,1,21,1.0,2.366,M,11.083,M,-1065948032.0,0000*6F
$GPESA,065648.090,+1.091,-5.715,-0.216,-0.815,+1.176,-170.296*7E
$GPESD,065648.090,0.000,0.000,0.000,0.000,0.000,0.000,0.000,0.000,0.000*75
$GPRMC,065648.220,A,3114.2994046,N,12129.1483393,E,11.30,38.20,210523,0.0,E,A,V*76
$GPGGA,065648.220,3114.2994046,N,12129.1483393,E,1,21,1.0,2.342,M,11.083,M,-1065948032.0,0000*63
$GPESA,065648.220,+1.072,-5.711,-0.219,-0.827,+1.209,-170.185*7A
$GPESD,065648.220,0.000,0.000,0.000,0.000,0.000,0.000,0.000,0.000,0.000*7C
$GPRMC,065648.330,A,3114.2990639,N,12129.1484044,E,11.27,38.39,210523,0.0,E,A,V*7C
$GPGGA,065648.330,3114.2990639,N,12129.1484044,E,1,21,1.0,2.327,M,11.083,M,-1065948032.0,0000*64
$GPESA,065648.330,+1.054,-5.696,-0.215,-0.881,+1.262,-170.107*77
$GPESD,065648.330,0.000,0.000,0.000,0.000,0.000,0.000,0.000,0.000,0.000*7C
$GPRMC,065648.505,A,3114.2985249,N,12129.1485184,E,11.21,37.67,210523,0.0,E,A,V*75
$GPGGA,065648.505,3114.2985249,N,12129.1485184,E,1,21,1.0,2.302,M,11.083,M,-1065948032.0,0000*68
$GPESA,065648.505,+1.093,-5.660,-0.208,-0.948,+1.302,-169.642*74
$GPESD,065648.505,0.000,0.000,0.000,0.000,0.000,0.000,0.000,0.000,0.000*7C
$GPRMC,065648.685,A,3114.2979717,N,12129.1486343,E,11.20,37.65,210523,0.0,E,A,V*7A
$GPGGA,065648.685,3114.2979717,N,12129.1486343,E,1,21,1.0,2.271,M,11.083,M,-1065948032.0,0000*61
$GPESA,065648.685,+1.088,-5.652,-0.200,-0.912,+1.232,-169.480*7D
$GPESD,065648.685,0.000,0.000,0.000,0.000,0.000,0.000,0.000,0.000,0.000*77
$GPRMC,065648.793,A,3114.2976394,N,12129.1487003,E,11.20,38.03,210523,0.0,E,A,V*75
$GPGGA,065648.793,3114.2976394,N,12129.1487003,E,1,21,1.0,2.260,M,11.083,M,-1065948032.0,0000*61
$GPESA,065648.793,+1.058,-5.663,-0.190,-0.839,+1.225,-169.395*73
$GPESD,065648.793,0.000,0.000,0.000,0.000,0.000,0.000,0.000,0.000,0.000*71
$GPRMC,065648.910,A,3114.2972781,N,12129.1487713,E,11.23,38.19,210523,0.0,E,A,V*7A
$GPGGA,065648.910,3114.2972781,N,12129.1487713,E,1,22,1.0,2.242,M,11.083,M,-1065948032.0,0000*65
$GPESA,065648.910,+1.056,-5.677,-0.202,-0.731,+1.256,-169.316*7D
$GPESD,065648.910,0.000,0.000,0.000,0.000,0.000,0.000,0.000,0.000,0.000*74
$GPRMC,065649.010,A,3114.2969707,N,12129.1488392,E,11.28,38.04,210523,0.0,E,A,V*73
$GPGGA,065649.010,3114.2969707,N,12129.1488392,E,1,21,1.0,2.222,M,11.083,M,-1065948032.0,0000*6E
$GPESA,065649.010,+1.073,-5.698,-0.207,-0.669,+1.227,-169.247*79
$GPESD,065649.010,0.000,0.000,0.000,0.000,0.000,0.000,0.000,0.000,0.000*7C
$GPRMC,065649.120,A,3114.2966326,N,12129.1489096,E,11.33,37.62,210523,0.0,E,A,V*7A
$GPGGA,065649.120,3114.2966326,N,12129.1489096,E,1,21,1.0,2.204,M,11.083,M,-1065948032.0,0000*66
$GPESA,065649.120,+1.107,-5.721,-0.207,-0.674,+1.168,-169.205*78
$GPESD,065649.120,0.000,0.000,0.000,0.000,0.000,0.000,0.000,0.000,0.000*7E
$GPRMC,065649.231,A,3114.2962950,N,12129.1489874,E,11.30,37.58,210523,0.0,E,A,V*78
$GPGGA,065649.231,3114.2962950,N,12129.1489874,E,1,22,1.0,2.186,M,11.083,M,-1065948032.0,0000*64
$GPESA,065649.231,+1.099,-5.704,-0.196,-0.733,+1.047,-169.062*7C
$GPESD,065649.231,0.000,0.000,0.000,0.000,0.000,0.000,0.000,0.000,0.000*7D
$GPRMC,065649.401,A,3114.2957740,N,12129.1490934,E,11.27,37.50,210523,0.0,E,A,V*77
$GPGGA,065649.401,3114.2957740,N,12129.1490934,E,1,23,1.0,2.167,M,11.083,M,-1065948032.0,0000*6B
$GPESA,065649.401,+1.101,-5.688,-0.193,-0.628,+0.960,-168.725*7A
$GPESD,065649.401,0.000,0.000,0.000,0.000,0.000,0.000,0.000,0.000,0.000*78
$GPRMC,065649.503,A,3114.2954595,N,12129.1491641,E,11.27,37.37,210523,0.0,E,A,V*70
$GPGGA,065649.503,3114.2954595,N,12129.1491641,E,1,23,1.0,2.149,M,11.083,M,-1065948032.0,0000*61
$GPESA,065649.503,+1.111,-5.688,-0.196,-0.454,+0.835,-168.631*71
$GPESD,065649.503,0.000,0.000,0.000,0.000,0.000,0.000,0.000,0.000,0.000*7B
$GPRMC,065649.623,A,3114.2950900,N,12129.1492387,E,11.30,38.08,210523,0.0,E,A,V*7C
$GPGGA,065649.623,3114.2950900,N,12129.1492387,E,1,22,1.0,2.133,M,11.083,M,-1065948032.0,0000*64
$GPESA,065649.623,+1.069,-5.713,-0.200,-0.250,+0.855,-168.505*71
$GPESD,065649.623,0.000,0.000,0.000,0.000,0.000,0.000,0.000,0.000,0.000*7A
$GPRMC,065649.724,A,3114.2947789,N,12129.1493006,E,11.43,38.54,210523,0.0,E,A,V*75
$GPGGA,065649.724,3114.2947789,N,12129.1493006,E,1,22,1.0,2.114,M,11.083,M,-1065948032.0,0000*65
$GPESA,065649.724,+1.057,-5.782,-0.215,-0.325,+0.910,-168.618*7A
$GPESD,065649.724,0.000,0.000,0.000,0.000,0.000,0.000,0.000,0.000,0.000*7C
$GPRMC,065649.856,A,3114.2943608,N,12129.1493843,E,11.44,38.13,210523,0.0,E,A,V*7E
$GPGGA,065649.856,3114.2943608,N,12129.1493843,E,1,22,1.0,2.087,M,11.083,M,-1065948032.0,0000*61
$GPESA,065649.856,+1.086,-5.781,-0.214,-0.717,+1.085,-168.995*75
$GPESD,065649.856,0.000,0.000,0.000,0.000,0.000,0.000,0.000,0.000,0.000*76
$GPRMC,065650.006,A,3114.2938908,N,12129.1494816,E,11.37,37.23,210523,0.0,E,A,V*77
$GPGGA,065650.006,3114.2938908,N,12129.1494816,E,1,22,1.0,2.070,M,11.083,M,-1065948032.0,0000*68
$GPESA,065650.006,+1.123,-5.739,-0.185,-1.114,+0.861,-169.146*76
$GPESD,065650.006,0.000,0.000,0.000,0.000,0.000,0.000,0.000,0.000,0.000*73
$GPRMC,065650.114,A,3114.2935578,N,12129.1495563,E,11.27,37.79,210523,0.0,E,A,V*73
$GPGGA,065650.114,3114.2935578,N,12129.1495563,E,1,22,1.0,2.049,M,11.083,M,-1065948032.0,0000*68
$GPESA,065650.114,+1.093,-5.692,-0.212,-1.105,+0.812,-169.078*7B
$GPESD,065650.114,0.000,0.000,0.000,0.000,0.000,0.000,0.000,0.000,0.000*71
$GPRMC,065650.269,A,3114.2930722,N,12129.1496519,E,11.31,38.63,210523,0.0,E,A,V*7F
$GPGGA,065650.269,3114.2930722,N,12129.1496519,E,1,22,1.0,2.022,M,11.083,M,-1065948032.0,0000*6A
$GPESA,065650.269,+1.053,-5.719,-0.234,-0.852,+0.895,-168.842*7D
$GPESD,065650.269,0.000,0.000,0.000,0.000,0.000,0.000,0.000,0.000,0.000*78
$GPRMC,065650.427,A,3114.2925774,N,12129.1497535,E,11.54,37.71,210523,0.0,E,A,V*74
$GPGGA,065650.427,3114.2925774,N,12129.1497535,E,1,22,1.0,1.993,M,11.083,M,-1065948032.0,0000*6E
$GPESA,065650.427,+1.125,-5.828,-0.217,-0.754,+1.018,-168.656*73
$GPESD,065650.427,0.000,0.000,0.000,0.000,0.000,0.000,0.000,0.000,0.000*74
$GPRMC,065650.547,A,3114.2922005,N,12129.1498387,E,11.51,37.41,210523,0.0,E,A,V*73
$GPGGA,065650.547,3114.2922005,N,12129.1498387,E,1,22,1.0,1.972,M,11.083,M,-1065948032.0,0000*60
$GPESA,065650.547,+1.142,-5.805,-0.218,-0.905,+0.868,-168.533*71
$GPESD,065650.547,0.000,0.000,0.000,0.000,0.000,0.000,0.000,0.000,0.000*73
$GPRMC,065650.702,A,3114.2917199,N,12129.1499452,E,11.41,37.73,210523,0.0,E,A,V*7C
$GPGGA,065650.702,3114.2917199,N,12129.1499452,E,1,23,1.0,1.945,M,11.084,M,-1065948032.0,0000*6D
$GPESA,065650.702,+1.108,-5.763,-0.211,-1.037,+0.873,-168.475*7A
$GPESD,065650.702,0.000,0.000,0.000,0.000,0.000,0.000,0.000,0.000,0.000*70
$GPRMC,065650.802,A,3114.2914109,N,12129.1499999,E,11.31,38.28,210523,0.0,E,A,V*75
$GPGGA,065650.802,3114.2914109,N,12129.1499999,E,1,23,1.0,1.927,M,11.084,M,-1065948032.0,0000*66
$GPESA,065650.802,+1.067,-5.715,-0.218,-1.010,+0.972,-168.689*71
$GPESD,065650.802,0.000,0.000,0.000,0.000,0.000,0.000,0.000,0.000,0.000*7F
$GPRMC,065650.945,A,3114.2909742,N,12129.1500798,E,11.24,38.21,210523,0.0,E,A,V*71
$GPGGA,065650.945,3114.2909742,N,12129.1500798,E,1,23,1.0,1.906,M,11.084,M,-1065948032.0,0000*6C
$GPESA,065650.945,+1.068,-5.678,-0.222,-0.894,+1.075,-169.109*7B
$GPESD,065650.945,0.000,0.000,0.000,0.000,0.000,0.000,0.000,0.000,0.000*7D
$GPRMC,065651.082,A,3114.2905562,N,12129.1501510,E,11.19,38.75,210523,0.0,E,A,V*72
$GPGGA,065651.082,3114.2905562,N,12129.1501510,E,1,23,1.0,1.887,M,11.084,M,-1065948032.0,0000*68
$GPESA,065651.082,+1.026,-5.659,-0.219,-0.836,+1.161,-169.314*7B
$GPESD,065651.082,0.000,0.000,0.000,0.000,0.000,0.000,0.000,0.000,0.000*7E
$GPRMC,065651.182,A,3114.2902504,N,12129.1502166,E,11.15,38.69,210523,0.0,E,A,V*73
$GPGGA,065651.182,3114.2902504,N,12129.1502166,E,1,23,1.0,1.862,M,11.084,M,-1065948032.0,0000*63
$GPESA,065651.182,+1.038,-5.638,-0.238,-0.898,+1.153,-169.314*74
$GPESD,065651.182,0.000,0.000,0.000,0.000,0.000,0.000,0.000,0.000,0.000*7F
$GPRMC,065651.310,A,3114.2898646,N,12129.1502927,E,11.09,38.07,210523,0.0,E,A,V*75
$GPGGA,065651.310,3114.2898646,N,12129.1502927,E,1,23,1.0,1.837,M,11.084,M,-1065948032.0,0000*60
$GPESA,065651.310,+1.062,-5.603,-0.218,-1.022,+1.107,-169.301*75
$GPESD,065651.310,0.000,0.000,0.000,0.000,0.000,0.000,0.000,0.000,0.000*76
$GPRMC,065651.468,A,3114.2893874,N,12129.1503815,E,10.98,38.56,210523,0.0,E,A,V*75
$GPGGA,065651.468,3114.2893874,N,12129.1503815,E,1,24,1.0,1.816,M,11.084,M,-1065948032.0,0000*69
$GPESA,065651.468,+1.003,-5.558,-0.188,-1.124,+1.198,-169.105*7A
$GPESD,065651.468,0.000,0.000,0.000,0.000,0.000,0.000,0.000,0.000,0.000*7E
$GPRMC,065651.568,A,3114.2890896,N,12129.1504406,E,10.89,38.57,210523,0.0,E,A,V*73
$GPGGA,065651.568,3114.2890896,N,12129.1504406,E,1,24,1.0,1.800,M,11.084,M,-1065948032.0,0000*69
$GPESA,065651.568,+1.003,-5.506,-0.203,-1.089,+1.265,-169.004*77
$GPESD,065651.568,0.000,0.000,0.000,0.000,0.000,0.000,0.000,0.000,0.000*7F
$GPRMC,065651.680,A,3114.2887570,N,12129.1505068,E,10.79,38.81,210523,0.0,E,A,V*7C
$GPGGA,065651.680,3114.2887570,N,12129.1505068,E,1,24,1.0,1.779,M,11.084,M,-1065948032.0,0000*63
$GPESA,065651.680,+0.980,-5.460,-0.203,-0.906,+1.343,-168.937*72
$GPESD,065651.680,0.000,0.000,0.000,0.000,0.000,0.000,0.000,0.000,0.000*7A
$GPRMC,065651.830,A,3114.2883131,N,12129.1505921,E,10.75,37.88,210523,0.0,E,A,V*72
$GPGGA,065651.830,3114.2883131,N,12129.1505921,E,1,24,1.0,1.759,M,11.084,M,-1065948032.0,0000*65
$GPESA,065651.830,+1.036,-5.431,-0.201,-0.760,+1.375,-168.778*7A
$GPESD,065651.830,0.000,0.000,0.000,0.000,0.000,0.000,0.000,0.000,0.000*7F
$GPRMC,065651.938,A,3114.2879971,N,12129.1506572,E,10.71,38.05,210523,0.0,E,A,V*75
$GPGGA,065651.938,3114.2879971,N,12129.1506572,E,1,24,1.0,1.740,M,11.084,M,-1065948032.0,0000*64
$GPESA,065651.938,+1.024,-5.407,-0.206,-0.813,+1.323,-168.712*76
$GPESD,065651.938,0.000,0.000,0.000,0.000,0.000,0.000,0.000,0.000,0.000*76
$GPRMC,065652.038,A,3114.2877023,N,12129.1507151,E,10.65,38.42,210523,0.0,E,A,V*7D
$GPGGA,065652.038,3114.2877023,N,12129.1507151,E,1,24,1.0,1.721,M,11.084,M,-1065948032.0,0000*6D
$GPESA,065652.038,+1.000,-5.384,-0.213,-0.948,+1.287,-168.650*75
$GPESD,065652.038,0.000,0.000,0.000,0.000,0.000,0.000,0.000,0.000,0.000*7C
$GPRMC,065652.186,A,3114.2872763,N,12129.1507998,E,10.48,38.63,210523,0.0,E,A,V*7E
$GPGGA,065652.186,3114.2872763,N,12129.1507998,E,1,23,1.0,1.698,M,11.084,M,-1065948032.0,0000*66
$GPESA,065652.186,+0.947,-5.306,-0.170,-1.129,+1.264,-168.601*71
$GPESD,065652.186,0.000,0.000,0.000,0.000,0.000,0.000,0.000,0.000,0.000*78
$GPRMC,065652.306,A,3114.2869389,N,12129.1508618,E,10.32,38.56,210523,0.0,E,A,V*7D
$GPGGA,065652.306,3114.2869389,N,12129.1508618,E,1,24,1.0,1.690,M,11.084,M,-1065948032.0,0000*61
$GPESA,065652.306,+0.928,-5.227,-0.154,-1.191,+1.413,-168.623*73
$GPESD,065652.306,0.000,0.000,0.000,0.000,0.000,0.000,0.000,0.000,0.000*72
$GPRMC,065652.433,A,3114.2865823,N,12129.1509319,E,10.17,38.54,210523,0.0,E,A,V*7B
$GPGGA,065652.433,3114.2865823,N,12129.1509319,E,1,24,1.0,1.672,M,11.084,M,-1065948032.0,0000*6E
$GPESA,065652.433,+0.941,-5.141,-0.193,-1.105,+1.475,-168.610*78
$GPESD,065652.433,0.000,0.000,0.000,0.000,0.000,0.000,0.000,0.000,0.000*73
$GPRMC,065652.581,A,3114.2861739,N,12129.1510136,E,10.18,37.87,210523,0.0,E,A,V*7A
$GPGGA,065652.581,3114.2861739,N,12129.1510136,E,1,24,1.0,1.651,M,11.084,M,-1065948032.0,0000*60
$GPESA,065652.581,+0.980,-5.140,-0.188,-0.886,+1.382,-168.623*7A
$GPESD,065652.581,0.000,0.000,0.000,0.000,0.000,0.000,0.000,0.000,0.000*7B
$GPRMC,065652.729,A,3114.2857638,N,12129.1511017,E,10.19,37.76,210523,0.0,E,A,V*73
$GPGGA,065652.729,3114.2857638,N,12129.1511017,E,1,24,1.0,1.629,M,11.084,M,-1065948032.0,0000*69
$GPESA,065652.729,+0.977,-5.149,-0.171,-0.821,+1.186,-168.661*70
$GPESD,065652.729,0.000,0.000,0.000,0.000,0.000,0.000,0.000,0.000,0.000*7B
$GPRMC,065652.846,A,3114.2854390,N,12129.1511624,E,10.13,38.70,210523,0.0,E,A,V*74
$GPGGA,065652.846,3114.2854390,N,12129.1511624,E,1,24,1.0,1.614,M,11.084,M,-1065948032.0,0000*63
$GPESA,065652.846,+0.913,-5.127,-0.168,-0.886,+1.208,-168.702*78
$GPESD,065652.846,0.000,0.000,0.000,0.000,0.000,0.000,0.000,0.000,0.000*7D
$GPRMC,065652.946,A,3114.2851661,N,12129.1512133,E,10.04,38.99,210523,0.0,E,A,V*78
$GPGGA,065652.946,3114.2851661,N,12129.1512133,E,1,24,1.0,1.598,M,11.084,M,-1065948032.0,0000*69
$GPESA,065652.946,+0.895,-5.083,-0.179,-0.883,+1.391,-168.724*79
$GPESD,065652.946,0.000,0.000,0.000,0.000,0.000,0.000,0.000,0.000,0.000*7C
$GPRMC,065653.096,A,3114.2847613,N,12129.1512894,E,9.89,38.49,210523,0.0,E,A,V*4B
$GPGGA,065653.096,3114.2847613,N,12129.1512894,E,1,25,1.0,1.573,M,11.084,M,-1065948032.0,0000*6E
$GPESA,065653.096,+0.924,-4.999,-0.197,-0.919,+1.365,-168.767*7A
$GPESD,065653.096,0.000,0.000,0.000,0.000,0.000,0.000,0.000,0.000,0.000*79
$GPRMC,065653.209,A,3114.2844645,N,12129.1513505,E,9.66,38.07,210523,0.0,E,A,V*40
$GPGGA,065653.209,3114.2844645,N,12129.1513505,E,1,24,1.0,1.555,M,11.084,M,-1065948032.0,0000*6B
$GPESA,065653.209,+0.928,-4.877,-0.195,-0.993,+1.187,-168.813*71
$GPESD,065653.209,0.000,0.000,0.000,0.000,0.000,0.000,0.000,0.000,0.000*7D
$GPRMC,065653.309,A,3114.2842055,N,12129.1513941,E,9.42,38.83,210523,0.0,E,A,V*46
$GPGGA,065653.309,3114.2842055,N,12129.1513941,E,1,25,1.0,1.546,M,11.084,M,-1065948032.0,0000*64
$GPESA,065653.309,+0.856,-4.769,-0.179,-1.055,+1.136,-168.809*79
$GPESD,065653.309,0.000,0.000,0.000,0.000,0.000,0.000,0.000,0.000,0.000*7C
$GPRMC,065653.409,A,3114.2839500,N,12129.1514465,E,9.22,39.44,210523,0.0,E,A,V*48
$GPGGA,065653.409,3114.2839500,N,12129.1514465,E,1,25,1.0,1.528,M,11.084,M,-1065948032.0,0000*6E
$GPESA,065653.409,+0.799,-4.671,-0.169,-1.051,+1.113,-168.781*77
$GPESD,065653.409,0.000,0.000,0.000,0.000,0.000,0.000,0.000,0.000,0.000*7B
$GPRMC,065653.529,A,3114.2836497,N,12129.1514953,E,8.98,39.26,210523,0.0,E,A,V*47
$GPGGA,065653.529,3114.2836497,N,12129.1514953,E,1,25,1.0,1.515,M,11.084,M,-1065948032.0,0000*6B
$GPESA,065653.529,+0.792,-4.550,-0.170,-1.065,+1.185,-168.778*79
$GPESD,065653.529,0.000,0.000,0.000,0.000,0.000,0.000,0.000,0.000,0.000*78
$GPRMC,065653.649,A,3114.2833609,N,12129.1515581,E,8.71,39.11,210523,0.0,E,A,V*43
$GPGGA,065653.649,3114.2833609,N,12129.1515581,E,1,25,1.0,1.494,M,11.084,M,-1065948032.0,0000*64
$GPESA,065653.649,+0.784,-4.407,-0.178,-1.025,+1.139,-168.753*7A
$GPESD,065653.649,0.000,0.000,0.000,0.000,0.000,0.000,0.000,0.000,0.000*7D
$GPRMC,065653.762,A,3114.2830959,N,12129.1516140,E,8.51,38.56,210523,0.0,E,A,V*48
$GPGGA,065653.762,3114.2830959,N,12129.1516140,E,1,25,1.0,1.475,M,11.084,M,-1065948032.0,0000*60
$GPESA,065653.762,+0.791,-4.301,-0.170,-0.942,+1.092,-168.693*7B
$GPESD,065653.762,0.000,0.000,0.000,0.000,0.000,0.000,0.000,0.000,0.000*75
$GPRMC,065653.905,A,3114.2827736,N,12129.1516721,E,8.23,38.78,210523,0.0,E,A,V*4E
$GPGGA,065653.905,3114.2827736,N,12129.1516721,E,1,25,1.0,1.461,M,11.084,M,-1065948032.0,0000*6A
$GPESA,065653.905,+0.762,-4.160,-0.177,-0.983,+0.957,-168.618*75
$GPESD,065653.905,0.000,0.000,0.000,0.000,0.000,0.000,0.000,0.000,0.000*7A
$GPRMC,065654.055,A,3114.2824426,N,12129.1517389,E,7.86,38.92,210523,0.0,E,A,V*47
$GPGGA,065654.055,3114.2824426,N,12129.1517389,E,1,25,1.0,1.443,M,11.084,M,-1065948032.0,0000*67
$GPESA,065654.055,+0.714,-3.975,-0.157,-1.077,+0.865,-168.571*79
$GPESD,065654.055,0.000,0.000,0.000,0.000,0.000,0.000,0.000,0.000,0.000*71
$GPRMC,065654.190,A,3114.2821602,N,12129.1518041,E,7.51,38.70,210523,0.0,E,A,V*40
$GPGGA,065654.190,3114.2821602,N,12129.1518041,E,1,24,1.0,1.419,M,11.084,M,-1065948032.0,0000*68
$GPESA,065654.190,+0.691,-3.796,-0.149,-1.028,+0.836,-168.570*7C
$GPESD,065654.190,0.000,0.000,0.000,0.000,0.000,0.000,0.000,0.000,0.000*79
$GPRMC,065654.290,A,3114.2819622,N,12129.1518445,E,7.27,38.19,210523,0.0,E,A,V*44
$GPGGA,065654.290,3114.2819622,N,12129.1518445,E,1,25,1.0,1.419,M,11.084,M,-1065948032.0,0000*63
$GPESA,065654.290,+0.677,-3.677,-0.120,-1.023,+0.810,-168.601*7C
$GPESD,065654.290,0.000,0.000,0.000,0.000,0.000,0.000,0.000,0.000,0.000*7A
$GPRMC,065654.393,A,3114.2817616,N,12129.1518876,E,7.02,38.17,210523,0.0,E,A,V*4A
$GPGGA,065654.393,3114.2817616,N,12129.1518876,E,1,23,1.0,1.407,M,11.084,M,-1065948032.0,0000*6D
$GPESA,065654.393,+0.658,-3.547,-0.122,-1.031,+0.861,-168.536*73
$GPESD,065654.393,0.000,0.000,0.000,0.000,0.000,0.000,0.000,0.000,0.000*78
$GPRMC,065654.495,A,3114.2815681,N,12129.1519275,E,6.76,38.28,210523,0.0,E,A,V*41
$GPGGA,065654.495,3114.2815681,N,12129.1519275,E,1,23,1.0,1.394,M,11.084,M,-1065948032.0,0000*65
$GPESA,065654.495,+0.646,-3.413,-0.145,-1.010,+0.907,-168.472*7F
$GPESD,065654.495,0.000,0.000,0.000,0.000,0.000,0.000,0.000,0.000,0.000*79
$GPRMC,065654.615,A,3114.2813544,N,12129.1519690,E,6.49,38.41,210523,0.0,E,A,V*4B
$GPGGA,065654.615,3114.2813544,N,12129.1519690,E,1,24,1.0,1.380,M,11.084,M,-1065948032.0,0000*6E
$GPESA,065654.615,+0.631,-3.272,-0.165,-0.899,+0.849,-168.371*71
$GPESD,065654.615,0.000,0.000,0.000,0.000,0.000,0.000,0.000,0.000,0.000*73
$GPRMC,065654.718,A,3114.2811759,N,12129.1519989,E,6.32,38.82,210523,0.0,E,A,V*4F
$GPGGA,065654.718,3114.2811759,N,12129.1519989,E,1,24,1.0,1.373,M,11.084,M,-1065948032.0,0000*65
$GPESA,065654.718,+0.594,-3.191,-0.152,-0.792,+0.767,-168.276*7A
$GPESD,065654.718,0.000,0.000,0.000,0.000,0.000,0.000,0.000,0.000,0.000*7F
$GPRMC,065654.828,A,3114.2809881,N,12129.1520274,E,6.23,38.54,210523,0.0,E,A,V*48
$GPGGA,065654.828,3114.2809881,N,12129.1520274,E,1,24,1.0,1.371,M,11.084,M,-1065948032.0,0000*6B
$GPESA,065654.828,+0.572,-3.153,-0.111,-0.754,+0.733,-168.145*7F
$GPESD,065654.828,0.000,0.000,0.000,0.000,0.000,0.000,0.000,0.000,0.000*73
$GPRMC,065654.941,A,3114.2808015,N,12129.1520663,E,6.10,39.42,210523,0.0,E,A,V*46
$GPGGA,065654.941,3114.2808015,N,12129.1520663,E,1,24,1.0,1.355,M,11.084,M,-1065948032.0,0000*65
$GPESA,065654.941,+0.541,-3.087,-0.131,-0.742,+0.694,-168.154*70
$GPESD,065654.941,0.000,0.000,0.000,0.000,0.000,0.000,0.000,0.000,0.000*7D
$GPRMC,065655.056,A,3114.2806166,N,12129.1520986,E,6.02,38.85,210523,0.0,E,A,V*4E
$GPGGA,065655.056,3114.2806166,N,12129.1520986,E,1,24,1.0,1.350,M,11.084,M,-1065948032.0,0000*61
$GPESA,065655.056,+0.544,-3.046,-0.111,-0.713,+0.740,-168.109*70
$GPESD,065655.056,0.000,0.000,0.000,0.000,0.000,0.000,0.000,0.000,0.000*73
$GPRMC,065655.176,A,3114.2804238,N,12129.1521393,E,5.92,39.44,210523,0.0,E,A,V*4E
$GPGGA,065655.176,3114.2804238,N,12129.1521393,E,1,24,1.0,1.334,M,11.084,M,-1065948032.0,0000*65
$GPESA,065655.176,+0.520,-2.997,-0.120,-0.677,+0.818,-168.059*72
$GPESD,065655.176,0.000,0.000,0.000,0.000,0.000,0.000,0.000,0.000,0.000*70
$GPRMC,065655.296,A,3114.2802334,N,12129.1521742,E,5.85,38.77,210523,0.0,E,A,V*47
$GPGGA,065655.296,3114.2802334,N,12129.1521742,E,1,24,1.0,1.329,M,11.084,M,-1065948032.0,0000*67
$GPESA,065655.296,+0.540,-2.960,-0.122,-0.617,+0.900,-168.058*7C
$GPESD,065655.296,0.000,0.000,0.000,0.000,0.000,0.000,0.000,0.000,0.000*7D
$GPRMC,065655.434,A,3114.2800161,N,12129.1522193,E,5.83,37.47,210523,0.0,E,A,V*4A
$GPGGA,065655.434,3114.2800161,N,12129.1522193,E,1,24,1.0,1.318,M,11.084,M,-1065948032.0,0000*62
$GPESA,065655.434,+0.582,-2.938,-0.119,-0.573,+0.945,-167.973*76
$GPESD,065655.434,0.000,0.000,0.000,0.000,0.000,0.000,0.000,0.000,0.000*73
$GPRMC,065655.564,A,3114.2798117,N,12129.1522767,E,5.81,35.97,210523,0.0,E,A,V*41
$GPGGA,065655.564,3114.2798117,N,12129.1522767,E,1,24,1.0,1.297,M,11.084,M,-1065948032.0,0000*62
$GPESA,065655.564,+0.644,-2.915,-0.143,-0.604,+0.775,-167.964*73
$GPESD,065655.564,0.000,0.000,0.000,0.000,0.000,0.000,0.000,0.000,0.000*77
$GPRMC,065655.686,A,3114.2796164,N,12129.1523238,E,5.74,36.59,210523,0.0,E,A,V*41
$GPGGA,065655.686,3114.2796164,N,12129.1523238,E,1,24,1.0,1.284,M,11.084,M,-1065948032.0,0000*6B
$GPESA,065655.686,+0.621,-2.882,-0.150,-0.664,+0.647,-168.007*77
$GPESD,065655.686,0.000,0.000,0.000,0.000,0.000,0.000,0.000,0.000,0.000*78
$GPRMC,065655.786,A,3114.2794621,N,12129.1523601,E,5.71,36.94,210523,0.0,E,A,V*4E
$GPGGA,065655.786,3114.2794621,N,12129.1523601,E,1,23,1.0,1.277,M,11.084,M,-1065948032.0,0000*6B
$GPESA,065655.786,+0.595,-2.874,-0.130,-0.647,+0.621,-168.017*75
$GPESD,065655.786,0.000,0.000,0.000,0.000,0.000,0.000,0.000,0.000,0.000*79
$GPRMC,065655.937,A,3114.2792373,N,12129.1524140,E,5.62,35.93,210523,0.0,E,A,V*4D
$GPGGA,065655.937,3114.2792373,N,12129.1524140,E,1,23,1.0,1.266,M,11.084,M,-1065948032.0,0000*6E
$GPESA,065655.937,+0.604,-2.826,-0.103,-0.646,+0.738,-168.041*76
$GPESD,065655.937,0.000,0.000,0.000,0.000,0.000,0.000,0.000,0.000,0.000*7D
$GPRMC,065656.044,A,3114.2790717,N,12129.1524538,E,5.63,35.90,210523,0.0,E,A,V*4E
$GPGGA,065656.044,3114.2790717,N,12129.1524538,E,1,22,1.0,1.262,M,11.084,M,-1065948032.0,0000*6A
$GPESA,065656.044,+0.596,-2.832,-0.085,-0.673,+0.824,-167.984*71
$GPESD,065656.044,0.000,0.000,0.000,0.000,0.000,0.000,0.000,0.000,0.000*73
$GPRMC,065656.164,A,3114.2788883,N,12129.1525004,E,5.62,34.70,210523,0.0,E,A,V*43
$GPGGA,065656.164,3114.2788883,N,12129.1525004,E,1,22,1.0,1.250,M,11.084,M,-1065948032.0,0000*68
$GPESA,065656.164,+0.645,-2.817,-0.105,-0.711,+0.921,-167.916*7B
$GPESD,065656.164,0.000,0.000,0.000,0.000,0.000,0.000,0.000,0.000,0.000*70
$GPRMC,065656.264,A,3114.2787377,N,12129.1525389,E,5.61,34.33,210523,0.0,E,A,V*4D
$GPGGA,065656.264,3114.2787377,N,12129.1525389,E,1,22,1.0,1.238,M,11.084,M,-1065948032.0,0000*6C
$GPESA,065656.264,+0.661,-2.809,-0.115,-0.764,+0.928,-167.840*79
