$GPRMC,065616.884,A,3114.3481192,N,12129.1416326,E,8.41,42.91,210523,0.0,E,A,V*42
$GPGGA,065616.884,3114.3481192,N,12129.1416326,E,1,21,1.0,3.982,M,11.082,M,202156272.0,0000*76
$GPESA,065616.884,+0.561,-4.289,-0.180,-0.553,+1.395,-173.373*77
$GPESD,065616.884,0.000,0.000,0.000,0.000,0.000,0.000,0.000,0.000,0.000*73
$GPRMC,065616.987,A,3114.3479114,N,12129.1416528,E,8.55,43.62,210523,0.0,E,A,V*49
$GPGGA,065616.987,3114.3479114,N,12129.1416528,E,1,21,1.0,3.721,M,11.082,M,202156272.0,0000*72
$GPESA,065616.987,+0.569,-4.353,-0.237,-0.748,+1.587,-173.601*79
$GPESD,065616.987,0.000,0.000,0.000,0.000,0.000,0.000,0.000,0.000,0.000*71
$GPRMC,065617.087,A,3114.3477009,N,12129.1416708,E,8.58,45.19,210523,0.0,E,A,V*45
$GPGGA,065617.087,3114.3477009,N,12129.1416708,E,1,21,1.0,3.472,M,11.082,M,202156272.0,0000*7C
$GPESA,065617.087,+0.464,-4.385,-0.215,-0.975,+1.512,-173.649*76
$GPESD,065617.087,0.000,0.000,0.000,0.000,0.000,0.000,0.000,0.000,0.000*79
$GPRMC,065617.189,A,3114.3474574,N,12129.1417012,E,8.62,45.17,210523,0.0,E,A,V*4C
$GPGGA,065617.189,3114.3474574,N,12129.1417012,E,1,21,1.0,3.450,M,11.082,M,202156272.0,0000*72
$GPESA,065617.189,+0.474,-4.404,-0.224,-1.038,+1.454,-173.691*73
$GPESD,065617.189,0.000,0.000,0.000,0.000,0.000,0.000,0.000,0.000,0.000*76
$GPRMC,065617.309,A,3114.3472341,N,12129.1417482,E,8.68,45.74,210523,0.0,E,A,V*42
$GPGGA,065617.309,3114.3472341,N,12129.1417482,E,1,22,1.0,3.024,M,11.082,M,202156272.0,0000*77
$GPESA,065617.309,+0.416,-4.440,-0.191,-1.154,+1.220,-173.574*76
$GPESD,065617.309,0.000,0.000,0.000,0.000,0.000,0.000,0.000,0.000,0.000*7C
$GPRMC,065617.430,A,3114.3469703,N,12129.1417845,E,8.82,44.56,210523,0.0,E,A,V*45
$GPGGA,065617.430,3114.3469703,N,12129.1417845,E,1,23,1.0,2.815,M,11.082,M,202156272.0,0000*7F
$GPESA,065617.430,+0.471,-4.510,-0.161,-1.358,+1.441,-173.656*7D
$GPESD,065617.430,0.000,0.000,0.000,0.000,0.000,0.000,0.000,0.000,0.000*71
$GPRMC,065617.555,A,3114.3466983,N,12129.1418212,E,8.50,44.38,210523,0.0,E,A,V*4E
$GPGGA,065617.555,3114.3466983,N,12129.1418212,E,1,23,1.0,2.611,M,11.082,M,202156272.0,0000*79
$GPESA,065617.555,+0.488,-4.339,-0.188,-1.110,+1.723,-173.710*79
$GPESD,065617.555,0.000,0.000,0.000,0.000,0.000,0.000,0.000,0.000,0.000*73
$GPRMC,065617.655,A,3114.3464947,N,12129.1418700,E,8.53,41.32,210523,0.0,E,A,V*4D
$GPGGA,065617.655,3114.3464947,N,12129.1418700,E,1,23,1.0,2.409,M,11.082,M,202156272.0,0000*7D
$GPESA,065617.655,+0.646,-4.336,-0.167,-0.701,+1.221,-173.702*77
$GPESD,065617.655,0.000,0.000,0.000,0.000,0.000,0.000,0.000,0.000,0.000*70
$GPRMC,065617.790,A,3114.3462123,N,12129.1419298,E,8.77,42.67,210523,0.0,E,A,V*49
$GPGGA,065617.790,3114.3462123,N,12129.1419298,E,1,20,1.0,2.038,M,11.082,M,202156272.0,0000*79
$GPESA,065617.790,+0.612,-4.463,-0.207,-0.807,+1.176,-173.798*77
$GPESD,065617.790,0.000,0.000,0.000,0.000,0.000,0.000,0.000,0.000,0.000*78
$GPRMC,065617.930,A,3114.3458817,N,12129.1419704,E,8.92,46.19,210523,0.0,E,A,V*4C
$GPGGA,065617.930,3114.3458817,N,12129.1419704,E,1,21,1.0,1.863,M,11.082,M,202156272.0,0000*7E
$GPESA,065617.930,+0.469,-4.555,-0.284,-0.614,+1.311,-173.787*73
$GPESD,065617.930,0.000,0.000,0.000,0.000,0.000,0.000,0.000,0.000,0.000*7C
$GPRMC,065618.030,A,3114.3456494,N,12129.1420038,E,9.05,45.17,210523,0.0,E,A,V*43
$GPGGA,065618.030,3114.3456494,N,12129.1420038,E,1,21,1.0,1.716,M,11.082,M,202156272.0,0000*7E
$GPESA,065618.030,+0.507,-4.622,-0.248,-0.759,+1.325,-173.742*79
$GPESD,065618.030,0.000,0.000,0.000,0.000,0.000,0.000,0.000,0.000,0.000*7A
$GPRMC,065618.158,A,3114.3453442,N,12129.1420339,E,9.09,46.95,210523,0.0,E,A,V*45
$GPGGA,065618.158,3114.3453442,N,12129.1420339,E,1,21,1.0,1.580,M,11.082,M,202156272.0,0000*70
$GPESA,065618.158,+0.446,-4.646,-0.308,-0.950,+1.481,-173.740*79
$GPESD,065618.158,0.000,0.000,0.000,0.000,0.000,0.000,0.000,0.000,0.000*75
$GPRMC,065618.335,A,3114.3449268,N,12129.1421180,E,9.00,46.09,210523,0.0,E,A,V*44
$GPGGA,065618.335,3114.3449268,N,12129.1421180,E,1,22,1.0,1.425,M,11.082,M,202156272.0,0000*70
$GPESA,065618.335,+0.506,-4.591,-0.322,-1.032,+1.309,-173.754*7A
$GPESD,065618.335,0.000,0.000,0.000,0.000,0.000,0.000,0.000,0.000,0.000*7C
$GPRMC,065618.445,A,3114.3446803,N,12129.1421795,E,9.02,45.05,210523,0.0,E,A,V*43
$GPGGA,065618.445,3114.3446803,N,12129.1421795,E,1,22,1.0,1.335,M,11.082,M,202156272.0,0000*7C
$GPESA,065618.445,+0.558,-4.596,-0.307,-0.989,+1.254,-173.785*7C
$GPESD,065618.445,0.000,0.000,0.000,0.000,0.000,0.000,0.000,0.000,0.000*7C
$GPRMC,065618.573,A,3114.3444079,N,12129.1423171,E,9.12,45.42,210523,0.0,E,A,V*4C
$GPGGA,065618.573,3114.3444079,N,12129.1423171,E,1,21,1.0,1.265,M,11.082,M,202156272.0,0000*76
$GPESA,065618.573,+0.559,-4.645,-0.334,-0.922,+1.050,-173.818*78
$GPESD,065618.573,0.000,0.000,0.000,0.000,0.000,0.000,0.000,0.000,0.000*78
$GPRMC,065618.721,A,3114.3440441,N,12129.1424058,E,9.23,45.34,210523,0.0,E,A,V*4C
$GPGGA,065618.721,3114.3440441,N,12129.1424058,E,1,21,1.0,1.240,M,11.082,M,202156272.0,0000*72
$GPESA,065618.721,+0.575,-4.702,-0.343,-0.978,+0.939,-173.887*7F
$GPESD,065618.721,0.000,0.000,0.000,0.000,0.000,0.000,0.000,0.000,0.000*7D
$GPRMC,065618.851,A,3114.3437385,N,12129.1425230,E,9.32,43.22,210523,0.0,E,A,V*47
$GPGGA,065618.851,3114.3437385,N,12129.1425230,E,1,22,1.0,1.308,M,11.082,M,202156272.0,0000*76
$GPESA,065618.851,+0.672,-4.738,-0.298,-0.943,+0.901,-173.805*74
$GPESD,065618.851,0.000,0.000,0.000,0.000,0.000,0.000,0.000,0.000,0.000*75
$GPRMC,065618.968,A,3114.3434346,N,12129.1425739,E,9.46,43.00,210523,0.0,E,A,V*4F
$GPGGA,065618.968,3114.3434346,N,12129.1425739,E,1,20,1.0,1.270,M,11.082,M,202156272.0,0000*71
$GPESA,065618.968,+0.733,-4.799,-0.355,-1.029,+0.835,-173.816*70
$GPESD,065618.968,0.000,0.000,0.000,0.000,0.000,0.000,0.000,0.000,0.000*7E
$GPRMC,065619.131,A,3114.3430093,N,12129.1426432,E,9.50,43.70,210523,0.0,E,A,V*4E
$GPGGA,065619.131,3114.3430093,N,12129.1426432,E,1,19,1.0,1.306,M,11.082,M,202156272.0,0000*7A
$GPESA,065619.131,+0.707,-4.824,-0.373,-1.066,+0.397,-173.744*7F
$GPESD,065619.131,0.000,0.000,0.000,0.000,0.000,0.000,0.000,0.000,0.000*7B
$GPRMC,065619.271,A,3114.3426477,N,12129.1426981,E,9.51,44.47,210523,0.0,E,A,V*47
$GPGGA,065619.271,3114.3426477,N,12129.1426981,E,1,22,1.0,1.370,M,11.082,M,202156272.0,0000*78
$GPESA,065619.271,+0.652,-4.837,-0.362,-0.998,+0.640,-173.737*79
$GPESD,065619.271,0.000,0.000,0.000,0.000,0.000,0.000,0.000,0.000,0.000*7C
$GPRMC,065619.401,A,3114.3423058,N,12129.1427535,E,9.56,43.98,210523,0.0,E,A,V*4A
$GPGGA,065619.401,3114.3423058,N,12129.1427535,E,1,22,1.0,1.385,M,11.082,M,202156272.0,0000*7D
$GPESA,065619.401,+0.662,-4.860,-0.331,-1.012,+0.775,-173.737*72
$GPESD,065619.401,0.000,0.000,0.000,0.000,0.000,0.000,0.000,0.000,0.000*7D
$GPRMC,065619.501,A,3114.3420427,N,12129.1428082,E,9.58,43.27,210523,0.0,E,A,V*48
$GPGGA,065619.501,3114.3420427,N,12129.1428082,E,1,22,1.0,1.415,M,11.082,M,202156272.0,0000*7B
$GPESA,065619.501,+0.743,-4.857,-0.384,-0.941,+0.672,-173.679*78
$GPESD,065619.501,0.000,0.000,0.000,0.000,0.000,0.000,0.000,0.000,0.000*7C
$GPRMC,065619.644,A,3114.3416641,N,12129.1428844,E,9.75,41.46,210523,0.0,E,A,V*45
$GPGGA,065619.644,3114.3416641,N,12129.1428844,E,1,21,1.0,1.438,M,11.082,M,202156272.0,0000*70
$GPESA,065619.644,+0.823,-4.938,-0.331,-0.863,+0.244,-173.681*72
$GPESD,065619.644,0.000,0.000,0.000,0.000,0.000,0.000,0.000,0.000,0.000*7E
$GPRMC,065619.764,A,3114.3413418,N,12129.1429371,E,9.75,45.28,210523,0.0,E,A,V*4D
$GPGGA,065619.764,3114.3413418,N,12129.1429371,E,1,21,1.0,1.472,M,11.082,M,202156272.0,0000*7A
$GPESA,065619.764,+0.611,-4.963,-0.362,-0.951,+0.107,-173.561*7F
$GPESD,065619.764,0.000,0.000,0.000,0.000,0.000,0.000,0.000,0.000,0.000*7D
$GPRMC,065619.892,A,3114.3410345,N,12129.1430935,E,9.72,43.75,210523,0.0,E,A,V*4C
$GPGGA,065619.892,3114.3410345,N,12129.1430935,E,1,22,1.0,1.685,M,11.082,M,202156272.0,0000*7B
$GPESA,065619.892,+0.695,-4.940,-0.348,-1.018,+0.519,-173.404*70
$GPESD,065619.892,0.000,0.000,0.000,0.000,0.000,0.000,0.000,0.000,0.000*7B
$GPRMC,065620.029,A,3114.3406612,N,12129.1431705,E,9.67,43.82,210523,0.0,E,A,V*4E
$GPGGA,065620.029,3114.3406612,N,12129.1431705,E,1,21,1.0,1.728,M,11.082,M,202156272.0,0000*70
$GPESA,065620.029,+0.721,-4.905,-0.393,-0.995,+0.403,-173.354*7E
$GPESD,065620.029,0.000,0.000,0.000,0.000,0.000,0.000,0.000,0.000,0.000*79
$GPRMC,065620.172,A,3114.3402767,N,12129.1432368,E,9.69,42.80,210523,0.0,E,A,V*47
$GPGGA,065620.172,3114.3402767,N,12129.1432368,E,1,21,1.0,1.757,M,11.082,M,202156272.0,0000*7C
$GPESA,065620.172,+0.777,-4.910,-0.384,-1.003,+0.281,-173.276*7A
$GPESD,065620.172,0.000,0.000,0.000,0.000,0.000,0.000,0.000,0.000,0.000*76
$GPRMC,065620.275,A,3114.3399981,N,12129.1432646,E,9.67,43.14,210523,0.0,E,A,V*4B
$GPGGA,065620.275,3114.3399981,N,12129.1432646,E,1,21,1.0,1.792,M,11.082,M,202156272.0,0000*7B
$GPESA,065620.275,+0.752,-4.903,-0.379,-0.937,+0.312,-173.268*72
$GPESD,065620.275,0.000,0.000,0.000,0.000,0.000,0.000,0.000,0.000,0.000*72
$GPRMC,065620.397,A,3114.3396695,N,12129.1432966,E,9.63,42.75,210523,0.0,E,A,V*4C
$GPGGA,065620.397,3114.3396695,N,12129.1432966,E,1,21,1.0,1.846,M,11.082,M,202156272.0,0000*78
$GPESA,065620.397,+0.755,-4.885,-0.352,-0.939,+0.298,-173.165*7D
$GPESD,065620.397,0.000,0.000,0.000,0.000,0.000,0.000,0.000,0.000,0.000*7F
$GPRMC,065620.525,A,3114.3393456,N,12129.1433570,E,9.60,42.81,210523,0.0,E,A,V*49
$GPGGA,065620.525,3114.3393456,N,12129.1433570,E,1,22,1.0,1.842,M,11.082,M,202156272.0,0000*72
$GPESA,065620.525,+0.752,-4.870,-0.356,-0.949,+0.326,-173.047*79
$GPESD,065620.525,0.000,0.000,0.000,0.000,0.000,0.000,0.000,0.000,0.000*70
$GPRMC,065620.685,A,3114.3389232,N,12129.1434154,E,9.54,41.95,210523,0.0,E,A,V*4B
$GPGGA,065620.685,3114.3389232,N,12129.1434154,E,1,23,1.0,1.866,M,11.082,M,202156272.0,0000*76
$GPESA,065620.685,+0.777,-4.833,-0.323,-1.025,+0.345,-172.900*7E
$GPESD,065620.685,0.000,0.000,0.000,0.000,0.000,0.000,0.000,0.000,0.000*79
$GPRMC,065620.788,A,3114.3386546,N,12129.1434429,E,9.45,41.32,210523,0.0,E,A,V*4E
$GPGGA,065620.788,3114.3386546,N,12129.1434429,E,1,23,1.0,1.865,M,11.082,M,202156272.0,0000*7D
$GPESA,065620.788,+0.806,-4.786,-0.320,-1.094,+0.303,-172.827*75
$GPESD,065620.788,0.000,0.000,0.000,0.000,0.000,0.000,0.000,0.000,0.000*75
$GPRMC,065620.920,A,3114.3383166,N,12129.1434817,E,9.24,41.68,210523,0.0,E,A,V*48
$GPGGA,065620.920,3114.3383166,N,12129.1434817,E,1,23,1.0,1.844,M,11.082,M,202156272.0,0000*70
$GPESA,065620.920,+0.773,-4.678,-0.321,-1.190,+0.349,-172.750*71
$GPESD,065620.920,0.000,0.000,0.000,0.000,0.000,0.000,0.000,0.000,0.000*79
$GPRMC,065621.020,A,3114.3380658,N,12129.1435307,E,9.05,41.59,210523,0.0,E,A,V*43
$GPGGA,065621.020,3114.3380658,N,12129.1435307,E,1,23,1.0,1.810,M,11.082,M,202156272.0,0000*7B
$GPESA,065621.020,+0.784,-4.574,-0.346,-1.259,+0.343,-172.711*76
$GPESD,065621.020,0.000,0.000,0.000,0.000,0.000,0.000,0.000,0.000,0.000*71
$GPRMC,065621.120,A,3114.3378217,N,12129.1435501,E,8.84,41.36,210523,0.0,E,A,V*4B
$GPGGA,065621.120,3114.3378217,N,12129.1435501,E,1,23,1.0,1.792,M,11.082,M,202156272.0,0000*77
$GPESA,065621.120,+0.778,-4.470,-0.338,-1.313,+0.388,-172.677*71
$GPESD,065621.120,0.000,0.000,0.000,0.000,0.000,0.000,0.000,0.000,0.000*70
$GPRMC,065621.225,A,3114.3375686,N,12129.1435492,E,8.63,40.70,210523,0.0,E,A,V*4D
$GPGGA,065621.225,3114.3375686,N,12129.1435492,E,1,23,1.0,1.781,M,11.082,M,202156272.0,0000*79
$GPESA,065621.225,+0.780,-4.360,-0.310,-1.357,+0.371,-172.586*77
$GPESD,065621.225,0.000,0.000,0.000,0.000,0.000,0.000,0.000,0.000,0.000*76
$GPRMC,065621.326,A,3114.3373367,N,12129.1435687,E,8.45,40.48,210523,0.0,E,A,V*4A
$GPGGA,065621.326,3114.3373367,N,12129.1435687,E,1,24,1.0,1.762,M,11.082,M,202156272.0,0000*7B
$GPESA,065621.326,+0.770,-4.268,-0.297,-1.376,+0.347,-172.538*7E
$GPESD,065621.326,0.000,0.000,0.000,0.000,0.000,0.000,0.000,0.000,0.000*74
$GPRMC,065621.426,A,3114.3371132,N,12129.1435911,E,8.22,40.72,210523,0.0,E,A,V*45
$GPGGA,065621.426,3114.3371132,N,12129.1435911,E,1,24,1.0,1.741,M,11.082,M,202156272.0,0000*7D
$GPESA,065621.426,+0.741,-4.155,-0.294,-1.391,+0.308,-172.476*7C
$GPESD,065621.426,0.000,0.000,0.000,0.000,0.000,0.000,0.000,0.000,0.000*73
$GPRMC,065621.526,A,3114.3368975,N,12129.1436113,E,8.00,40.92,210523,0.0,E,A,V*40
$GPGGA,065621.526,3114.3368975,N,12129.1436113,E,1,24,1.0,1.721,M,11.082,M,202156272.0,0000*70
$GPESA,065621.526,+0.712,-4.045,-0.287,-1.398,+0.383,-172.387*7A
$GPESD,065621.526,0.000,0.000,0.000,0.000,0.000,0.000,0.000,0.000,0.000*72
$GPRMC,065621.656,A,3114.3366189,N,12129.1436461,E,7.74,40.37,210523,0.0,E,A,V*42
$GPGGA,065621.656,3114.3366189,N,12129.1436461,E,1,24,1.0,1.696,M,11.082,M,202156272.0,0000*7C
$GPESA,065621.656,+0.714,-3.906,-0.277,-1.365,+0.456,-172.306*7A
$GPESD,065621.656,0.000,0.000,0.000,0.000,0.000,0.000,0.000,0.000,0.000*76
$GPRMC,065621.783,A,3114.3367624,N,12129.1436099,E,6.39,39.38,210523,0.0,E,A,V*40
$GPGGA,065621.783,3114.3367624,N,12129.1436099,E,1,24,1.0,1.783,M,11.082,M,202156272.0,0000*72
$GPESA,065621.783,+0.637,-3.218,-0.245,-0.080,+0.549,-172.165*77
$GPESD,065621.783,0.000,0.000,0.000,0.000,0.000,0.000,0.000,0.000,0.000*7F
$GPRMC,065621.896,A,3114.3367542,N,12129.1436115,E,5.64,38.53,210523,0.0,E,A,V*4A
$GPGGA,065621.896,3114.3367542,N,12129.1436115,E,1,24,1.0,1.804,M,11.082,M,202156272.0,0000*7F
$GPESA,065621.896,+0.605,-2.825,-0.243,+0.534,+0.493,-172.077*76
$GPESD,065621.896,0.000,0.000,0.000,0.000,0.000,0.000,0.000,0.000,0.000*74
$GPRMC,065622.024,A,3114.3367254,N,12129.1436131,E,4.87,37.98,210523,0.0,E,A,V*4A
$GPGGA,065622.024,3114.3367254,N,12129.1436131,E,1,25,1.0,1.818,M,11.082,M,202156272.0,0000*77
$GPESA,065622.024,+0.561,-2.428,-0.251,+1.097,+0.489,-171.943*7C
$GPESD,065622.024,0.000,0.000,0.000,0.000,0.000,0.000,0.000,0.000,0.000*76
$GPRMC,065622.196,A,3114.3366751,N,12129.1436266,E,3.93,38.17,210523,0.0,E,A,V*48
$GPGGA,065622.196,3114.3366751,N,12129.1436266,E,1,25,1.0,1.814,M,11.082,M,202156272.0,0000*73
$GPESA,065622.196,+0.481,-1.945,-0.257,+1.801,+0.541,-171.753*75
$GPESD,065622.196,0.000,0.000,0.000,0.000,0.000,0.000,0.000,0.000,0.000*7E
$GPRMC,065622.296,A,3114.3369096,N,12129.1435683,E,2.69,35.11,210523,0.0,E,A,V*4B
$GPGGA,065622.296,3114.3369096,N,12129.1435683,E,1,24,1.0,1.883,M,11.082,M,202156272.0,0000*70
$GPESA,065622.296,+0.400,-1.303,-0.236,+3.084,+0.635,-171.535*75
$GPESD,065622.296,0.000,0.000,0.000,0.000,0.000,0.000,0.000,0.000,0.000*7D
$GPRMC,065622.404,A,3114.3369959,N,12129.1435506,E,1.93,35.11,210523,0.0,E,A,V*44
$GPGGA,065622.404,3114.3369959,N,12129.1435506,E,1,23,1.0,1.913,M,11.082,M,202156272.0,0000*76
$GPESA,065622.404,+0.373,-0.886,-0.237,+3.757,+0.662,-171.387*79
$GPESD,065622.404,0.000,0.000,0.000,0.000,0.000,0.000,0.000,0.000,0.000*70
$GPRMC,065622.524,A,3114.3370917,N,12129.1435316,E,1.19,35.11,210523,0.0,E,A,V*40
$GPGGA,065622.524,3114.3370917,N,12129.1435316,E,1,23,1.0,1.955,M,11.082,M,202156272.0,0000*72
$GPESA,065622.524,+0.319,-0.465,-0.236,+4.426,+0.642,-171.220*7A
$GPESD,065622.524,0.000,0.000,0.000,0.000,0.000,0.000,0.000,0.000,0.000*73
$GPRMC,065622.629,A,3114.3372088,N,12129.1434997,E,0.66,35.11,210523,0.0,E,A,V*48
$GPGGA,065622.629,3114.3372088,N,12129.1434997,E,1,24,1.0,2.027,M,11.082,M,202156272.0,0000*7B
$GPESA,065622.629,+0.244,-0.066,-0.227,+5.061,+0.659,-170.974*7D
$GPESD,065622.629,0.000,0.000,0.000,0.000,0.000,0.000,0.000,0.000,0.000*7D
$GPRMC,065622.729,A,3114.3373229,N,12129.1434478,E,0.76,35.11,210523,0.0,E,A,V*4C
$GPGGA,065622.729,3114.3373229,N,12129.1434478,E,1,24,1.0,2.140,M,11.082,M,202156272.0,0000*7E
$GPESA,065622.729,+0.124,+0.315,-0.198,+5.630,+0.744,-170.629*77
$GPESD,065622.729,0.000,0.000,0.000,0.000,0.000,0.000,0.000,0.000,0.000*7C
$GPRMC,065622.837,A,3114.3373512,N,12129.1434044,E,1.21,35.11,210523,0.0,E,A,V*4B
$GPGGA,065622.837,3114.3373512,N,12129.1434044,E,1,24,1.0,2.265,M,11.082,M,202156272.0,0000*7E
$GPESA,065622.837,+0.002,+0.604,-0.151,+5.846,+0.879,-170.251*77
$GPESD,065622.837,0.000,0.000,0.000,0.000,0.000,0.000,0.000,0.000,0.000*7C
$GPRMC,065622.947,A,3114.3373016,N,12129.1434019,E,1.55,35.11,210523,0.0,E,A,V*47
$GPGGA,065622.947,3114.3373016,N,12129.1434019,E,1,24,1.0,2.329,M,11.082,M,202156272.0,0000*78
$GPESA,065622.947,-0.055,+0.785,-0.140,+5.671,+1.008,-170.123*7E
$GPESD,065622.947,0.000,0.000,0.000,0.000,0.000,0.000,0.000,0.000,0.000*7A
$GPRMC,065623.047,A,3114.3373267,N,12129.1434081,E,2.05,218.08,210523,0.0,E,A,V*79
$GPGGA,065623.047,3114.3373267,N,12129.1434081,E,1,24,1.0,2.329,M,11.082,M,202156272.0,0000*75
$GPESA,065623.047,-0.066,+1.042,-0.168,+5.777,+1.003,-170.184*70
$GPESD,065623.047,0.000,0.000,0.000,0.000,0.000,0.000,0.000,0.000,0.000*72
$GPRMC,065623.147,A,3114.3373561,N,12129.1434093,E,2.52,218.95,210523,0.0,E,A,V*7C
$GPGGA,065623.147,3114.3373561,N,12129.1434093,E,1,24,1.0,2.313,M,11.082,M,202156272.0,0000*7F
$GPESA,065623.147,-0.070,+1.279,-0.196,+5.896,+0.972,-170.208*74
$GPESD,065623.147,0.000,0.000,0.000,0.000,0.000,0.000,0.000,0.000,0.000*73
$GPRMC,065623.272,A,3114.3373723,N,12129.1434063,E,3.07,219.08,210523,0.0,E,A,V*76
$GPGGA,065623.272,3114.3373723,N,12129.1434063,E,1,24,1.0,2.278,M,11.082,M,202156272.0,0000*7D
$GPESA,065623.272,-0.102,+1.562,-0.210,+6.015,+0.902,-170.303*78
$GPESD,065623.272,0.000,0.000,0.000,0.000,0.000,0.000,0.000,0.000,0.000*76
$GPRMC,065623.422,A,3114.3375136,N,12129.1433949,E,3.77,218.63,210523,0.0,E,A,V*7C
$GPGGA,065623.422,3114.3375136,N,12129.1433949,E,1,24,1.0,2.244,M,11.082,M,202156272.0,0000*73
$GPESA,065623.422,-0.143,+1.917,-0.250,+6.206,+0.889,-170.229*7F
$GPESD,065623.422,0.000,0.000,0.000,0.000,0.000,0.000,0.000,0.000,0.000*75
$GPRMC,065623.545,A,3114.3375626,N,12129.1433888,E,4.24,219.37,210523,0.0,E,A,V*77
$GPGGA,065623.545,3114.3375626,N,12129.1433888,E,1,24,1.0,2.187,M,11.082,M,202156272.0,0000*75
$GPESA,065623.545,-0.143,+2.160,-0.271,+6.343,+0.808,-170.363*71
$GPESD,065623.545,0.000,0.000,0.000,0.000,0.000,0.000,0.000,0.000,0.000*75
$GPRMC,065623.665,A,3114.3376581,N,12129.1434347,E,4.64,219.80,210523,0.0,E,A,V*7C
$GPGGA,065623.665,3114.3376581,N,12129.1434347,E,1,25,1.0,2.195,M,11.082,M,202156272.0,0000*74
$GPESA,065623.665,-0.149,+2.366,-0.286,+6.507,+0.777,-170.393*78
$GPESD,065623.665,0.000,0.000,0.000,0.000,0.000,0.000,0.000,0.000,0.000*74
$GPRMC,065640.958,A,3114.3202359,N,12129.1450895,E,8.02,43.99,210523,0.0,E,A,V*46
$GPGGA,065640.958,3114.3202359,N,12129.1450895,E,1,21,1.0,2.653,M,11.083,M,0.0,0000*7A
$GPESA,065640.958,+0.444,-4.100,-0.126,-0.775,+1.689,-173.352*71
$GPESD,065640.958,0.000,0.000,0.000,0.000,0.000,0.000,0.000,0.000,0.000*70
$GPRMC,065641.058,A,3114.3200240,N,12129.1451370,E,8.17,44.09,210523,0.0,E,A,V*4E
$GPGGA,065641.058,3114.3200240,N,12129.1451370,E,1,21,1.0,2.662,M,11.083,M,0.0,0000*7A
$GPESA,065641.058,+0.426,-4.181,-0.100,-0.543,+1.926,-173.475*7F
$GPESD,065641.058,0.000,0.000,0.000,0.000,0.000,0.000,0.000,0.000,0.000*78
$GPRMC,065641.158,A,3114.3197951,N,12129.1451654,E,8.35,44.09,210523,0.0,E,A,V*4A
$GPGGA,065641.158,3114.3197951,N,12129.1451654,E,1,21,1.0,2.650,M,11.083,M,0.0,0000*7F
$GPESA,065641.158,+0.456,-4.271,-0.129,-0.566,+1.903,-173.559*71
$GPESD,065641.158,0.000,0.000,0.000,0.000,0.000,0.000,0.000,0.000,0.000*79
$GPRMC,065641.278,A,3114.3195264,N,12129.1452306,E,8.53,43.49,210523,0.0,E,A,V*46
$GPGGA,065641.278,3114.3195264,N,12129.1452306,E,1,21,1.0,2.651,M,11.083,M,0.0,0000*71
$GPESA,065641.278,+0.495,-4.356,-0.126,-0.449,+1.766,-173.731*79
$GPESD,065641.278,0.000,0.000,0.000,0.000,0.000,0.000,0.000,0.000,0.000*78
$GPRMC,065641.399,A,3114.3192383,N,12129.1452752,E,8.79,43.83,210523,0.0,E,A,V*4C
$GPGGA,065641.399,3114.3192383,N,12129.1452752,E,1,21,1.0,2.641,M,11.083,M,0.0,0000*74
$GPESA,065641.399,+0.493,-4.492,-0.133,-0.496,+1.577,-173.832*76
$GPESD,065641.399,0.000,0.000,0.000,0.000,0.000,0.000,0.000,0.000,0.000*76
$GPRMC,065641.519,A,3114.3189486,N,12129.1453419,E,9.00,43.96,210523,0.0,E,A,V*4C
$GPGGA,065641.519,3114.3189486,N,12129.1453419,E,1,21,1.0,2.633,M,11.083,M,0.0,0000*7A
$GPESA,065641.519,+0.503,-4.599,-0.146,-0.564,+1.456,-173.822*77
$GPESD,065641.519,0.000,0.000,0.000,0.000,0.000,0.000,0.000,0.000,0.000*78
$GPRMC,065641.659,A,3114.3185973,N,12129.1453895,E,9.16,44.26,210523,0.0,E,A,V*43
$GPGGA,065641.659,3114.3185973,N,12129.1453895,E,1,21,1.0,2.620,M,11.083,M,0.0,0000*7C
$GPESA,065641.659,+0.503,-4.683,-0.161,-0.603,+1.538,-173.840*72
$GPESD,065641.659,0.000,0.000,0.000,0.000,0.000,0.000,0.000,0.000,0.000*7F
$GPRMC,065641.789,A,3114.3182760,N,12129.1454653,E,9.22,43.49,210523,0.0,E,A,V*4E
$GPGGA,065641.789,3114.3182760,N,12129.1454653,E,1,21,1.0,2.616,M,11.083,M,0.0,0000*7D
$GPESA,065641.789,+0.556,-4.707,-0.164,-0.657,+1.297,-173.850*74
$GPESD,065641.789,0.000,0.000,0.000,0.000,0.000,0.000,0.000,0.000,0.000*73
$GPRMC,065641.929,A,3114.3179180,N,12129.1455249,E,9.32,43.45,210523,0.0,E,A,V*45
$GPGGA,065641.929,3114.3179180,N,12129.1455249,E,1,21,1.0,2.595,M,11.083,M,0.0,0000*73
$GPESA,065641.929,+0.592,-4.755,-0.204,-0.763,+1.092,-173.848*72
$GPESD,065641.929,0.000,0.000,0.000,0.000,0.000,0.000,0.000,0.000,0.000*77
$GPRMC,065642.034,A,3114.3176499,N,12129.1455957,E,9.35,43.36,210523,0.0,E,A,V*46
$GPGGA,065642.034,3114.3176499,N,12129.1455957,E,1,21,1.0,2.592,M,11.083,M,0.0,0000*74
$GPESA,065642.034,+0.600,-4.767,-0.206,-0.836,+0.971,-173.749*7B
$GPESD,065642.034,0.000,0.000,0.000,0.000,0.000,0.000,0.000,0.000,0.000*71
$GPRMC,065642.139,A,3114.3173786,N,12129.1456349,E,9.35,43.67,210523,0.0,E,A,V*40
$GPGGA,065642.139,3114.3173786,N,12129.1456349,E,1,21,1.0,2.570,M,11.083,M,0.0,0000*7A
$GPESA,065642.139,+0.587,-4.771,-0.214,-0.820,+0.998,-173.731*70
$GPESD,065642.139,0.000,0.000,0.000,0.000,0.000,0.000,0.000,0.000,0.000*7D
$GPRMC,065642.242,A,3114.3171106,N,12129.1456782,E,9.38,43.21,210523,0.0,E,A,V*4F
$GPGGA,065642.242,3114.3171106,N,12129.1456782,E,1,21,1.0,2.563,M,11.083,M,0.0,0000*78
$GPESA,065642.242,+0.611,-4.784,-0.206,-0.826,+1.024,-173.666*70
$GPESD,065642.242,0.000,0.000,0.000,0.000,0.000,0.000,0.000,0.000,0.000*72
$GPRMC,065642.382,A,3114.3167466,N,12129.1457362,E,9.41,43.07,210523,0.0,E,A,V*47
$GPGGA,065642.382,3114.3167466,N,12129.1457362,E,1,21,1.0,2.541,M,11.083,M,0.0,0000*7A
$GPESA,065642.382,+0.648,-4.791,-0.244,-0.865,+0.993,-173.622*70
$GPESD,065642.382,0.000,0.000,0.000,0.000,0.000,0.000,0.000,0.000,0.000*7F
$GPRMC,065642.497,A,3114.3164468,N,12129.1457858,E,9.42,42.92,210523,0.0,E,A,V*45
$GPGGA,065642.497,3114.3164468,N,12129.1457858,E,1,21,1.0,2.521,M,11.083,M,0.0,0000*70
$GPESA,065642.497,+0.663,-4.796,-0.252,-0.894,+0.952,-173.581*73
$GPESD,065642.497,0.000,0.000,0.000,0.000,0.000,0.000,0.000,0.000,0.000*7C
$GPRMC,065642.600,A,3114.3161821,N,12129.1458341,E,9.40,42.51,210523,0.0,E,A,V*4C
$GPGGA,065642.600,3114.3161821,N,12129.1458341,E,1,21,1.0,2.502,M,11.083,M,0.0,0000*75
$GPESA,065642.600,+0.683,-4.779,-0.248,-0.878,+0.844,-173.526*72
$GPESD,065642.600,0.000,0.000,0.000,0.000,0.000,0.000,0.000,0.000,0.000*70
$GPRMC,065642.700,A,3114.3159251,N,12129.1458773,E,9.37,42.50,210523,0.0,E,A,V*4F
$GPGGA,065642.700,3114.3159251,N,12129.1458773,E,1,20,1.0,2.491,M,11.083,M,0.0,0000*7D
$GPESA,065642.700,+0.679,-4.767,-0.243,-0.863,+0.831,-173.449*72
$GPESD,065642.700,0.000,0.000,0.000,0.000,0.000,0.000,0.000,0.000,0.000*71
$GPRMC,065642.820,A,3114.3156174,N,12129.1459305,E,9.36,42.13,210523,0.0,E,A,V*4B
$GPGGA,065642.820,3114.3156174,N,12129.1459305,E,1,20,1.0,2.472,M,11.083,M,0.0,0000*72
$GPESA,065642.820,+0.710,-4.756,-0.257,-0.910,+0.840,-173.388*7F
$GPESD,065642.820,0.000,0.000,0.000,0.000,0.000,0.000,0.000,0.000,0.000*7C
$GPRMC,065642.935,A,3114.3153209,N,12129.1459822,E,9.32,42.02,210523,0.0,E,A,V*48
$GPGGA,065642.935,3114.3153209,N,12129.1459822,E,1,20,1.0,2.462,M,11.083,M,0.0,0000*74
$GPESA,065642.935,+0.726,-4.732,-0.273,-0.959,+0.813,-173.293*7B
$GPESD,065642.935,0.000,0.000,0.000,0.000,0.000,0.000,0.000,0.000,0.000*79
$GPRMC,065643.047,A,3114.3150336,N,12129.1460344,E,9.28,41.82,210523,0.0,E,A,V*4A
$GPGGA,065643.047,3114.3150336,N,12129.1460344,E,1,20,1.0,2.431,M,11.083,M,0.0,0000*70
$GPESA,065643.047,+0.739,-4.707,-0.278,-0.924,+0.780,-173.273*74
$GPESD,065643.047,0.000,0.000,0.000,0.000,0.000,0.000,0.000,0.000,0.000*74
$GPRMC,065643.168,A,3114.3147279,N,12129.1460892,E,9.27,41.68,210523,0.0,E,A,V*41
$GPGGA,065643.168,3114.3147279,N,12129.1460892,E,1,20,1.0,2.413,M,11.083,M,0.0,0000*70
$GPESA,065643.168,+0.739,-4.704,-0.267,-0.900,+0.751,-173.266*7B
$GPESD,065643.168,0.000,0.000,0.000,0.000,0.000,0.000,0.000,0.000,0.000*78
$GPRMC,065643.285,A,3114.3144385,N,12129.1461254,E,9.16,41.90,210523,0.0,E,A,V*44
$GPGGA,065643.285,3114.3144385,N,12129.1461254,E,1,20,1.0,2.455,M,11.083,M,0.0,0000*72
$GPESA,065643.285,+0.714,-4.650,-0.258,-0.841,+0.784,-173.268*7A
$GPESD,065643.285,0.000,0.000,0.000,0.000,0.000,0.000,0.000,0.000,0.000*78
$GPRMC,065643.385,A,3114.3141865,N,12129.1461614,E,9.12,41.87,210523,0.0,E,A,V*47
$GPGGA,065643.385,3114.3141865,N,12129.1461614,E,1,20,1.0,2.477,M,11.083,M,0.0,0000*73
$GPESA,065643.385,+0.714,-4.630,-0.260,-0.796,+0.790,-173.277*78
$GPESD,065643.385,0.000,0.000,0.000,0.000,0.000,0.000,0.000,0.000,0.000*79
$GPRMC,065643.505,A,3114.3138858,N,12129.1462146,E,9.08,41.60,210523,0.0,E,A,V*48
$GPGGA,065643.505,3114.3138858,N,12129.1462146,E,1,20,1.0,2.456,M,11.083,M,0.0,0000*7D
$GPESA,065643.505,+0.743,-4.601,-0.284,-0.675,+0.635,-173.194*70
$GPESD,065643.505,0.000,0.000,0.000,0.000,0.000,0.000,0.000,0.000,0.000*77
$GPRMC,065643.613,A,3114.3136163,N,12129.1462616,E,9.10,41.31,210523,0.0,E,A,V*4C
$GPGGA,065643.613,3114.3136163,N,12129.1462616,E,1,20,1.0,2.440,M,11.083,M,0.0,0000*73
$GPESA,065643.613,+0.754,-4.611,-0.275,-0.612,+0.526,-173.185*7D
$GPESD,065643.613,0.000,0.000,0.000,0.000,0.000,0.000,0.000,0.000,0.000*73
$GPRMC,065643.713,A,3114.3133655,N,12129.1463010,E,9.17,42.23,210523,0.0,E,A,V*4C
$GPGGA,065643.713,3114.3133655,N,12129.1463010,E,1,21,1.0,2.463,M,11.083,M,0.0,0000*74
$GPESA,065643.713,+0.713,-4.654,-0.284,-0.661,+0.428,-173.185*7B
$GPESD,065643.713,0.000,0.000,0.000,0.000,0.000,0.000,0.000,0.000,0.000*72
$GPRMC,065643.826,A,3114.3130785,N,12129.1463490,E,9.28,43.01,210523,0.0,E,A,V*4B
$GPGGA,065643.826,3114.3130785,N,12129.1463490,E,1,21,1.0,2.479,M,11.083,M,0.0,0000*75
$GPESA,065643.826,+0.694,-4.714,-0.314,-0.721,+0.618,-173.133*78
$GPESD,065643.826,0.000,0.000,0.000,0.000,0.000,0.000,0.000,0.000,0.000*7B
$GPRMC,065643.926,A,3114.3128233,N,12129.1463916,E,9.40,42.22,210523,0.0,E,A,V*46
$GPGGA,065643.926,3114.3128233,N,12129.1463916,E,1,21,1.0,2.465,M,11.083,M,0.0,0000*7B
$GPESA,065643.926,+0.740,-4.771,-0.305,-0.713,+0.770,-173.043*7A
$GPESD,065643.926,0.000,0.000,0.000,0.000,0.000,0.000,0.000,0.000,0.000*7A
$GPRMC,065644.078,A,3114.3124234,N,12129.1464559,E,9.65,39.72,210523,0.0,E,A,V*46
$GPGGA,065644.078,3114.3124234,N,12129.1464559,E,1,21,1.0,2.457,M,11.083,M,0.0,0000*74
$GPESA,065644.078,+0.884,-4.877,-0.279,-0.912,+0.679,-173.000*7B
$GPESD,065644.078,0.000,0.000,0.000,0.000,0.000,0.000,0.000,0.000,0.000*7F
$GPRMC,065644.179,A,3114.3121578,N,12129.1465114,E,9.73,40.00,210523,0.0,E,A,V*4C
$GPGGA,065644.179,3114.3121578,N,12129.1465114,E,1,21,1.0,2.429,M,11.083,M,0.0,0000*7B
$GPESA,065644.179,+0.887,-4.920,-0.298,-0.941,+0.517,-173.009*70
$GPESD,065644.179,0.000,0.000,0.000,0.000,0.000,0.000,0.000,0.000,0.000*7F
$GPRMC,065644.304,A,3114.3118182,N,12129.1465320,E,9.85,42.71,210523,0.0,E,A,V*47
$GPGGA,065644.304,3114.3118182,N,12129.1465320,E,1,20,1.0,2.481,M,11.083,M,0.0,0000*7E
$GPESA,065644.304,+0.754,-4.998,-0.331,-0.813,+0.445,-172.932*78
$GPESD,065644.304,0.000,0.000,0.000,0.000,0.000,0.000,0.000,0.000,0.000*77
$GPRMC,065644.411,A,3114.3115158,N,12129.1465725,E,10.08,42.73,210523,0.0,E,A,V*70
$GPGGA,065644.411,3114.3115158,N,12129.1465725,E,1,20,1.0,2.502,M,11.083,M,0.0,0000*7C
$GPESA,065644.411,+0.767,-5.119,-0.334,-0.609,+0.651,-172.821*7F
$GPESD,065644.411,0.000,0.000,0.000,0.000,0.000,0.000,0.000,0.000,0.000*74
$GPRMC,065644.531,A,3114.3111724,N,12129.1466062,E,10.32,41.52,210523,0.0,E,A,V*74
$GPGGA,065644.531,3114.3111724,N,12129.1466062,E,1,21,1.0,2.519,M,11.083,M,0.0,0000*7A
$GPESA,065644.531,+0.842,-5.231,-0.313,-0.603,+0.774,-172.764*7A
$GPESD,065644.531,0.000,0.000,0.000,0.000,0.000,0.000,0.000,0.000,0.000*77
$GPRMC,065644.652,A,3114.3108237,N,12129.1466582,E,10.50,40.43,210523,0.0,E,A,V*73
$GPGGA,065644.652,3114.3108237,N,12129.1466582,E,1,21,1.0,2.536,M,11.083,M,0.0,0000*75
$GPESA,065644.652,+0.911,-5.314,-0.294,-0.654,+0.741,-172.732*74
$GPESD,065644.652,0.000,0.000,0.000,0.000,0.000,0.000,0.000,0.000,0.000*71
$GPRMC,065644.804,A,3114.3103755,N,12129.1467162,E,10.74,40.40,210523,0.0,E,A,V*7A
$GPGGA,065644.804,3114.3103755,N,12129.1467162,E,1,20,1.0,2.586,M,11.083,M,0.0,0000*73
$GPESA,065644.804,+0.929,-5.440,-0.292,-0.741,+0.691,-172.664*79
$GPESD,065644.804,0.000,0.000,0.000,0.000,0.000,0.000,0.000,0.000,0.000*7C
$GPRMC,065644.937,A,3114.3099736,N,12129.1467766,E,11.00,40.44,210523,0.0,E,A,V*78
$GPGGA,065644.937,3114.3099736,N,12129.1467766,E,1,20,1.0,2.591,M,11.083,M,0.0,0000*71
$GPESA,065644.937,+0.952,-5.570,-0.305,-0.763,+0.602,-172.684*7D
$GPESD,065644.937,0.000,0.000,0.000,0.000,0.000,0.000,0.000,0.000,0.000*7D
$GPRMC,065645.047,A,3114.3096308,N,12129.1468229,E,11.21,40.73,210523,0.0,E,A,V*77
$GPGGA,065645.047,3114.3096308,N,12129.1468229,E,1,21,1.0,2.603,M,11.083,M,0.0,0000*70
$GPESA,065645.047,+0.954,-5.677,-0.315,-0.706,+0.645,-172.646*7F
$GPESD,065645.047,0.000,0.000,0.000,0.000,0.000,0.000,0.000,0.000,0.000*72
$GPRMC,065645.167,A,3114.3092482,N,12129.1468626,E,11.41,40.43,210523,0.0,E,A,V*7B
$GPGGA,065645.167,3114.3092482,N,12129.1468626,E,1,21,1.0,2.616,M,11.083,M,0.0,0000*7D
$GPESA,065645.167,+0.961,-5.784,-0.274,-0.751,+0.656,-172.591*78
$GPESD,065645.167,0.000,0.000,0.000,0.000,0.000,0.000,0.000,0.000,0.000*71
$GPRMC,065645.285,A,3114.3088648,N,12129.1468555,E,11.54,40.82,210523,0.0,E,A,V*75
$GPGGA,065645.285,3114.3088648,N,12129.1468555,E,1,21,1.0,2.679,M,11.083,M,0.0,0000*73
$GPESA,065645.285,+0.942,-5.856,-0.274,-0.770,+0.751,-172.506*7D
$GPESD,065645.285,0.000,0.000,0.000,0.000,0.000,0.000,0.000,0.000,0.000*7E
$GPRMC,065645.407,A,3114.3084673,N,12129.1468952,E,11.69,40.24,210523,0.0,E,A,V*74
$GPGGA,065645.407,3114.3084673,N,12129.1468952,E,1,21,1.0,2.681,M,11.083,M,0.0,0000*77
$GPESA,065645.407,+0.998,-5.923,-0.280,-0.810,+0.770,-172.458*7E
$GPESD,065645.407,0.000,0.000,0.000,0.000,0.000,0.000,0.000,0.000,0.000*72
$GPRMC,065645.517,A,3114.3081042,N,12129.1469252,E,11.74,40.39,210523,0.0,E,A,V*7F
$GPGGA,065645.517,3114.3081042,N,12129.1469252,E,1,21,1.0,2.686,M,11.083,M,0.0,0000*7B
$GPESA,065645.517,+0.995,-5.950,-0.287,-0.867,+0.791,-172.409*7B
$GPESD,065645.517,0.000,0.000,0.000,0.000,0.000,0.000,0.000,0.000,0.000*72
$GPRMC,065645.657,A,3114.3076442,N,12129.1469772,E,11.71,40.26,210523,0.0,E,A,V*78
$GPGGA,065645.657,3114.3076442,N,12129.1469772,E,1,21,1.0,2.682,M,11.083,M,0.0,0000*73
$GPESA,065645.657,+0.994,-5.934,-0.275,-1.000,+0.812,-172.327*75
$GPESD,065645.657,0.000,0.000,0.000,0.000,0.000,0.000,0.000,0.000,0.000*75
$GPRMC,065645.818,A,3114.3071099,N,12129.1470097,E,11.75,40.03,210523,0.0,E,A,V*7F
$GPGGA,065645.818,3114.3071099,N,12129.1470097,E,1,21,1.0,2.705,M,11.083,M,0.0,0000*79
$GPESA,065645.818,+1.000,-5.956,-0.254,-0.994,+0.920,-172.199*70
$GPESD,065645.818,0.000,0.000,0.000,0.000,0.000,0.000,0.000,0.000,0.000*70
$GPRMC,065645.933,A,3114.3067310,N,12129.1470569,E,11.81,39.50,210523,0.0,E,A,V*75
$GPGGA,065645.933,3114.3067310,N,12129.1470569,E,1,21,1.0,2.703,M,11.083,M,0.0,0000*76
$GPESA,065645.933,+1.041,-5.978,-0.251,-0.952,+0.908,-172.101*75
$GPESD,065645.933,0.000,0.000,0.000,0.000,0.000,0.000,0.000,0.000,0.000*78
$GPRMC,065646.035,A,3114.3063916,N,12129.1470910,E,11.82,39.84,210523,0.0,E,A,V*79
$GPGGA,065646.035,3114.3063916,N,12129.1470910,E,1,21,1.0,2.710,M,11.083,M,0.0,0000*72
$GPESA,065646.035,+1.012,-5.990,-0.242,-0.989,+0.954,-172.028*7E
$GPESD,065646.035,0.000,0.000,0.000,0.000,0.000,0.000,0.000,0.000,0.000*74
$GPRMC,065646.148,A,3114.3060218,N,12129.1471335,E,11.87,39.51,210523,0.0,E,A,V*75
$GPGGA,065646.148,3114.3060218,N,12129.1471335,E,1,21,1.0,2.712,M,11.083,M,0.0,0000*71
$GPESA,065646.148,+1.041,-6.012,-0.245,-1.026,+1.014,-171.945*74
$GPESD,065646.148,0.000,0.000,0.000,0.000,0.000,0.000,0.000,0.000,0.000*7F
$GPRMC,065646.268,A,3114.3056272,N,12129.1471640,E,11.85,39.90,210523,0.0,E,A,V*75
$GPGGA,065646.268,3114.3056272,N,12129.1471640,E,1,22,1.0,2.738,M,11.083,M,0.0,0000*75
$GPESA,065646.268,+1.021,-6.006,-0.260,-1.092,+1.043,-171.853*7A
$GPESD,065646.268,0.000,0.000,0.000,0.000,0.000,0.000,0.000,0.000,0.000*7E
$GPRMC,065646.368,A,3114.3053012,N,12129.1472055,E,11.83,39.70,210523,0.0,E,A,V*7C
$GPGGA,065646.368,3114.3053012,N,12129.1472055,E,1,22,1.0,2.746,M,11.083,M,0.0,0000*7D
$GPESA,065646.368,+1.037,-5.992,-0.264,-1.101,+1.076,-171.776*7A
$GPESD,065646.368,0.000,0.000,0.000,0.000,0.000,0.000,0.000,0.000,0.000*7F
$GPRMC,065646.471,A,3114.3049655,N,12129.1472467,E,11.82,40.04,210523,0.0,E,A,V*74
$GPGGA,065646.471,3114.3049655,N,12129.1472467,E,1,22,1.0,2.754,M,11.083,M,0.0,0000*7A
$GPESA,065646.471,+0.998,-5.993,-0.244,-1.100,+1.088,-171.709*73
$GPESD,065646.471,0.000,0.000,0.000,0.000,0.000,0.000,0.000,0.000,0.000*70
$GPRMC,065646.571,A,3114.3046343,N,12129.1472950,E,11.79,40.27,210523,0.0,E,A,V*74
$GPGGA,065646.571,3114.3046343,N,12129.1472950,E,1,21,1.0,2.782,M,11.083,M,0.0,0000*77
$GPESA,065646.571,+0.980,-5.979,-0.246,-1.081,+1.159,-171.637*74
$GPESD,065646.571,0.000,0.000,0.000,0.000,0.000,0.000,0.000,0.000,0.000*71
$GPRMC,065646.711,A,3114.3041808,N,12129.1473840,E,11.83,40.08,210523,0.0,E,A,V*7A
$GPGGA,065646.711,3114.3041808,N,12129.1473840,E,1,21,1.0,2.746,M,11.083,M,0.0,0000*79
$GPESA,065646.711,+1.015,-5.993,-0.274,-1.061,+1.217,-171.528*7B
$GPESD,065646.711,0.000,0.000,0.000,0.000,0.000,0.000,0.000,0.000,0.000*75
$GPRMC,065646.828,A,3114.3037997,N,12129.1474497,E,11.81,40.12,210523,0.0,E,A,V*71
$GPGGA,065646.828,3114.3037997,N,12129.1474497,E,1,21,1.0,2.722,M,11.083,M,0.0,0000*79
$GPESA,065646.828,+1.012,-5.986,-0.276,-1.069,+1.312,-171.448*74
$GPESD,065646.828,0.000,0.000,0.000,0.000,0.000,0.000,0.000,0.000,0.000*70
$GPRMC,065646.946,A,3114.3034196,N,12129.1475248,E,11.80,39.71,210523,0.0,E,A,V*7D
$GPGGA,065646.946,3114.3034196,N,12129.1475248,E,1,21,1.0,2.692,M,11.083,M,0.0,0000*75
$GPESA,065646.946,+1.037,-5.975,-0.270,-1.078,+1.244,-171.362*7D
$GPESD,065646.946,0.000,0.000,0.000,0.000,0.000,0.000,0.000,0.000,0.000*79
$GPRMC,065647.066,A,3114.3030351,N,12129.1476016,E,11.74,39.86,210523,0.0,E,A,V*73
$GPGGA,065647.066,3114.3030351,N,12129.1476016,E,1,21,1.0,2.661,M,11.083,M,0.0,0000*74
$GPESA,065647.066,+1.028,-5.943,-0.280,-1.092,+1.248,-171.255*7E
$GPESD,065647.066,0.000,0.000,0.000,0.000,0.000,0.000,0.000,0.000,0.000*73
$GPRMC,065647.189,A,3114.3026429,N,12129.1476784,E,11.69,39.94,210523,0.0,E,A,V*7F
$GPGGA,065647.189,3114.3026429,N,12129.1476784,E,1,21,1.0,2.627,M,11.083,M,0.0,0000*75
$GPESA,065647.189,+1.027,-5.918,-0.293,-1.095,+1.315,-171.150*75
$GPESD,065647.189,0.000,0.000,0.000,0.000,0.000,0.000,0.000,0.000,0.000*73
$GPRMC,065647.299,A,3114.3022907,N,12129.1477476,E,11.64,39.59,210523,0.0,E,A,V*7B
$GPGGA,065647.299,3114.3022907,N,12129.1477476,E,1,21,1.0,2.598,M,11.083,M,0.0,0000*7A
$GPESA,065647.299,+1.054,-5.889,-0.301,-1.050,+1.342,-171.034*78
$GPESD,065647.299,0.000,0.000,0.000,0.000,0.000,0.000,0.000,0.000,0.000*71
$GPRMC,065647.424,A,3114.3018931,N,12129.1478247,E,11.60,39.11,210523,0.0,E,A,V*74
$GPGGA,065647.424,3114.3018931,N,12129.1478247,E,1,21,1.0,2.572,M,11.083,M,0.0,0000*79
$GPESA,065647.424,+1.072,-5.861,-0.282,-0.971,+1.339,-170.868*77
$GPESD,065647.424,0.000,0.000,0.000,0.000,0.000,0.000,0.000,0.000,0.000*71
$GPRMC,065647.594,A,3114.3013563,N,12129.1479318,E,11.55,38.59,210523,0.0,E,A,V*7F
$GPGGA,065647.594,3114.3013563,N,12129.1479318,E,1,21,1.0,2.537,M,11.083,M,0.0,0000*78
$GPESA,065647.594,+1.097,-5.831,-0.271,-0.907,+1.263,-170.707*76
$GPESD,065647.594,0.000,0.000,0.000,0.000,0.000,0.000,0.000,0.000,0.000*7B
$GPRMC,065647.732,A,3114.3009224,N,12129.1480205,E,11.48,38.65,210523,0.0,E,A,V*76
$GPGGA,065647.732,3114.3009224,N,12129.1480205,E,1,21,1.0,2.508,M,11.083,M,0.0,0000*7E
$GPESA,065647.732,+1.075,-5.802,-0.250,-0.873,+1.199,-170.583*7D
$GPESD,065647.732,0.000,0.000,0.000,0.000,0.000,0.000,0.000,0.000,0.000*75
$GPRMC,065647.832,A,3114.3006081,N,12129.1480847,E,11.49,38.45,210523,0.0,E,A,V*74
$GPGGA,065647.832,3114.3006081,N,12129.1480847,E,1,21,1.0,2.491,M,11.083,M,0.0,0000*7E
$GPESA,065647.832,+1.077,-5.805,-0.231,-0.877,+1.173,-170.458*77
$GPESD,065647.832,0.000,0.000,0.000,0.000,0.000,0.000,0.000,0.000,0.000*7A
$GPRMC,065647.932,A,3114.3002946,N,12129.1481446,E,11.44,38.68,210523,0.0,E,A,V*7D
$GPGGA,065647.932,3114.3002946,N,12129.1481446,E,1,21,1.0,2.475,M,11.083,M,0.0,0000*7F
$GPESA,065647.932,+1.057,-5.784,-0.230,-0.923,+1.241,-170.372*7E
$GPESD,065647.932,0.000,0.000,0.000,0.000,0.000,0.000,0.000,0.000,0.000*7B
$GPRMC,065648.060,A,3114.2998958,N,12129.1482282,E,11.38,38.48,210523,0.0,E,A,V*7C
$GPGGA,065648.060,3114.2998958,N,12129.1482282,E,1,21,1.0,2.449,M,11.083,M,0.0,0000*78
$GPESA,065648.060,+1.078,-5.749,-0.249,-0.918,+1.186,-170.249*74
$GPESD,065648.060,0.000,0.000,0.000,0.000,0.000,0.000,0.000,0.000,0.000*7A
$GPRMC,065648.180,A,3114.2995218,N,12129.1483053,E,11.38,38.50,210523,0.0,E,A,V*77
$GPGGA,065648.180,3114.2995218,N,12129.1483053,E,1,21,1.0,2.425,M,11.083,M,0.0,0000*70
$GPESA,065648.180,+1.063,-5.751,-0.228,-0.920,+1.173,-170.145*71
$GPESD,065648.180,0.000,0.000,0.000,0.000,0.000,0.000,0.000,0.000,0.000*75
$GPRMC,065648.312,A,3114.2991114,N,12129.1483766,E,11.33,39.11,210523,0.0,E,A,V*7B
$GPGGA,065648.312,3114.2991114,N,12129.1483766,E,1,21,1.0,2.411,M,11.083,M,0.0,0000*74
$GPESA,065648.312,+1.017,-5.734,-0.226,-0.965,+1.269,-170.087*70
$GPESD,065648.312,0.000,0.000,0.000,0.000,0.000,0.000,0.000,0.000,0.000*7C
$GPRMC,065648.445,A,3114.2987004,N,12129.1484611,E,11.32,38.60,210523,0.0,E,A,V*79
$GPGGA,065648.445,3114.2987004,N,12129.1484611,E,1,21,1.0,2.384,M,11.083,M,0.0,0000*7B
$GPESA,065648.445,+1.054,-5.723,-0.231,-1.024,+1.303,-169.971*7A
$GPESD,065648.445,0.000,0.000,0.000,0.000,0.000,0.000,0.000,0.000,0.000*79
$GPRMC,065648.562,A,3114.2983380,N,12129.1485388,E,11.30,38.22,210523,0.0,E,A,V*76
$GPGGA,065648.562,3114.2983380,N,12129.1485388,E,1,21,1.0,2.372,M,11.083,M,0.0,0000*79
$GPESA,065648.562,+1.067,-5.711,-0.215,-1.010,+1.256,-169.559*79
$GPESD,065648.562,0.000,0.000,0.000,0.000,0.000,0.000,0.000,0.000,0.000*7D
$GPRMC,065648.663,A,3114.2980295,N,12129.1485993,E,11.26,38.24,210523,0.0,E,A,V*73
$GPGGA,065648.663,3114.2980295,N,12129.1485993,E,1,21,1.0,2.359,M,11.083,M,0.0,0000*74
$GPESA,065648.663,+1.054,-5.692,-0.200,-0.999,+1.207,-169.457*77
$GPESD,065648.663,0.000,0.000,0.000,0.000,0.000,0.000,0.000,0.000,0.000*7F
$GPRMC,065648.778,A,3114.2976745,N,12129.1486755,E,11.24,38.25,210523,0.0,E,A,V*7D
$GPGGA,065648.778,3114.2976745,N,12129.1486755,E,1,21,1.0,2.343,M,11.083,M,0.0,0000*72
$GPESA,065648.778,+1.049,-5.686,-0.195,-0.924,+1.155,-169.366*7D
$GPESD,065648.778,0.000,0.000,0.000,0.000,0.000,0.000,0.000,0.000,0.000*74
$GPRMC,065648.878,A,3114.2973659,N,12129.1487368,E,11.25,38.36,210523,0.0,E,A,V*73
$GPGGA,065648.878,3114.2973659,N,12129.1487368,E,1,21,1.0,2.327,M,11.083,M,0.0,0000*7D
$GPESA,065648.878,+1.048,-5.691,-0.204,-0.837,+1.168,-169.309*7A
$GPESD,065648.878,0.000,0.000,0.000,0.000,0.000,0.000,0.000,0.000,0.000*7B
$GPRMC,065648.978,A,3114.2970550,N,12129.1487951,E,11.31,38.22,210523,0.0,E,A,V*7B
$GPGGA,065648.978,3114.2970550,N,12129.1487951,E,1,21,1.0,2.316,M,11.083,M,0.0,0000*77
$GPESA,065648.978,+1.057,-5.721,-0.194,-0.783,+1.184,-169.179*72
$GPESD,065648.978,0.000,0.000,0.000,0.000,0.000,0.000,0.000,0.000,0.000*7A
$GPRMC,065649.078,A,3114.2967483,N,12129.1488592,E,11.35,37.94,210523,0.0,E,A,V*70
$GPGGA,065649.078,3114.2967483,N,12129.1488592,E,1,21,1.0,2.300,M,11.083,M,0.0,0000*7D
$GPESA,065649.078,+1.079,-5.736,-0.196,-0.743,+1.153,-169.147*79
$GPESD,065649.078,0.000,0.000,0.000,0.000,0.000,0.000,0.000,0.000,0.000*72
$GPRMC,065649.178,A,3114.2964373,N,12129.1489276,E,11.38,37.74,210523,0.0,E,A,V*75
$GPGGA,065649.178,3114.2964373,N,12129.1489276,E,1,21,1.0,2.281,M,11.083,M,0.0,0000*73
$GPESA,065649.178,+1.092,-5.749,-0.190,-0.804,+1.053,-169.114*78
$GPESD,065649.178,0.000,0.000,0.000,0.000,0.000,0.000,0.000,0.000,0.000*73
$GPRMC,065649.306,A,3114.2960500,N,12129.1490164,E,11.37,37.35,210523,0.0,E,A,V*7A
$GPGGA,065649.306,3114.2960500,N,12129.1490164,E,1,23,1.0,2.262,M,11.083,M,0.0,0000*79
$GPESA,065649.306,+1.119,-5.738,-0.192,-0.787,+0.948,-168.683*7B
$GPESD,065649.306,0.000,0.000,0.000,0.000,0.000,0.000,0.000,0.000,0.000*78
$GPRMC,065649.486,A,3114.2954953,N,12129.1491404,E,11.37,37.46,210523,0.0,E,A,V*7E
$GPGGA,065649.486,3114.2954953,N,12129.1491404,E,1,23,1.0,2.228,M,11.083,M,0.0,0000*77
$GPESA,065649.486,+1.128,-5.738,-0.220,-0.548,+0.770,-168.493*7B
$GPESD,065649.486,0.000,0.000,0.000,0.000,0.000,0.000,0.000,0.000,0.000*77
$GPRMC,065649.611,A,3114.2951069,N,12129.1492186,E,11.43,38.24,210523,0.0,E,A,V*73
$GPGGA,065649.611,3114.2951069,N,12129.1492186,E,1,22,1.0,2.211,M,11.083,M,0.0,0000*79
$GPESA,065649.611,+1.081,-5.774,-0.222,-0.329,+0.694,-168.411*7F
$GPESD,065649.611,0.000,0.000,0.000,0.000,0.000,0.000,0.000,0.000,0.000*7B
$GPRMC,065649.711,A,3114.2947921,N,12129.1492866,E,11.56,38.17,210523,0.0,E,A,V*73
$GPGGA,065649.711,3114.2947921,N,12129.1492866,E,1,22,1.0,2.188,M,11.083,M,0.0,0000*7E
$GPESA,065649.711,+1.101,-5.839,-0.228,-0.360,+0.795,-168.337*75
$GPESD,065649.711,0.000,0.000,0.000,0.000,0.000,0.000,0.000,0.000,0.000*7A
$GPRMC,065649.814,A,3114.2944620,N,12129.1493328,E,11.64,38.65,210523,0.0,E,A,V*70
$GPGGA,065649.814,3114.2944620,N,12129.1493328,E,1,22,1.0,2.170,M,11.083,M,0.0,0000*7E
$GPESA,065649.814,+1.072,-5.887,-0.225,-0.664,+0.959,-169.225*7E
$GPESD,065649.814,0.000,0.000,0.000,0.000,0.000,0.000,0.000,0.000,0.000*70
$GPRMC,065649.941,A,3114.2940557,N,12129.1494140,E,11.61,37.97,210523,0.0,E,A,V*7A
$GPGGA,065649.941,3114.2940557,N,12129.1494140,E,1,22,1.0,2.144,M,11.083,M,0.0,0000*74
$GPESA,065649.941,+1.112,-5.864,-0.217,-1.040,+0.896,-169.434*71
$GPESD,065649.941,0.000,0.000,0.000,0.000,0.000,0.000,0.000,0.000,0.000*71
$GPRMC,065650.054,A,3114.2937046,N,12129.1494881,E,11.50,37.70,210523,0.0,E,A,V*75
$GPGGA,065650.054,3114.2937046,N,12129.1494881,E,1,22,1.0,2.130,M,11.083,M,0.0,0000*73
$GPESA,065650.054,+1.103,-5.809,-0.187,-1.135,+0.861,-169.459*75
$GPESD,065650.054,0.000,0.000,0.000,0.000,0.000,0.000,0.000,0.000,0.000*74
$GPRMC,065650.159,A,3114.2933758,N,12129.1495593,E,11.39,38.50,210523,0.0,E,A,V*78
$GPGGA,065650.159,3114.2933758,N,12129.1495593,E,1,22,1.0,2.108,M,11.083,M,0.0,0000*77
$GPESA,065650.159,+1.064,-5.756,-0.228,-1.040,+0.825,-169.386*7C
$GPESD,065650.159,0.000,0.000,0.000,0.000,0.000,0.000,0.000,0.000,0.000*78
$GPRMC,065650.279,A,3114.2930029,N,12129.1496251,E,11.43,38.86,210523,0.0,E,A,V*77
$GPGGA,065650.279,3114.2930029,N,12129.1496251,E,1,22,1.0,2.095,M,11.083,M,0.0,0000*7B
$GPESA,065650.279,+1.041,-5.781,-0.226,-0.753,+0.935,-169.635*77
$GPESD,065650.279,0.000,0.000,0.000,0.000,0.000,0.000,0.000,0.000,0.000*79
$GPRMC,065650.402,A,3114.2926173,N,12129.1496996,E,11.53,38.72,210523,0.0,E,A,V*7E
$GPGGA,065650.402,3114.2926173,N,12129.1496996,E,1,22,1.0,2.070,M,11.083,M,0.0,0000*73
$GPESA,065650.402,+1.059,-5.833,-0.227,-0.640,+1.029,-169.471*77
$GPESD,065650.402,0.000,0.000,0.000,0.000,0.000,0.000,0.000,0.000,0.000*73
$GPRMC,065650.509,A,3114.2922805,N,12129.1497709,E,11.53,38.05,210523,0.0,E,A,V*71
$GPGGA,065650.509,3114.2922805,N,12129.1497709,E,1,22,1.0,2.047,M,11.083,M,0.0,0000*78
$GPESA,065650.509,+1.097,-5.827,-0.212,-0.722,+0.989,-169.374*79
$GPESD,065650.509,0.000,0.000,0.000,0.000,0.000,0.000,0.000,0.000,0.000*79
$GPRMC,065650.624,A,3114.2919233,N,12129.1498543,E,11.46,38.41,210523,0.0,E,A,V*7D
$GPGGA,065650.624,3114.2919233,N,12129.1498543,E,1,22,1.0,2.013,M,11.084,M,0.0,0000*76
$GPESA,065650.624,+1.086,-5.788,-0.244,-0.840,+0.845,-169.348*79
$GPESD,065650.624,0.000,0.000,0.000,0.000,0.000,0.000,0.000,0.000,0.000*75
$GPRMC,065650.752,A,3114.2915247,N,12129.1499419,E,11.38,38.36,210523,0.0,E,A,V*74
$GPGGA,065650.752,3114.2915247,N,12129.1499419,E,1,23,1.0,1.981,M,11.084,M,0.0,0000*76
$GPESA,065650.752,+1.088,-5.747,-0.253,-0.946,+0.883,-169.289*73
$GPESD,065650.752,0.000,0.000,0.000,0.000,0.000,0.000,0.000,0.000,0.000*75
$GPRMC,065650.872,A,3114.2911571,N,12129.1500039,E,11.27,39.31,210523,0.0,E,A,V*70
$GPGGA,065650.872,3114.2911571,N,12129.1500039,E,1,23,1.0,1.964,M,11.084,M,0.0,0000*71
$GPESA,065650.872,+1.007,-5.704,-0.239,-0.842,+1.032,-169.201*74
$GPESD,065650.872,0.000,0.000,0.000,0.000,0.000,0.000,0.000,0.000,0.000*78
$GPRMC,065650.990,A,3114.2907957,N,12129.1500769,E,11.25,38.67,210523,0.0,E,A,V*70
$GPGGA,065650.990,3114.2907957,N,12129.1500769,E,1,23,1.0,1.943,M,11.084,M,0.0,0000*74
$GPESA,065650.990,+1.047,-5.686,-0.238,-0.828,+1.031,-169.203*7A
$GPESD,065650.990,0.000,0.000,0.000,0.000,0.000,0.000,0.000,0.000,0.000*75
$GPRMC,065651.132,A,3114.2903608,N,12129.1501662,E,11.21,38.55,210523,0.0,E,A,V*7E
$GPGGA,065651.132,3114.2903608,N,12129.1501662,E,1,23,1.0,1.913,M,11.084,M,0.0,0000*7A
$GPESA,065651.132,+1.065,-5.659,-0.260,-0.862,+1.115,-169.126*79
$GPESD,065651.132,0.000,0.000,0.000,0.000,0.000,0.000,0.000,0.000,0.000*74
$GPRMC,065651.232,A,3114.2900567,N,12129.1502263,E,11.17,38.59,210523,0.0,E,A,V*7B
$GPGGA,065651.232,3114.2900567,N,12129.1502263,E,1,23,1.0,1.891,M,11.084,M,0.0,0000*7D
$GPESA,065651.232,+1.059,-5.644,-0.258,-0.939,+1.109,-169.101*75
$GPESD,065651.232,0.000,0.000,0.000,0.000,0.000,0.000,0.000,0.000,0.000*77
$GPRMC,065651.332,A,3114.2897534,N,12129.1502875,E,11.12,38.72,210523,0.0,E,A,V*72
$GPGGA,065651.332,3114.2897534,N,12129.1502875,E,1,23,1.0,1.868,M,11.084,M,0.0,0000*7E
$GPESA,065651.332,+1.042,-5.617,-0.252,-1.036,+1.068,-169.081*7A
$GPESD,065651.332,0.000,0.000,0.000,0.000,0.000,0.000,0.000,0.000,0.000*76
$GPRMC,065651.433,A,3114.2894553,N,12129.1503437,E,11.01,38.85,210523,0.0,E,A,V*77
$GPGGA,065651.433,3114.2894553,N,12129.1503437,E,1,23,1.0,1.852,M,11.084,M,0.0,0000*78
$GPESA,065651.433,+1.013,-5.568,-0.233,-1.068,+1.135,-169.044*7F
$GPESD,065651.433,0.000,0.000,0.000,0.000,0.000,0.000,0.000,0.000,0.000*70
$GPRMC,065651.560,A,3114.2890753,N,12129.1504190,E,10.90,38.82,210523,0.0,E,A,V*77
$GPGGA,065651.560,3114.2890753,N,12129.1504190,E,1,24,1.0,1.831,M,11.084,M,0.0,0000*74
$GPESA,065651.560,+1.005,-5.513,-0.230,-1.025,+1.228,-168.931*7C
$GPESD,065651.560,0.000,0.000,0.000,0.000,0.000,0.000,0.000,0.000,0.000*77
$GPRMC,065651.690,A,3114.2886916,N,12129.1504958,E,10.80,38.92,210523,0.0,E,A,V*7F
$GPGGA,065651.690,3114.2886916,N,12129.1504958,E,1,24,1.0,1.806,M,11.084,M,0.0,0000*78
$GPESA,065651.690,+0.990,-5.464,-0.229,-0.816,+1.303,-168.852*78
$GPESD,065651.690,0.000,0.000,0.000,0.000,0.000,0.000,0.000,0.000,0.000*7B
$GPRMC,065651.790,A,3114.2883946,N,12129.1505522,E,10.77,38.38,210523,0.0,E,A,V*76
$GPGGA,065651.790,3114.2883946,N,12129.1505522,E,1,24,1.0,1.788,M,11.084,M,0.0,0000*70
$GPESA,065651.790,+1.020,-5.439,-0.226,-0.713,+1.337,-168.845*76
$GPESD,065651.790,0.000,0.000,0.000,0.000,0.000,0.000,0.000,0.000,0.000*7A
$GPRMC,065651.918,A,3114.2880188,N,12129.1506272,E,10.72,38.40,210523,0.0,E,A,V*7A
$GPGGA,065651.918,3114.2880188,N,12129.1506272,E,1,24,1.0,1.762,M,11.084,M,0.0,0000*72
$GPESA,065651.918,+1.019,-5.414,-0.233,-0.713,+1.293,-168.792*73
$GPESD,065651.918,0.000,0.000,0.000,0.000,0.000,0.000,0.000,0.000,0.000*74
$GPRMC,065652.021,A,3114.2877178,N,12129.1506883,E,10.66,38.74,210523,0.0,E,A,V*7B
$GPGGA,065652.021,3114.2877178,N,12129.1506883,E,1,24,1.0,1.737,M,11.084,M,0.0,0000*71
$GPESA,065652.021,+1.003,-5.385,-0.249,-0.836,+1.234,-168.768*7A
$GPESD,065652.021,0.000,0.000,0.000,0.000,0.000,0.000,0.000,0.000,0.000*74
$GPRMC,065652.156,A,3114.2873268,N,12129.1507645,E,10.51,38.52,210523,0.0,E,A,V*79
$GPGGA,065652.156,3114.2873268,N,12129.1507645,E,1,23,1.0,1.711,M,11.084,M,0.0,0000*70
$GPESA,065652.156,+0.980,-5.314,-0.208,-1.015,+1.225,-168.761*74
$GPESD,065652.156,0.000,0.000,0.000,0.000,0.000,0.000,0.000,0.000,0.000*75
$GPRMC,065652.298,A,3114.2869218,N,12129.1508458,E,10.35,38.96,210523,0.0,E,A,V*7F
$GPGGA,065652.298,3114.2869218,N,12129.1508458,E,1,24,1.0,1.688,M,11.084,M,0.0,0000*7A
$GPESA,065652.298,+0.932,-5.238,-0.197,-1.128,+1.354,-168.706*7F
$GPESD,065652.298,0.000,0.000,0.000,0.000,0.000,0.000,0.000,0.000,0.000*74
$GPRMC,065652.426,A,3114.2865665,N,12129.1509104,E,10.18,38.71,210523,0.0,E,A,V*75
$GPGGA,065652.426,3114.2865665,N,12129.1509104,E,1,24,1.0,1.675,M,11.084,M,0.0,0000*74
$GPESA,065652.426,+0.948,-5.147,-0.219,-1.053,+1.434,-168.691*7C
$GPESD,065652.426,0.000,0.000,0.000,0.000,0.000,0.000,0.000,0.000,0.000*77
$GPRMC,065652.561,A,3114.2861926,N,12129.1509876,E,10.14,38.50,210523,0.0,E,A,V*78
$GPGGA,065652.561,3114.2861926,N,12129.1509876,E,1,24,1.0,1.650,M,11.084,M,0.0,0000*71
$GPESA,065652.561,+0.961,-5.123,-0.225,-0.860,+1.365,-168.702*79
$GPESD,065652.561,0.000,0.000,0.000,0.000,0.000,0.000,0.000,0.000,0.000*75
$GPRMC,065652.709,A,3114.2857850,N,12129.1510723,E,10.19,38.12,210523,0.0,E,A,V*7D
$GPGGA,065652.709,3114.2857850,N,12129.1510723,E,1,24,1.0,1.626,M,11.084,M,0.0,0000*7E
$GPESA,065652.709,+0.979,-5.143,-0.211,-0.760,+1.129,-168.790*73
$GPESD,065652.709,0.000,0.000,0.000,0.000,0.000,0.000,0.000,0.000,0.000*79
$GPRMC,065652.829,A,3114.2854528,N,12129.1511373,E,10.16,38.59,210523,0.0,E,A,V*71
$GPGGA,065652.829,3114.2854528,N,12129.1511373,E,1,24,1.0,1.607,M,11.084,M,0.0,0000*71
$GPESA,065652.829,+0.938,-5.138,-0.194,-0.849,+1.123,-168.776*7F
$GPESD,065652.829,0.000,0.000,0.000,0.000,0.000,0.000,0.000,0.000,0.000*74
$GPRMC,065652.939,A,3114.2851507,N,12129.1511947,E,10.08,39.28,210523,0.0,E,A,V*7C
$GPGGA,065652.939,3114.2851507,N,12129.1511947,E,1,24,1.0,1.586,M,11.084,M,0.0,0000*7E
$GPESA,065652.939,+0.898,-5.102,-0.207,-0.856,+1.289,-168.787*77
$GPESD,065652.939,0.000,0.000,0.000,0.000,0.000,0.000,0.000,0.000,0.000*74
$GPRMC,065653.061,A,3114.2848187,N,12129.1512597,E,9.97,38.54,210523,0.0,E,A,V*4B
$GPGGA,065653.061,3114.2848187,N,12129.1512597,E,1,25,1.0,1.564,M,11.084,M,0.0,0000*70
$GPESA,065653.061,+0.944,-5.036,-0.224,-0.858,+1.279,-168.780*73
$GPESD,065653.061,0.000,0.000,0.000,0.000,0.000,0.000,0.000,0.000,0.000*71
$GPRMC,065653.184,A,3114.2844924,N,12129.1513296,E,9.75,37.85,210523,0.0,E,A,V*44
$GPGGA,065653.184,3114.2844924,N,12129.1513296,E,1,25,1.0,1.541,M,11.084,M,0.0,0000*77
$GPESA,065653.184,+0.967,-4.915,-0.225,-0.948,+1.146,-168.678*79
$GPESD,065653.184,0.000,0.000,0.000,0.000,0.000,0.000,0.000,0.000,0.000*7B
$GPRMC,065653.294,A,3114.2842095,N,12129.1513792,E,9.49,38.73,210523,0.0,E,A,V*4B
$GPGGA,065653.294,3114.2842095,N,12129.1513792,E,1,25,1.0,1.530,M,11.084,M,0.0,0000*77
$GPESA,065653.294,+0.881,-4.797,-0.203,-1.007,+1.034,-168.580*71
$GPESD,065653.294,0.000,0.000,0.000,0.000,0.000,0.000,0.000,0.000,0.000*79
$GPRMC,065653.397,A,3114.2839463,N,12129.1514351,E,9.27,39.12,210523,0.0,E,A,V*4A
$GPGGA,065653.397,3114.2839463,N,12129.1514351,E,1,25,1.0,1.509,M,11.084,M,0.0,0000*72
$GPESA,065653.397,+0.838,-4.689,-0.197,-1.019,+1.001,-168.553*76
$GPESD,065653.397,0.000,0.000,0.000,0.000,0.000,0.000,0.000,0.000,0.000*7B
$GPRMC,065653.497,A,3114.2836952,N,12129.1514777,E,9.08,39.47,210523,0.0,E,A,V*40
$GPGGA,065653.497,3114.2836952,N,12129.1514777,E,1,25,1.0,1.495,M,11.084,M,0.0,0000*71
$GPESA,065653.497,+0.808,-4.596,-0.203,-1.014,+1.088,-168.516*7C
$GPESD,065653.497,0.000,0.000,0.000,0.000,0.000,0.000,0.000,0.000,0.000*7C
$GPRMC,065653.647,A,3114.2833335,N,12129.1515537,E,8.73,39.22,210523,0.0,E,A,V*48
$GPGGA,065653.647,3114.2833335,N,12129.1515537,E,1,25,1.0,1.468,M,11.084,M,0.0,0000*75
$GPESA,065653.647,+0.798,-4.413,-0.208,-0.975,+1.057,-168.480*71
$GPESD,065653.647,0.000,0.000,0.000,0.000,0.000,0.000,0.000,0.000,0.000*73
$GPRMC,065653.762,A,3114.2830624,N,12129.1516119,E,8.51,38.52,210523,0.0,E,A,V*45
$GPGGA,065653.762,3114.2830624,N,12129.1516119,E,1,25,1.0,1.447,M,11.084,M,0.0,0000*73
$GPESA,065653.762,+0.809,-4.299,-0.195,-0.899,+1.005,-168.377*78
$GPESD,065653.762,0.000,0.000,0.000,0.000,0.000,0.000,0.000,0.000,0.000*75
$GPRMC,065653.895,A,3114.2827663,N,12129.1516653,E,8.24,38.92,210523,0.0,E,A,V*40
$GPGGA,065653.895,3114.2827663,N,12129.1516653,E,1,25,1.0,1.433,M,11.084,M,0.0,0000*7B
$GPESA,065653.895,+0.776,-4.164,-0.208,-0.928,+0.874,-168.270*7C
$GPESD,065653.895,0.000,0.000,0.000,0.000,0.000,0.000,0.000,0.000,0.000*72
$GPRMC,065654.012,A,3114.2825056,N,12129.1517219,E,7.96,39.09,210523,0.0,E,A,V*4C
$GPGGA,065654.012,3114.2825056,N,12129.1517219,E,1,25,1.0,1.409,M,11.084,M,0.0,0000*7B
$GPESA,065654.012,+0.736,-4.024,-0.192,-1.003,+0.797,-168.208*71
$GPESD,065654.012,0.000,0.000,0.000,0.000,0.000,0.000,0.000,0.000,0.000*72
$GPRMC,065654.125,A,3114.2822652,N,12129.1517709,E,7.66,39.21,210523,0.0,E,A,V*4D
$GPGGA,065654.125,3114.2822652,N,12129.1517709,E,1,24,1.0,1.399,M,11.084,M,0.0,0000*70
$GPESA,065654.125,+0.702,-3.874,-0.184,-1.022,+0.759,-168.117*72
$GPESD,065654.125,0.000,0.000,0.000,0.000,0.000,0.000,0.000,0.000,0.000*77
$GPRMC,065654.250,A,3114.2820170,N,12129.1518241,E,7.35,38.68,210523,0.0,E,A,V*45
$GPGGA,065654.250,3114.2820170,N,12129.1518241,E,1,25,1.0,1.386,M,11.084,M,0.0,0000*7D
$GPESA,065654.250,+0.677,-3.717,-0.145,-0.943,+0.703,-167.914*73
$GPESD,065654.250,0.000,0.000,0.000,0.000,0.000,0.000,0.000,0.000,0.000*76
$GPRMC,065654.370,A,3114.2817804,N,12129.1518741,E,7.04,38.95,210523,0.0,E,A,V*4D
$GPGGA,065654.370,3114.2817804,N,12129.1518741,E,1,25,1.0,1.369,M,11.084,M,0.0,0000*74
$GPESA,065654.370,+0.640,-3.564,-0.143,-0.944,+0.763,-167.842*77
$GPESD,065654.370,0.000,0.000,0.000,0.000,0.000,0.000,0.000,0.000,0.000*75
$GPRMC,065654.515,A,3114.2815085,N,12129.1519240,E,6.72,38.53,210523,0.0,E,A,V*44
$GPGGA,065654.515,3114.2815085,N,12129.1519240,E,1,23,1.0,1.350,M,11.084,M,0.0,0000*7B
$GPESA,065654.515,+0.646,-3.391,-0.166,-0.909,+0.833,-167.792*7E
$GPESD,065654.515,0.000,0.000,0.000,0.000,0.000,0.000,0.000,0.000,0.000*70
$GPRMC,065654.665,A,3114.2812408,N,12129.1519843,E,6.43,38.75,210523,0.0,E,A,V*49
$GPGGA,065654.665,3114.2812408,N,12129.1519843,E,1,24,1.0,1.320,M,11.084,M,0.0,0000*70
$GPESA,065654.665,+0.630,-3.242,-0.193,-0.734,+0.725,-167.790*74
$GPESD,065654.665,0.000,0.000,0.000,0.000,0.000,0.000,0.000,0.000,0.000*74
$GPRMC,065654.765,A,3114.2810684,N,12129.1520100,E,6.31,39.29,210523,0.0,E,A,V*45
$GPGGA,065654.765,3114.2810684,N,12129.1520100,E,1,24,1.0,1.314,M,11.084,M,0.0,0000*76
$GPESA,065654.765,+0.584,-3.188,-0.166,-0.665,+0.664,-167.757*7C
$GPESD,065654.765,0.000,0.000,0.000,0.000,0.000,0.000,0.000,0.000,0.000*75
$GPRMC,065654.866,A,3114.2808987,N,12129.1520411,E,6.21,39.58,210523,0.0,E,A,V*4E
$GPGGA,065654.866,3114.2808987,N,12129.1520411,E,1,24,1.0,1.304,M,11.084,M,0.0,0000*7B
$GPESA,065654.866,+0.557,-3.141,-0.152,-0.644,+0.632,-167.702*7C
$GPESD,065654.866,0.000,0.000,0.000,0.000,0.000,0.000,0.000,0.000,0.000*79
$GPRMC,065654.978,A,3114.2807152,N,12129.1520749,E,6.09,39.94,210523,0.0,E,A,V*4B
$GPGGA,065654.978,3114.2807152,N,12129.1520749,E,1,24,1.0,1.288,M,11.084,M,0.0,0000*71
$GPESA,065654.978,+0.532,-3.084,-0.148,-0.605,+0.646,-167.641*72
$GPESD,065654.978,0.000,0.000,0.000,0.000,0.000,0.000,0.000,0.000,0.000*77
$GPRMC,065655.083,A,3114.2805463,N,12129.1521063,E,5.98,40.04,210523,0.0,E,A,V*40
$GPGGA,065655.083,3114.2805463,N,12129.1521063,E,1,24,1.0,1.280,M,11.084,M,0.0,0000*7E
$GPESA,065655.083,+0.516,-3.032,-0.141,-0.594,+0.672,-167.578*79
$GPESD,065655.083,0.000,0.000,0.000,0.000,0.000,0.000,0.000,0.000,0.000*7B
$GPRMC,065655.223,A,3114.2803195,N,12129.1521545,E,5.89,39.51,210523,0.0,E,A,V*4D
$GPGGA,065655.223,3114.2803195,N,12129.1521545,E,1,24,1.0,1.261,M,11.084,M,0.0,0000*72
$GPESA,065655.223,+0.532,-2.981,-0.146,-0.553,+0.776,-167.464*72
$GPESD,065655.223,0.000,0.000,0.000,0.000,0.000,0.000,0.000,0.000,0.000*73
$GPRMC,065655.359,A,3114.2801032,N,12129.1521954,E,5.82,39.06,210523,0.0,E,A,V*4A
$GPGGA,065655.359,3114.2801032,N,12129.1521954,E,1,24,1.0,1.253,M,11.084,M,0.0,0000*7D
$GPESA,065655.359,+0.539,-2.943,-0.140,-0.479,+0.873,-167.368*75
$GPESD,065655.359,0.000,0.000,0.000,0.000,0.000,0.000,0.000,0.000,0.000*7F
$GPRMC,065655.509,A,3114.2798759,N,12129.1522439,E,5.77,37.65,210523,0.0,E,A,V*48
$GPGGA,065655.509,3114.2798759,N,12129.1522439,E,1,24,1.0,1.238,M,11.084,M,0.0,0000*73
$GPESA,065655.509,+0.589,-2.905,-0.151,-0.455,+0.813,-167.509*76
$GPESD,065655.509,0.000,0.000,0.000,0.000,0.000,0.000,0.000,0.000,0.000*7C
$GPRMC,065655.624,A,3114.2796935,N,12129.1522851,E,5.75,37.70,210523,0.0,E,A,V*4A
$GPGGA,065655.624,3114.2796935,N,12129.1522851,E,1,24,1.0,1.221,M,11.084,M,0.0,0000*7F
$GPESA,065655.624,+0.594,-2.891,-0.165,-0.491,+0.662,-167.502*76
$GPESD,065655.624,0.000,0.000,0.000,0.000,0.000,0.000,0.000,0.000,0.000*70
$GPRMC,065655.724,A,3114.2795359,N,12129.1523209,E,5.71,38.38,210523,0.0,E,A,V*49
$GPGGA,065655.724,3114.2795359,N,12129.1523209,E,1,24,1.0,1.212,M,11.084,M,0.0,0000*7B
$GPESA,065655.724,+0.566,-2.879,-0.161,-0.498,+0.592,-167.506*79
$GPESD,065655.724,0.000,0.000,0.000,0.000,0.000,0.000,0.000,0.000,0.000*71
$GPRMC,065655.841,A,3114.2793551,N,12129.1523577,E,5.66,38.46,210523,0.0,E,A,V*4C
$GPGGA,065655.841,3114.2793551,N,12129.1523577,E,1,23,1.0,1.213,M,11.084,M,0.0,0000*77
$GPESA,065655.841,+0.531,-2.860,-0.115,-0.513,+0.597,-167.421*7F
$GPESD,065655.841,0.000,0.000,0.000,0.000,0.000,0.000,0.000,0.000,0.000*7D
$GPRMC,065655.942,A,3114.2792057,N,12129.1523889,E,5.61,37.80,210523,0.0,E,A,V*42
$GPGGA,065655.942,3114.2792057,N,12129.1523889,E,1,23,1.0,1.205,M,11.084,M,0.0,0000*7C
$GPESA,065655.942,+0.545,-2.835,-0.107,-0.494,+0.683,-167.370*76
$GPESD,065655.942,0.000,0.000,0.000,0.000,0.000,0.000,0.000,0.000,0.000*7F
$GPRMC,065656.064,A,3114.2790173,N,12129.1524292,E,5.60,37.41,210523,0.0,E,A,V*42
$GPGGA,065656.064,3114.2790173,N,12129.1524292,E,1,22,1.0,1.202,M,11.084,M,0.0,0000*76
$GPESA,065656.064,+0.547,-2.829,-0.090,-0.552,+0.787,-167.253*76
$GPESD,065656.064,0.000,0.000,0.000,0.000,0.000,0.000,0.000,0.000,0.000*71
$GPRMC,065656.189,A,3114.2788275,N,12129.1524687,E,5.59,37.03,210523,0.0,E,A,V*40
$GPGGA,065656.189,3114.2788275,N,12129.1524687,E,1,22,1.0,1.190,M,11.084,M,0.0,0000*70
$GPESA,065656.189,+0.562,-2.820,-0.096,-0.589,+0.841,-167.196*75
$GPESD,065656.189,0.000,0.000,0.000,0.000,0.000,0.000,0.000,0.000,0.000*73
$GPRMC,065656.294,A,3114.2786734,N,12129.1524984,E,5.53,37.23,210523,0.0,E,A,V*45
$GPGGA,065656.294,3114.2786734,N,12129.1524984,E,1,22,1.0,1.182,M,11.084,M,0.0,0000*7E
$GPESA,065656.294,+0.561,-2.789,-0.114,-0.634,+0.859,-167.149*70
$GPESD,065656.294,0.000,0.000,0.000,0.000,0.000,0.000,0.000,0.000,0.000*7C
$GPRMC,065656.409,A,3114.2784998,N,12129.1525380,E,5.50,36.90,210523,0.0,E,A,V*48
$GPGGA,065656.409,3114.2784998,N,12129.1525380,E,1,22,1.0,1.169,M,11.084,M,0.0,0000*7C
$GPESA,065656.409,+0.573,-2.768,-0.123,-0.650,+0.865,-167.139*70
$GPESD,065656.409,0.000,0.000,0.000,0.000,0.000,0.000,0.000,0.000,0.000*7E
$GPRMC,065656.510,A,3114.2783538,N,12129.1525725,E,5.46,36.46,210523,0.0,E,A,V*47
$GPGGA,065656.510,3114.2783538,N,12129.1525725,E,1,22,1.0,1.168,M,11.084,M,0.0,0000*7E
$GPESA,065656.510,+0.581,-2.744,-0.118,-0.612,+0.784,-167.089*7E
$GPESD,065656.510,0.000,0.000,0.000,0.000,0.000,0.000,0.000,0.000,0.000*77
$GPRMC,065656.650,A,3114.2781525,N,12129.1526149,E,5.41,36.17,210523,0.0,E,A,V*42
$GPGGA,065656.650,3114.2781525,N,12129.1526149,E,1,22,1.0,1.157,M,11.084,M,0.0,0000*74
$GPESA,065656.650,+0.581,-2.721,-0.111,-0.566,+0.754,-167.048*73
