$GPRMC,065616.927,A,3114.3480267,N,12129.1416465,E,8.42,43.07,210523,0.0,E,A,V*4F
$GPGGA,065616.927,3114.3480267,N,12129.1416465,E,1,21,1.0,3.941,M,11.082,M,-85101016.0,0000*6B
$GPESA,065616.927,+0.559,-4.291,-0.189,-0.644,+1.024,-173.393*76
$GPESD,065616.927,0.000,0.000,0.000,0.000,0.000,0.000,0.000,0.000,0.000*7B
$GPRMC,065617.034,A,3114.3478067,N,12129.1416674,E,8.48,44.39,210523,0.0,E,A,V*42
$GPGGA,065617.034,3114.3478067,N,12129.1416674,E,1,21,1.0,3.669,M,11.082,M,-85101016.0,0000*63
$GPESA,065617.034,+0.514,-4.328,-0.225,-0.938,+1.276,-173.609*74
$GPESD,065617.034,0.000,0.000,0.000,0.000,0.000,0.000,0.000,0.000,0.000*71
$GPRMC,065617.202,A,3114.3474329,N,12129.1417081,E,8.59,44.13,210523,0.0,E,A,V*45
$GPGGA,065617.202,3114.3474329,N,12129.1417081,E,1,21,1.0,3.406,M,11.082,M,-85101016.0,0000*67
$GPESA,065617.202,+0.523,-4.385,-0.211,-1.048,+1.239,-173.654*7B
$GPESD,065617.202,0.000,0.000,0.000,0.000,0.000,0.000,0.000,0.000,0.000*76
$GPRMC,065617.327,A,3114.3471927,N,12129.1417572,E,8.66,43.35,210523,0.0,E,A,V*44
$GPGGA,065617.327,3114.3471927,N,12129.1417572,E,1,22,1.0,2.999,M,11.082,M,-85101016.0,0000*60
$GPESA,065617.327,+0.526,-4.424,-0.147,-1.224,+1.123,-173.547*75
$GPESD,065617.327,0.000,0.000,0.000,0.000,0.000,0.000,0.000,0.000,0.000*70
$GPRMC,065617.447,A,3114.3469616,N,12129.1417895,E,8.79,45.89,210523,0.0,E,A,V*4A
$GPGGA,065617.447,3114.3469616,N,12129.1417895,E,1,23,1.0,2.585,M,11.082,M,-85101016.0,0000*61
$GPESA,065617.447,+0.386,-4.505,-0.158,-1.356,+1.565,-173.665*75
$GPESD,065617.447,0.000,0.000,0.000,0.000,0.000,0.000,0.000,0.000,0.000*71
$GPRMC,065617.570,A,3114.3466681,N,12129.1418274,E,8.48,42.08,210523,0.0,E,A,V*48
$GPGGA,065617.570,3114.3466681,N,12129.1418274,E,1,23,1.0,2.562,M,11.082,M,-85101016.0,0000*66
$GPESA,065617.570,+0.611,-4.318,-0.181,-1.102,+1.757,-173.674*75
$GPESD,065617.570,0.000,0.000,0.000,0.000,0.000,0.000,0.000,0.000,0.000*74
$GPRMC,065617.735,A,3114.3463355,N,12129.1418894,E,8.52,43.16,210523,0.0,E,A,V*43
$GPGGA,065617.735,3114.3463355,N,12129.1418894,E,1,20,1.0,2.174,M,11.082,M,-85101016.0,0000*68
$GPESA,065617.735,+0.461,-4.361,-0.051,-0.650,+0.645,-173.762*75
$GPESD,065617.735,0.000,0.000,0.000,0.000,0.000,0.000,0.000,0.000,0.000*77
$GPRMC,065617.875,A,3114.3460279,N,12129.1419228,E,8.64,46.83,210523,0.0,E,A,V*44
$GPGGA,065617.875,3114.3460279,N,12129.1419228,E,1,21,1.0,1.877,M,11.082,M,-85101016.0,0000*6B
$GPESA,065617.875,+0.335,-4.429,-0.173,-0.766,+0.527,-173.878*75
$GPESD,065617.875,0.000,0.000,0.000,0.000,0.000,0.000,0.000,0.000,0.000*7C
$GPRMC,065617.993,A,3114.3457556,N,12129.1419621,E,8.82,46.29,210523,0.0,E,A,V*46
$GPGGA,065617.993,3114.3457556,N,12129.1419621,E,1,21,1.0,1.736,M,11.082,M,-85101016.0,0000*6B
$GPESA,065617.993,+0.350,-4.519,-0.143,-0.773,+0.548,-173.927*78
$GPESD,065617.993,0.000,0.000,0.000,0.000,0.000,0.000,0.000,0.000,0.000*75
$GPRMC,065618.145,A,3114.3453892,N,12129.1420030,E,8.99,44.68,210523,0.0,E,A,V*4A
$GPGGA,065618.145,3114.3453892,N,12129.1420030,E,1,21,1.0,1.608,M,11.082,M,-85101016.0,0000*66
$GPESA,065618.145,+0.475,-4.599,-0.168,-1.168,+0.670,-173.996*7A
$GPESD,065618.145,0.000,0.000,0.000,0.000,0.000,0.000,0.000,0.000,0.000*79
$GPRMC,065618.245,A,3114.3451422,N,12129.1420383,E,9.00,44.49,210523,0.0,E,A,V*45
$GPGGA,065618.245,3114.3451422,N,12129.1420383,E,1,21,1.0,1.494,M,11.082,M,-85101016.0,0000*6C
$GPESA,065618.245,+0.516,-4.599,-0.207,-1.396,+0.727,-173.972*7D
$GPESD,065618.245,0.000,0.000,0.000,0.000,0.000,0.000,0.000,0.000,0.000*7A
$GPRMC,065618.368,A,3114.3448776,N,12129.1421206,E,9.02,44.03,210523,0.0,E,A,V*40
$GPGGA,065618.368,3114.3448776,N,12129.1421206,E,1,21,1.0,1.339,M,11.082,M,-85101016.0,0000*65
$GPESA,065618.368,+0.534,-4.606,-0.192,-1.372,+0.695,-173.985*73
$GPESD,065618.368,0.000,0.000,0.000,0.000,0.000,0.000,0.000,0.000,0.000*74
$GPRMC,065618.498,A,3114.3445772,N,12129.1422105,E,9.09,45.47,210523,0.0,E,A,V*48
$GPGGA,065618.498,3114.3445772,N,12129.1422105,E,1,22,1.0,1.285,M,11.082,M,-85101016.0,0000*62
$GPESA,065618.498,+0.494,-4.645,-0.252,-1.205,+0.702,-173.990*72
$GPESD,065618.498,0.000,0.000,0.000,0.000,0.000,0.000,0.000,0.000,0.000*7C
$GPRMC,065618.626,A,3114.3442712,N,12129.1422973,E,9.22,44.76,210523,0.0,E,A,V*4D
$GPGGA,065618.626,3114.3442712,N,12129.1422973,E,1,21,1.0,1.261,M,11.082,M,-85101016.0,0000*64
$GPESA,065618.626,+0.537,-4.705,-0.246,-1.285,+0.535,-174.015*70
$GPESD,065618.626,0.000,0.000,0.000,0.000,0.000,0.000,0.000,0.000,0.000*7B
$GPRMC,065618.748,A,3114.3439837,N,12129.1424128,E,9.29,44.13,210523,0.0,E,A,V*48
$GPGGA,065618.748,3114.3439837,N,12129.1424128,E,1,21,1.0,1.307,M,11.082,M,-85101016.0,0000*68
$GPESA,065618.748,+0.576,-4.736,-0.242,-1.206,+0.541,-174.026*70
$GPESD,065618.748,0.000,0.000,0.000,0.000,0.000,0.000,0.000,0.000,0.000*72
$GPRMC,065618.856,A,3114.3437242,N,12129.1424906,E,9.35,43.52,210523,0.0,E,A,V*45
$GPGGA,065618.856,3114.3437242,N,12129.1424906,E,1,22,1.0,1.342,M,11.082,M,-85101016.0,0000*68
$GPESA,065618.856,+0.611,-4.766,-0.235,-1.216,+0.496,-173.986*79
$GPESD,065618.856,0.000,0.000,0.000,0.000,0.000,0.000,0.000,0.000,0.000*72
$GPRMC,065618.968,A,3114.3434331,N,12129.1425436,E,9.47,43.18,210523,0.0,E,A,V*4B
$GPGGA,065618.968,3114.3434331,N,12129.1425436,E,1,20,1.0,1.379,M,11.082,M,-85101016.0,0000*67
$GPESA,065618.968,+0.670,-4.816,-0.281,-1.285,+0.448,-173.977*72
$GPESD,065618.968,0.000,0.000,0.000,0.000,0.000,0.000,0.000,0.000,0.000*7E
$GPRMC,065619.074,A,3114.3431553,N,12129.1425850,E,9.45,42.64,210523,0.0,E,A,V*4D
$GPGGA,065619.074,3114.3431553,N,12129.1425850,E,1,19,1.0,1.415,M,11.082,M,-85101016.0,0000*6E
$GPESA,065619.074,+0.697,-4.804,-0.274,-1.341,+0.315,-173.947*72
$GPESD,065619.074,0.000,0.000,0.000,0.000,0.000,0.000,0.000,0.000,0.000*7B
$GPRMC,065619.191,A,3114.3428482,N,12129.1426365,E,9.53,43.58,210523,0.0,E,A,V*45
$GPGGA,065619.191,3114.3428482,N,12129.1426365,E,1,19,1.0,1.380,M,11.082,M,-85101016.0,0000*64
$GPESA,065619.191,+0.657,-4.850,-0.292,-1.288,+0.133,-173.956*7F
$GPESD,065619.191,0.000,0.000,0.000,0.000,0.000,0.000,0.000,0.000,0.000*71
$GPRMC,065619.309,A,3114.3425465,N,12129.1426842,E,9.55,43.52,210523,0.0,E,A,V*40
$GPGGA,065619.309,3114.3425465,N,12129.1426842,E,1,22,1.0,1.428,M,11.082,M,-85101016.0,0000*60
$GPESA,065619.309,+0.656,-4.861,-0.285,-1.208,+0.288,-173.924*77
$GPESD,065619.309,0.000,0.000,0.000,0.000,0.000,0.000,0.000,0.000,0.000*72
$GPRMC,065619.409,A,3114.3422823,N,12129.1427296,E,9.63,42.76,210523,0.0,E,A,V*4E
$GPGGA,065619.409,3114.3422823,N,12129.1427296,E,1,22,1.0,1.446,M,11.082,M,-85101016.0,0000*64
$GPESA,065619.409,+0.700,-4.899,-0.274,-1.189,+0.408,-173.927*7C
$GPESD,065619.409,0.000,0.000,0.000,0.000,0.000,0.000,0.000,0.000,0.000*75
$GPRMC,065619.529,A,3114.3419614,N,12129.1427914,E,9.66,41.74,210523,0.0,E,A,V*4A
$GPGGA,065619.529,3114.3419614,N,12129.1427914,E,1,22,1.0,1.470,M,11.082,M,-85101016.0,0000*61
$GPESA,065619.529,+0.802,-4.894,-0.331,-1.091,+0.316,-173.865*78
$GPESD,065619.529,0.000,0.000,0.000,0.000,0.000,0.000,0.000,0.000,0.000*76
$GPRMC,065619.644,A,3114.3416552,N,12129.1428560,E,9.85,39.60,210523,0.0,E,A,V*4B
$GPGGA,065619.644,3114.3416552,N,12129.1428560,E,1,21,1.0,1.506,M,11.082,M,-85101016.0,0000*64
$GPESA,065619.644,+0.908,-4.975,-0.282,-1.087,+0.045,-173.842*7B
$GPESD,065619.644,0.000,0.000,0.000,0.000,0.000,0.000,0.000,0.000,0.000*7E
$GPRMC,065619.762,A,3114.3413400,N,12129.1429144,E,9.85,42.98,210523,0.0,E,A,V*45
$GPGGA,065619.762,3114.3413400,N,12129.1429144,E,1,21,1.0,1.548,M,11.082,M,-85101016.0,0000*6B
$GPESA,065619.762,+0.723,-5.006,-0.310,-1.164,-0.105,-173.708*71
$GPESD,065619.762,0.000,0.000,0.000,0.000,0.000,0.000,0.000,0.000,0.000*7B
$GPRMC,065619.867,A,3114.3410758,N,12129.1430330,E,9.81,43.27,210523,0.0,E,A,V*4A
$GPGGA,065619.867,3114.3410758,N,12129.1430330,E,1,21,1.0,1.655,M,11.082,M,-85101016.0,0000*6A
$GPESA,065619.867,+0.719,-4.986,-0.333,-1.187,+0.199,-173.595*7B
$GPESD,065619.867,0.000,0.000,0.000,0.000,0.000,0.000,0.000,0.000,0.000*71
$GPRMC,065619.999,A,3114.3407308,N,12129.1431363,E,9.79,41.31,210523,0.0,E,A,V*48
$GPGGA,065619.999,3114.3407308,N,12129.1431363,E,1,21,1.0,1.833,M,11.082,M,-85101016.0,0000*64
$GPESA,065619.999,+0.812,-4.961,-0.297,-1.236,+0.191,-173.511*74
$GPESD,065619.999,0.000,0.000,0.000,0.000,0.000,0.000,0.000,0.000,0.000*71
$GPRMC,065620.137,A,3114.3403579,N,12129.1431981,E,9.77,40.89,210523,0.0,E,A,V*40
$GPGGA,065620.137,3114.3403579,N,12129.1431981,E,1,21,1.0,1.863,M,11.082,M,-85101016.0,0000*65
$GPESA,065620.137,+0.839,-4.949,-0.302,-1.170,+0.285,-173.405*7F
$GPESD,065620.137,0.000,0.000,0.000,0.000,0.000,0.000,0.000,0.000,0.000*77
$GPRMC,065620.252,A,3114.3400464,N,12129.1432338,E,9.76,41.50,210523,0.0,E,A,V*41
$GPGGA,065620.252,3114.3400464,N,12129.1432338,E,1,21,1.0,1.892,M,11.082,M,-85101016.0,0000*6E
$GPESA,065620.252,+0.814,-4.946,-0.319,-1.130,+0.236,-173.388*7B
$GPESD,065620.252,0.000,0.000,0.000,0.000,0.000,0.000,0.000,0.000,0.000*77
$GPRMC,065620.370,A,3114.3397335,N,12129.1432530,E,9.71,41.95,210523,0.0,E,A,V*4A
$GPGGA,065620.370,3114.3397335,N,12129.1432530,E,1,21,1.0,1.946,M,11.082,M,-85101016.0,0000*63
$GPESA,065620.370,+0.778,-4.926,-0.310,-1.055,+0.333,-173.245*76
$GPESD,065620.370,0.000,0.000,0.000,0.000,0.000,0.000,0.000,0.000,0.000*76
$GPRMC,065620.522,A,3114.3393414,N,12129.1433273,E,9.71,41.59,210523,0.0,E,A,V*4A
$GPGGA,065620.522,3114.3393414,N,12129.1433273,E,1,22,1.0,1.938,M,11.082,M,-85101016.0,0000*69
$GPESA,065620.522,+0.804,-4.918,-0.317,-1.074,+0.357,-173.102*78
$GPESD,065620.522,0.000,0.000,0.000,0.000,0.000,0.000,0.000,0.000,0.000*77
$GPRMC,065620.655,A,3114.3389911,N,12129.1433870,E,9.65,41.13,210523,0.0,E,A,V*48
$GPGGA,065620.655,3114.3389911,N,12129.1433870,E,1,23,1.0,1.934,M,11.082,M,-85101016.0,0000*6D
$GPESA,065620.655,+0.826,-4.886,-0.314,-1.125,+0.372,-172.987*78
$GPESD,065620.655,0.000,0.000,0.000,0.000,0.000,0.000,0.000,0.000,0.000*74
$GPRMC,065620.773,A,3114.3386846,N,12129.1434031,E,9.54,40.59,210523,0.0,E,A,V*46
$GPGGA,065620.773,3114.3386846,N,12129.1434031,E,1,23,1.0,1.960,M,11.082,M,-85101016.0,0000*6F
$GPESA,065620.773,+0.833,-4.830,-0.289,-1.158,+0.433,-172.846*75
$GPESD,065620.773,0.000,0.000,0.000,0.000,0.000,0.000,0.000,0.000,0.000*71
$GPRMC,065620.885,A,3114.3383974,N,12129.1434325,E,9.36,41.24,210523,0.0,E,A,V*4C
$GPGGA,065620.885,3114.3383974,N,12129.1434325,E,1,23,1.0,1.941,M,11.082,M,-85101016.0,0000*69
$GPESA,065620.885,+0.788,-4.742,-0.294,-1.217,+0.430,-172.772*79
$GPESD,065620.885,0.000,0.000,0.000,0.000,0.000,0.000,0.000,0.000,0.000*77
$GPRMC,065621.038,A,3114.3380148,N,12129.1434770,E,9.06,41.39,210523,0.0,E,A,V*4C
$GPGGA,065621.038,3114.3380148,N,12129.1434770,E,1,23,1.0,1.905,M,11.082,M,-85101016.0,0000*66
$GPESA,065621.038,+0.770,-4.588,-0.309,-1.314,+0.522,-172.672*71
$GPESD,065621.038,0.000,0.000,0.000,0.000,0.000,0.000,0.000,0.000,0.000*78
$GPRMC,065621.170,A,3114.3376905,N,12129.1435422,E,8.81,40.74,210523,0.0,E,A,V*4A
$GPGGA,065621.170,3114.3376905,N,12129.1435422,E,1,23,1.0,1.862,M,11.082,M,-85101016.0,0000*66
$GPESA,065621.170,+0.799,-4.448,-0.325,-1.385,+0.534,-172.652*75
$GPESD,065621.170,0.000,0.000,0.000,0.000,0.000,0.000,0.000,0.000,0.000*75
$GPRMC,065621.303,A,3114.3373812,N,12129.1435226,E,8.54,40.41,210523,0.0,E,A,V*42
$GPGGA,065621.303,3114.3373812,N,12129.1435226,E,1,24,1.0,1.842,M,11.082,M,-85101016.0,0000*65
$GPESA,065621.303,+0.774,-4.318,-0.287,-1.401,+0.553,-172.526*71
$GPESD,065621.303,0.000,0.000,0.000,0.000,0.000,0.000,0.000,0.000,0.000*73
$GPRMC,065621.431,A,3114.3370941,N,12129.1435583,E,8.26,40.78,210523,0.0,E,A,V*47
$GPGGA,065621.431,3114.3370941,N,12129.1435583,E,1,24,1.0,1.810,M,11.082,M,-85101016.0,0000*68
$GPESA,065621.431,+0.737,-4.176,-0.288,-1.406,+0.495,-172.459*70
$GPESD,065621.431,0.000,0.000,0.000,0.000,0.000,0.000,0.000,0.000,0.000*75
$GPRMC,065621.533,A,3114.3368735,N,12129.1435796,E,8.02,40.96,210523,0.0,E,A,V*40
$GPGGA,065621.533,3114.3368735,N,12129.1435796,E,1,24,1.0,1.785,M,11.082,M,-85101016.0,0000*6A
$GPESA,065621.533,+0.709,-4.056,-0.283,-1.408,+0.579,-172.371*76
$GPESD,065621.533,0.000,0.000,0.000,0.000,0.000,0.000,0.000,0.000,0.000*76
$GPRMC,065621.643,A,3114.3368483,N,12129.1435748,E,7.25,40.76,210523,0.0,E,A,V*4D
$GPGGA,065621.643,3114.3368483,N,12129.1435748,E,1,24,1.0,1.816,M,11.082,M,-85101016.0,0000*66
$GPESA,065621.643,+0.653,-3.662,-0.261,-0.740,+0.679,-172.287*73
$GPESD,065621.643,0.000,0.000,0.000,0.000,0.000,0.000,0.000,0.000,0.000*72
$GPRMC,065621.743,A,3114.3368473,N,12129.1435737,E,6.49,40.32,210523,0.0,E,A,V*40
$GPGGA,065621.743,3114.3368473,N,12129.1435737,E,1,24,1.0,1.843,M,11.082,M,-85101016.0,0000*60
$GPESA,065621.743,+0.614,-3.273,-0.253,-0.093,+0.743,-172.201*7B
$GPESD,065621.743,0.000,0.000,0.000,0.000,0.000,0.000,0.000,0.000,0.000*73
$GPRMC,065621.874,A,3114.3369799,N,12129.1435524,E,5.20,38.90,210523,0.0,E,A,V*46
$GPGGA,065621.874,3114.3369799,N,12129.1435524,E,1,24,1.0,1.904,M,11.082,M,-85101016.0,0000*6F
$GPESA,065621.874,+0.558,-2.607,-0.242,+1.108,+0.737,-172.073*7D
$GPESD,065621.874,0.000,0.000,0.000,0.000,0.000,0.000,0.000,0.000,0.000*78
$GPRMC,065621.974,A,3114.3369923,N,12129.1435512,E,4.47,38.82,210523,0.0,E,A,V*4E
$GPGGA,065621.974,3114.3369923,N,12129.1435512,E,1,25,1.0,1.920,M,11.082,M,-85101016.0,0000*63
$GPESA,065621.974,+0.505,-2.231,-0.246,+1.676,+0.716,-172.003*7B
$GPESD,065621.974,0.000,0.000,0.000,0.000,0.000,0.000,0.000,0.000,0.000*79
$GPRMC,065622.074,A,3114.3368754,N,12129.1435826,E,4.20,38.80,210523,0.0,E,A,V*42
$GPGGA,065622.074,3114.3368754,N,12129.1435826,E,1,25,1.0,1.895,M,11.082,M,-85101016.0,0000*63
$GPESA,065622.074,+0.491,-2.086,-0.259,+1.756,+0.683,-171.944*7A
$GPESD,065622.074,0.000,0.000,0.000,0.000,0.000,0.000,0.000,0.000,0.000*73
$GPRMC,065622.184,A,3114.3372502,N,12129.1434893,E,0.84,38.80,210523,0.0,E,A,V*43
$GPGGA,065622.184,3114.3372502,N,12129.1434893,E,1,24,1.0,1.971,M,11.082,M,-85101016.0,0000*62
$GPESA,065622.184,-0.035,+0.430,-0.046,+2.466,+0.731,-171.833*73
$GPESD,065622.184,0.000,0.000,0.000,0.000,0.000,0.000,0.000,0.000,0.000*7D
$GPRMC,065622.324,A,3114.3371465,N,12129.1435258,E,2.04,32.96,210523,0.0,E,A,V*43
$GPGGA,065622.324,3114.3371465,N,12129.1435258,E,1,24,1.0,1.977,M,11.082,M,-85101016.0,0000*63
$GPESA,065622.324,+0.349,-0.959,-0.240,+3.785,+0.830,-171.630*79
$GPESD,065622.324,0.000,0.000,0.000,0.000,0.000,0.000,0.000,0.000,0.000*75
$GPRMC,065622.472,A,3114.3372395,N,12129.1435132,E,1.18,32.96,210523,0.0,E,A,V*4D
$GPGGA,065622.472,3114.3372395,N,12129.1435132,E,1,23,1.0,2.006,M,11.082,M,-85101016.0,0000*68
$GPESA,065622.472,+0.310,-0.456,-0.249,+4.514,+0.857,-171.461*70
$GPESD,065622.472,0.000,0.000,0.000,0.000,0.000,0.000,0.000,0.000,0.000*71
$GPRMC,065622.592,A,3114.3374797,N,12129.1434278,E,0.62,32.96,210523,0.0,E,A,V*42
$GPGGA,065622.592,3114.3374797,N,12129.1434278,E,1,24,1.0,2.191,M,11.082,M,-85101016.0,0000*63
$GPESA,065622.592,+0.158,+0.193,-0.202,+5.659,+0.959,-171.021*70
$GPESD,065622.592,0.000,0.000,0.000,0.000,0.000,0.000,0.000,0.000,0.000*7E
$GPRMC,065622.704,A,3114.3374977,N,12129.1434383,E,0.93,32.96,210523,0.0,E,A,V*44
$GPGGA,065622.704,3114.3374977,N,12129.1434383,E,1,24,1.0,2.167,M,11.082,M,-85101016.0,0000*62
$GPESA,065622.704,+0.136,+0.402,-0.224,+5.788,+0.896,-170.945*79
$GPESD,065622.704,0.000,0.000,0.000,0.000,0.000,0.000,0.000,0.000,0.000*73
$GPRMC,065622.839,A,3114.3374782,N,12129.1433773,E,1.38,32.96,210523,0.0,E,A,V*4D
$GPGGA,065622.839,3114.3374782,N,12129.1433773,E,1,24,1.0,2.391,M,11.082,M,-85101016.0,0000*60
$GPESA,065622.839,-0.043,+0.695,-0.144,+5.883,+1.119,-170.427*76
$GPESD,065622.839,0.000,0.000,0.000,0.000,0.000,0.000,0.000,0.000,0.000*72
$GPRMC,065622.970,A,3114.3374684,N,12129.1433741,E,1.90,32.96,210523,0.0,E,A,V*45
$GPGGA,065622.970,3114.3374684,N,12129.1433741,E,1,24,1.0,2.421,M,11.082,M,-85101016.0,0000*66
$GPESA,065622.970,-0.099,+0.960,-0.148,+5.796,+1.222,-170.369*79
$GPESD,065622.970,0.000,0.000,0.000,0.000,0.000,0.000,0.000,0.000,0.000*7E
$GPRMC,065623.107,A,3114.3374948,N,12129.1433696,E,2.57,216.90,210523,0.0,E,A,V*72
$GPGGA,065623.107,3114.3374948,N,12129.1433696,E,1,24,1.0,2.415,M,11.082,M,-85101016.0,0000*6C
$GPESA,065623.107,-0.119,+1.303,-0.190,+5.919,+1.214,-170.429*7D
$GPESD,065623.107,0.000,0.000,0.000,0.000,0.000,0.000,0.000,0.000,0.000*77
$GPRMC,065623.282,A,3114.3375529,N,12129.1433572,E,3.32,217.17,210523,0.0,E,A,V*73
$GPGGA,065623.282,3114.3375529,N,12129.1433572,E,1,24,1.0,2.366,M,11.082,M,-85101016.0,0000*62
$GPESA,065623.282,-0.165,+1.688,-0.217,+6.134,+1.124,-170.493*77
$GPESD,065623.282,0.000,0.000,0.000,0.000,0.000,0.000,0.000,0.000,0.000*79
$GPRMC,065623.415,A,3114.3376861,N,12129.1433418,E,3.98,217.32,210523,0.0,E,A,V*73
$GPGGA,065623.415,3114.3376861,N,12129.1433418,E,1,24,1.0,2.336,M,11.082,M,-85101016.0,0000*60
$GPESA,065623.415,-0.201,+2.022,-0.248,+6.292,+1.111,-170.435*74
$GPESD,065623.415,0.000,0.000,0.000,0.000,0.000,0.000,0.000,0.000,0.000*71
$GPRMC,065623.515,A,3114.3377101,N,12129.1433327,E,4.37,217.95,210523,0.0,E,A,V*78
$GPGGA,065623.515,3114.3377101,N,12129.1433327,E,1,24,1.0,2.283,M,11.082,M,-85101016.0,0000*6B
$GPESA,065623.515,-0.201,+2.223,-0.270,+6.399,+1.035,-170.570*70
$GPESD,065623.515,0.000,0.000,0.000,0.000,0.000,0.000,0.000,0.000,0.000*70
$GPRMC,065623.640,A,3114.3378149,N,12129.1433719,E,4.81,218.16,210523,0.0,E,A,V*78
$GPGGA,065623.640,3114.3378149,N,12129.1433719,E,1,25,1.0,2.287,M,11.082,M,-85101016.0,0000*67
$GPESA,065623.640,-0.220,+2.450,-0.288,+6.574,+1.010,-170.591*78
$GPESD,065623.640,0.000,0.000,0.000,0.000,0.000,0.000,0.000,0.000,0.000*73
$GPRMC,065640.971,A,3114.3202043,N,12129.1450816,E,8.03,43.15,210523,0.0,E,A,V*4B
$GPGGA,065640.971,3114.3202043,N,12129.1450816,E,1,21,1.0,2.655,M,11.083,M,0.0,0000*74
$GPESA,065640.971,+0.478,-4.102,-0.109,-0.840,+1.582,-173.340*78
$GPESD,065640.971,0.000,0.000,0.000,0.000,0.000,0.000,0.000,0.000,0.000*7B
$GPRMC,065641.118,A,3114.3198859,N,12129.1451476,E,8.25,43.13,210523,0.0,E,A,V*47
$GPGGA,065641.118,3114.3198859,N,12129.1451476,E,1,21,1.0,2.661,M,11.083,M,0.0,0000*7D
$GPESA,065641.118,+0.473,-4.216,-0.085,-0.662,+1.834,-173.512*79
$GPESD,065641.118,0.000,0.000,0.000,0.000,0.000,0.000,0.000,0.000,0.000*7D
$GPRMC,065641.221,A,3114.3196492,N,12129.1451792,E,8.44,43.29,210523,0.0,E,A,V*4C
$GPGGA,065641.221,3114.3196492,N,12129.1451792,E,1,21,1.0,2.651,M,11.083,M,0.0,0000*7B
$GPESA,065641.221,+0.491,-4.314,-0.109,-0.657,+1.768,-173.597*77
$GPESD,065641.221,0.000,0.000,0.000,0.000,0.000,0.000,0.000,0.000,0.000*74
$GPRMC,065641.351,A,3114.3193604,N,12129.1452695,E,8.64,43.15,210523,0.0,E,A,V*4A
$GPGGA,065641.351,3114.3193604,N,12129.1452695,E,1,21,1.0,2.654,M,11.083,M,0.0,0000*75
$GPESA,065641.351,+0.515,-4.416,-0.117,-0.553,+1.583,-173.767*7B
$GPESD,065641.351,0.000,0.000,0.000,0.000,0.000,0.000,0.000,0.000,0.000*72
$GPRMC,065641.526,A,3114.3189365,N,12129.1453549,E,8.96,43.50,210523,0.0,E,A,V*4A
$GPGGA,065641.526,3114.3189365,N,12129.1453549,E,1,21,1.0,2.644,M,11.083,M,0.0,0000*78
$GPESA,065641.526,+0.515,-4.577,-0.126,-0.760,+1.505,-173.831*79
$GPESD,065641.526,0.000,0.000,0.000,0.000,0.000,0.000,0.000,0.000,0.000*74
$GPRMC,065641.651,A,3114.3186290,N,12129.1454131,E,9.10,43.96,210523,0.0,E,A,V*44
$GPGGA,065641.651,3114.3186290,N,12129.1454131,E,1,21,1.0,2.640,M,11.083,M,0.0,0000*77
$GPESA,065641.651,+0.507,-4.650,-0.145,-0.802,+1.585,-173.865*78
$GPESD,065641.651,0.000,0.000,0.000,0.000,0.000,0.000,0.000,0.000,0.000*77
$GPRMC,065641.751,A,3114.3183809,N,12129.1454663,E,9.19,43.46,210523,0.0,E,A,V*4E
$GPGGA,065641.751,3114.3183809,N,12129.1454663,E,1,21,1.0,2.641,M,11.083,M,0.0,0000*78
$GPESA,065641.751,+0.536,-4.696,-0.136,-0.844,+1.581,-173.855*70
$GPESD,065641.751,0.000,0.000,0.000,0.000,0.000,0.000,0.000,0.000,0.000*76
$GPRMC,065641.871,A,3114.3180754,N,12129.1455334,E,9.28,43.06,210523,0.0,E,A,V*47
$GPGGA,065641.871,3114.3180754,N,12129.1455334,E,1,21,1.0,2.628,M,11.083,M,0.0,0000*78
$GPESA,065641.871,+0.586,-4.738,-0.164,-1.008,+1.356,-173.824*7F
$GPESD,065641.871,0.000,0.000,0.000,0.000,0.000,0.000,0.000,0.000,0.000*7B
$GPRMC,065641.982,A,3114.3177934,N,12129.1455912,E,9.31,42.84,210523,0.0,E,A,V*47
$GPGGA,065641.982,3114.3177934,N,12129.1455912,E,1,21,1.0,2.618,M,11.083,M,0.0,0000*78
$GPESA,065641.982,+0.609,-4.748,-0.176,-1.084,+1.199,-173.795*72
$GPESD,065641.982,0.000,0.000,0.000,0.000,0.000,0.000,0.000,0.000,0.000*76
$GPRMC,065642.117,A,3114.3174433,N,12129.1456415,E,9.36,43.73,210523,0.0,E,A,V*4E
$GPGGA,065642.117,3114.3174433,N,12129.1456415,E,1,21,1.0,2.597,M,11.083,M,0.0,0000*7B
$GPESA,065642.117,+0.573,-4.775,-0.199,-1.074,+1.239,-173.753*78
$GPESD,065642.117,0.000,0.000,0.000,0.000,0.000,0.000,0.000,0.000,0.000*71
$GPRMC,065642.224,A,3114.3171624,N,12129.1456810,E,9.38,43.75,210523,0.0,E,A,V*4D
$GPGGA,065642.224,3114.3171624,N,12129.1456810,E,1,21,1.0,2.581,M,11.083,M,0.0,0000*77
$GPESA,065642.224,+0.580,-4.788,-0.210,-1.086,+1.296,-173.709*70
$GPESD,065642.224,0.000,0.000,0.000,0.000,0.000,0.000,0.000,0.000,0.000*72
$GPRMC,065642.337,A,3114.3168686,N,12129.1457231,E,9.42,43.60,210523,0.0,E,A,V*4F
$GPGGA,065642.337,3114.3168686,N,12129.1457231,E,1,21,1.0,2.565,M,11.083,M,0.0,0000*76
$GPESA,065642.337,+0.600,-4.802,-0.222,-1.093,+1.301,-173.661*70
$GPESD,065642.337,0.000,0.000,0.000,0.000,0.000,0.000,0.000,0.000,0.000*71
$GPRMC,065642.485,A,3114.3164814,N,12129.1457836,E,9.44,43.52,210523,0.0,E,A,V*42
$GPGGA,065642.485,3114.3164814,N,12129.1457836,E,1,21,1.0,2.545,M,11.083,M,0.0,0000*7E
$GPESA,065642.485,+0.617,-4.813,-0.237,-1.134,+1.206,-173.629*7A
$GPESD,065642.485,0.000,0.000,0.000,0.000,0.000,0.000,0.000,0.000,0.000*7F
$GPRMC,065642.615,A,3114.3161446,N,12129.1458404,E,9.41,42.81,210523,0.0,E,A,V*4F
$GPGGA,065642.615,3114.3161446,N,12129.1458404,E,1,21,1.0,2.521,M,11.083,M,0.0,0000*7B
$GPESA,065642.615,+0.658,-4.793,-0.236,-1.123,+1.077,-173.577*76
$GPESD,065642.615,0.000,0.000,0.000,0.000,0.000,0.000,0.000,0.000,0.000*74
$GPRMC,065642.757,A,3114.3157783,N,12129.1459003,E,9.41,42.62,210523,0.0,E,A,V*48
$GPGGA,065642.757,3114.3157783,N,12129.1459003,E,1,20,1.0,2.509,M,11.083,M,0.0,0000*7A
$GPESA,065642.757,+0.665,-4.787,-0.230,-1.074,+1.037,-173.457*78
$GPESD,065642.757,0.000,0.000,0.000,0.000,0.000,0.000,0.000,0.000,0.000*73
$GPRMC,065642.880,A,3114.3154596,N,12129.1459542,E,9.39,42.51,210523,0.0,E,A,V*47
$GPGGA,065642.880,3114.3154596,N,12129.1459542,E,1,20,1.0,2.486,M,11.083,M,0.0,0000*7C
$GPESA,065642.880,+0.693,-4.775,-0.262,-1.182,+1.009,-173.417*7F
$GPESD,065642.880,0.000,0.000,0.000,0.000,0.000,0.000,0.000,0.000,0.000*76
$GPRMC,065643.015,A,3114.3151125,N,12129.1460109,E,9.35,42.50,210523,0.0,E,A,V*47
$GPGGA,065643.015,3114.3151125,N,12129.1460109,E,1,20,1.0,2.461,M,11.083,M,0.0,0000*78
$GPESA,065643.015,+0.698,-4.752,-0.271,-1.140,+1.007,-173.336*72
$GPESD,065643.015,0.000,0.000,0.000,0.000,0.000,0.000,0.000,0.000,0.000*73
$GPRMC,065643.163,A,3114.3147341,N,12129.1460761,E,9.34,42.27,210523,0.0,E,A,V*49
$GPGGA,065643.163,3114.3147341,N,12129.1460761,E,1,20,1.0,2.434,M,11.083,M,0.0,0000*77
$GPESA,065643.163,+0.705,-4.747,-0.262,-1.094,+0.985,-173.330*7D
$GPESD,065643.163,0.000,0.000,0.000,0.000,0.000,0.000,0.000,0.000,0.000*73
$GPRMC,065643.283,A,3114.3144385,N,12129.1461120,E,9.23,42.52,210523,0.0,E,A,V*49
$GPGGA,065643.283,3114.3144385,N,12129.1461120,E,1,20,1.0,2.470,M,11.083,M,0.0,0000*73
$GPESA,065643.283,+0.679,-4.691,-0.254,-1.014,+1.008,-173.330*70
$GPESD,065643.283,0.000,0.000,0.000,0.000,0.000,0.000,0.000,0.000,0.000*7E
$GPRMC,065643.383,A,3114.3141864,N,12129.1461470,E,9.18,42.49,210523,0.0,E,A,V*4B
$GPGGA,065643.383,3114.3141864,N,12129.1461470,E,1,20,1.0,2.489,M,11.083,M,0.0,0000*75
$GPESA,065643.383,+0.680,-4.668,-0.257,-0.960,+1.008,-173.343*7D
$GPESD,065643.383,0.000,0.000,0.000,0.000,0.000,0.000,0.000,0.000,0.000*7F
$GPRMC,065643.510,A,3114.3138659,N,12129.1462020,E,9.14,42.16,210523,0.0,E,A,V*4D
$GPGGA,065643.510,3114.3138659,N,12129.1462020,E,1,20,1.0,2.466,M,11.083,M,0.0,0000*74
$GPESA,065643.510,+0.713,-4.638,-0.282,-0.817,+0.834,-173.287*79
$GPESD,065643.510,0.000,0.000,0.000,0.000,0.000,0.000,0.000,0.000,0.000*73
$GPRMC,065643.643,A,3114.3135333,N,12129.1462593,E,9.16,41.95,210523,0.0,E,A,V*4B
$GPGGA,065643.643,3114.3135333,N,12129.1462593,E,1,20,1.0,2.444,M,11.083,M,0.0,0000*78
$GPESA,065643.643,+0.721,-4.649,-0.274,-0.754,+0.677,-173.285*71
$GPESD,065643.643,0.000,0.000,0.000,0.000,0.000,0.000,0.000,0.000,0.000*76
$GPRMC,065643.783,A,3114.3131816,N,12129.1463144,E,9.31,43.48,210523,0.0,E,A,V*46
$GPGGA,065643.783,3114.3131816,N,12129.1463144,E,1,21,1.0,2.451,M,11.083,M,0.0,0000*77
$GPESA,065643.783,+0.659,-4.732,-0.301,-0.798,+0.847,-173.271*7A
$GPESD,065643.783,0.000,0.000,0.000,0.000,0.000,0.000,0.000,0.000,0.000*7B
$GPRMC,065643.918,A,3114.3128367,N,12129.1463718,E,9.44,42.99,210523,0.0,E,A,V*4F
$GPGGA,065643.918,3114.3128367,N,12129.1463718,E,1,21,1.0,2.473,M,11.083,M,0.0,0000*71
$GPESA,065643.918,+0.702,-4.795,-0.312,-0.808,+0.967,-173.147*75
$GPESD,065643.918,0.000,0.000,0.000,0.000,0.000,0.000,0.000,0.000,0.000*77
$GPRMC,065644.058,A,3114.3124670,N,12129.1464341,E,9.72,40.34,210523,0.0,E,A,V*45
$GPGGA,065644.058,3114.3124670,N,12129.1464341,E,1,21,1.0,2.448,M,11.083,M,0.0,0000*73
$GPESA,065644.058,+0.853,-4.919,-0.279,-0.953,+0.900,-173.104*7B
$GPESD,065644.058,0.000,0.000,0.000,0.000,0.000,0.000,0.000,0.000,0.000*7D
$GPRMC,065644.191,A,3114.3121135,N,12129.1464967,E,9.84,40.95,210523,0.0,E,A,V*4E
$GPGGA,065644.191,3114.3121135,N,12129.1464967,E,1,21,1.0,2.430,M,11.083,M,0.0,0000*75
$GPESA,065644.191,+0.836,-4.984,-0.296,-0.966,+0.684,-173.100*78
$GPESD,065644.191,0.000,0.000,0.000,0.000,0.000,0.000,0.000,0.000,0.000*79
$GPRMC,065644.304,A,3114.3118101,N,12129.1465157,E,9.92,43.24,210523,0.0,E,A,V*49
$GPGGA,065644.304,3114.3118101,N,12129.1465157,E,1,20,1.0,2.479,M,11.083,M,0.0,0000*70
$GPESA,065644.304,+0.725,-5.041,-0.332,-0.825,+0.631,-173.030*7F
$GPESD,065644.304,0.000,0.000,0.000,0.000,0.000,0.000,0.000,0.000,0.000*77
$GPRMC,065644.411,A,3114.3115090,N,12129.1465579,E,10.14,43.22,210523,0.0,E,A,V*76
$GPGGA,065644.411,3114.3115090,N,12129.1465579,E,1,20,1.0,2.497,M,11.083,M,0.0,0000*7F
$GPESA,065644.411,+0.739,-5.151,-0.335,-0.613,+0.826,-172.923*7F
$GPESD,065644.411,0.000,0.000,0.000,0.000,0.000,0.000,0.000,0.000,0.000*74
$GPRMC,065644.529,A,3114.3111733,N,12129.1465918,E,10.38,42.05,210523,0.0,E,A,V*77
$GPGGA,065644.529,3114.3111733,N,12129.1465918,E,1,21,1.0,2.514,M,11.083,M,0.0,0000*7F
$GPESA,065644.529,+0.812,-5.268,-0.311,-0.582,+0.950,-172.857*75
$GPESD,065644.529,0.000,0.000,0.000,0.000,0.000,0.000,0.000,0.000,0.000*7E
$GPRMC,065644.644,A,3114.3108388,N,12129.1466417,E,10.60,41.09,210523,0.0,E,A,V*70
$GPGGA,065644.644,3114.3108388,N,12129.1466417,E,1,21,1.0,2.528,M,11.083,M,0.0,0000*75
$GPESA,065644.644,+0.882,-5.372,-0.303,-0.592,+0.914,-172.814*7B
$GPESD,065644.644,0.000,0.000,0.000,0.000,0.000,0.000,0.000,0.000,0.000*76
$GPRMC,065644.774,A,3114.3104571,N,12129.1466880,E,10.79,40.37,210523,0.0,E,A,V*78
$GPGGA,065644.774,3114.3104571,N,12129.1466880,E,1,20,1.0,2.584,M,11.083,M,0.0,0000*7E
$GPESA,065644.774,+0.923,-5.465,-0.275,-0.693,+0.880,-172.763*73
$GPESD,065644.774,0.000,0.000,0.000,0.000,0.000,0.000,0.000,0.000,0.000*74
$GPRMC,065644.939,A,3114.3099592,N,12129.1467694,E,11.06,40.46,210523,0.0,E,A,V*72
$GPGGA,065644.939,3114.3099592,N,12129.1467694,E,1,20,1.0,2.578,M,11.083,M,0.0,0000*78
$GPESA,065644.939,+0.961,-5.601,-0.314,-0.703,+0.755,-172.783*75
$GPESD,065644.939,0.000,0.000,0.000,0.000,0.000,0.000,0.000,0.000,0.000*73
$GPRMC,065645.049,A,3114.3096173,N,12129.1468169,E,11.26,40.80,210523,0.0,E,A,V*7B
$GPGGA,065645.049,3114.3096173,N,12129.1468169,E,1,21,1.0,2.590,M,11.083,M,0.0,0000*7E
$GPESA,065645.049,+0.958,-5.706,-0.324,-0.632,+0.801,-172.746*71
$GPESD,065645.049,0.000,0.000,0.000,0.000,0.000,0.000,0.000,0.000,0.000*7C
$GPRMC,065645.182,A,3114.3091969,N,12129.1468628,E,11.45,40.72,210523,0.0,E,A,V*73
$GPGGA,065645.182,3114.3091969,N,12129.1468628,E,1,21,1.0,2.606,M,11.083,M,0.0,0000*72
$GPESA,065645.182,+0.951,-5.806,-0.286,-0.713,+0.774,-172.690*7D
$GPESD,065645.182,0.000,0.000,0.000,0.000,0.000,0.000,0.000,0.000,0.000*7A
$GPRMC,065645.312,A,3114.3087745,N,12129.1468645,E,11.65,40.49,210523,0.0,E,A,V*7E
$GPGGA,065645.312,3114.3087745,N,12129.1468645,E,1,21,1.0,2.670,M,11.083,M,0.0,0000*74
$GPESA,065645.312,+0.968,-5.908,-0.266,-0.700,+0.927,-172.588*7D
$GPESD,065645.312,0.000,0.000,0.000,0.000,0.000,0.000,0.000,0.000,0.000*71
$GPRMC,065645.477,A,3114.3082289,N,12129.1468946,E,11.79,40.37,210523,0.0,E,A,V*72
$GPGGA,065645.477,3114.3082289,N,12129.1468946,E,1,21,1.0,2.699,M,11.083,M,0.0,0000*7B
$GPESA,065645.477,+0.992,-5.976,-0.275,-0.751,+0.957,-172.513*76
$GPESD,065645.477,0.000,0.000,0.000,0.000,0.000,0.000,0.000,0.000,0.000*75
$GPRMC,065645.577,A,3114.3078982,N,12129.1469232,E,11.80,40.60,210523,0.0,E,A,V*7B
$GPGGA,065645.577,3114.3078982,N,12129.1469232,E,1,21,1.0,2.704,M,11.083,M,0.0,0000*73
$GPESA,065645.577,+0.976,-5.985,-0.275,-0.834,+0.938,-172.450*72
$GPESD,065645.577,0.000,0.000,0.000,0.000,0.000,0.000,0.000,0.000,0.000*74
$GPRMC,065645.710,A,3114.3074592,N,12129.1469698,E,11.77,40.39,210523,0.0,E,A,V*79
$GPGGA,065645.710,3114.3074592,N,12129.1469698,E,1,21,1.0,2.702,M,11.083,M,0.0,0000*73
$GPESA,065645.710,+0.979,-5.971,-0.260,-0.898,+1.001,-172.363*72
$GPESD,065645.710,0.000,0.000,0.000,0.000,0.000,0.000,0.000,0.000,0.000*77
$GPRMC,065645.840,A,3114.3070327,N,12129.1470176,E,11.79,40.32,210523,0.0,E,A,V*75
$GPGGA,065645.840,3114.3070327,N,12129.1470176,E,1,21,1.0,2.702,M,11.083,M,0.0,0000*7A
$GPESA,065645.840,+0.992,-5.977,-0.269,-0.849,+1.045,-172.262*7E
$GPESD,065645.840,0.000,0.000,0.000,0.000,0.000,0.000,0.000,0.000,0.000*7D
$GPRMC,065645.990,A,3114.3065346,N,12129.1470552,E,11.86,40.13,210523,0.0,E,A,V*7B
$GPGGA,065645.990,3114.3065346,N,12129.1470552,E,1,21,1.0,2.724,M,11.083,M,0.0,0000*73
$GPESA,065645.990,+0.997,-6.015,-0.249,-0.833,+1.006,-172.145*77
$GPESD,065645.990,0.000,0.000,0.000,0.000,0.000,0.000,0.000,0.000,0.000*71
$GPRMC,065646.105,A,3114.3061565,N,12129.1470987,E,11.86,40.42,210523,0.0,E,A,V*7F
$GPGGA,065646.105,3114.3061565,N,12129.1470987,E,1,21,1.0,2.725,M,11.083,M,0.0,0000*72
$GPESA,065646.105,+0.984,-6.018,-0.260,-0.888,+1.049,-172.062*7B
$GPESD,065646.105,0.000,0.000,0.000,0.000,0.000,0.000,0.000,0.000,0.000*76
$GPRMC,065646.250,A,3114.3056808,N,12129.1471644,E,11.86,40.21,210523,0.0,E,A,V*7A
$GPGGA,065646.250,3114.3056808,N,12129.1471644,E,1,21,1.0,2.715,M,11.083,M,0.0,0000*71
$GPESA,065646.250,+1.006,-6.013,-0.271,-0.978,+1.114,-171.951*7C
$GPESD,065646.250,0.000,0.000,0.000,0.000,0.000,0.000,0.000,0.000,0.000*75
$GPRMC,065646.406,A,3114.3051781,N,12129.1472239,E,11.85,40.04,210523,0.0,E,A,V*7F
$GPGGA,065646.406,3114.3051781,N,12129.1472239,E,1,22,1.0,2.741,M,11.083,M,0.0,0000*72
$GPESA,065646.406,+1.015,-6.003,-0.268,-0.939,+1.088,-171.819*7E
$GPESD,065646.406,0.000,0.000,0.000,0.000,0.000,0.000,0.000,0.000,0.000*70
$GPRMC,065646.518,A,3114.3048096,N,12129.1472715,E,11.80,40.57,210523,0.0,E,A,V*70
$GPGGA,065646.518,3114.3048096,N,12129.1472715,E,1,22,1.0,2.746,M,11.083,M,0.0,0000*79
$GPESA,065646.518,+0.969,-5.988,-0.261,-0.926,+1.157,-171.748*75
$GPESD,065646.518,0.000,0.000,0.000,0.000,0.000,0.000,0.000,0.000,0.000*7E
$GPRMC,065646.658,A,3114.3043480,N,12129.1473455,E,11.81,40.14,210523,0.0,E,A,V*7F
$GPGGA,065646.658,3114.3043480,N,12129.1473455,E,1,21,1.0,2.768,M,11.083,M,0.0,0000*7F
$GPESA,065646.658,+1.010,-5.985,-0.274,-0.906,+1.258,-171.641*7B
$GPESD,065646.658,0.000,0.000,0.000,0.000,0.000,0.000,0.000,0.000,0.000*79
$GPRMC,065646.801,A,3114.3038859,N,12129.1474278,E,11.82,40.40,210523,0.0,E,A,V*75
$GPGGA,065646.801,3114.3038859,N,12129.1474278,E,1,21,1.0,2.738,M,11.083,M,0.0,0000*72
$GPESA,065646.801,+0.990,-5.992,-0.272,-0.901,+1.311,-171.547*77
$GPESD,065646.801,0.000,0.000,0.000,0.000,0.000,0.000,0.000,0.000,0.000*7B
$GPRMC,065646.931,A,3114.3034651,N,12129.1475054,E,11.78,40.19,210523,0.0,E,A,V*79
$GPGGA,065646.931,3114.3034651,N,12129.1475054,E,1,21,1.0,2.706,M,11.083,M,0.0,0000*7A
$GPESA,065646.931,+1.004,-5.973,-0.275,-0.900,+1.293,-171.461*77
$GPESD,065646.931,0.000,0.000,0.000,0.000,0.000,0.000,0.000,0.000,0.000*79
$GPRMC,065647.059,A,3114.3030566,N,12129.1475886,E,11.75,40.07,210523,0.0,E,A,V*79
$GPGGA,065647.059,3114.3030566,N,12129.1475886,E,1,21,1.0,2.670,M,11.083,M,0.0,0000*78
$GPESA,065647.059,+1.018,-5.950,-0.286,-0.940,+1.255,-171.341*7A
$GPESD,065647.059,0.000,0.000,0.000,0.000,0.000,0.000,0.000,0.000,0.000*7F
$GPRMC,065647.204,A,3114.3025916,N,12129.1476794,E,11.66,40.14,210523,0.0,E,A,V*73
$GPGGA,065647.204,3114.3025916,N,12129.1476794,E,1,21,1.0,2.627,M,11.083,M,0.0,0000*70
$GPESA,065647.204,+1.027,-5.903,-0.317,-0.973,+1.336,-171.227*76
$GPESD,065647.204,0.000,0.000,0.000,0.000,0.000,0.000,0.000,0.000,0.000*75
$GPRMC,065647.346,A,3114.3021369,N,12129.1477724,E,11.64,39.21,210523,0.0,E,A,V*72
$GPGGA,065647.346,3114.3021369,N,12129.1477724,E,1,21,1.0,2.589,M,11.083,M,0.0,0000*7C
$GPESA,065647.346,+1.084,-5.884,-0.307,-0.919,+1.337,-171.026*79
$GPESD,065647.346,0.000,0.000,0.000,0.000,0.000,0.000,0.000,0.000,0.000*72
$GPRMC,065647.484,A,3114.3016979,N,12129.1478561,E,11.61,39.34,210523,0.0,E,A,V*79
$GPGGA,065647.484,3114.3016979,N,12129.1478561,E,1,21,1.0,2.562,M,11.083,M,0.0,0000*73
$GPESA,065647.484,+1.071,-5.869,-0.305,-0.812,+1.273,-170.896*72
$GPESD,065647.484,0.000,0.000,0.000,0.000,0.000,0.000,0.000,0.000,0.000*7B
$GPRMC,065647.647,A,3114.3011823,N,12129.1479617,E,11.57,38.94,210523,0.0,E,A,V*70
$GPGGA,065647.647,3114.3011823,N,12129.1479617,E,1,21,1.0,2.521,M,11.083,M,0.0,0000*73
$GPESA,065647.647,+1.084,-5.848,-0.285,-0.768,+1.184,-170.748*7A
$GPESD,065647.647,0.000,0.000,0.000,0.000,0.000,0.000,0.000,0.000,0.000*76
$GPRMC,065647.817,A,3114.3006474,N,12129.1480684,E,11.44,38.27,210523,0.0,E,A,V*75
$GPGGA,065647.817,3114.3006474,N,12129.1480684,E,1,21,1.0,2.495,M,11.083,M,0.0,0000*72
$GPESA,065647.817,+1.088,-5.778,-0.234,-0.756,+1.150,-170.582*7B
$GPESD,065647.817,0.000,0.000,0.000,0.000,0.000,0.000,0.000,0.000,0.000*7D
$GPRMC,065647.929,A,3114.3002971,N,12129.1481370,E,11.38,38.59,210523,0.0,E,A,V*78
$GPGGA,065647.929,3114.3002971,N,12129.1481370,E,1,21,1.0,2.477,M,11.083,M,0.0,0000*71
$GPESA,065647.929,+1.057,-5.753,-0.228,-0.799,+1.178,-170.479*7D
$GPESD,065647.929,0.000,0.000,0.000,0.000,0.000,0.000,0.000,0.000,0.000*71
$GPRMC,065648.047,A,3114.2999332,N,12129.1482148,E,11.30,38.21,210523,0.0,E,A,V*7C
$GPGGA,065648.047,3114.2999332,N,12129.1482148,E,1,21,1.0,2.452,M,11.083,M,0.0,0000*75
$GPESA,065648.047,+1.088,-5.704,-0.247,-0.779,+1.109,-170.374*78
$GPESD,065648.047,0.000,0.000,0.000,0.000,0.000,0.000,0.000,0.000,0.000*7F
$GPRMC,065648.187,A,3114.2995011,N,12129.1483063,E,11.27,38.30,210523,0.0,E,A,V*70
$GPGGA,065648.187,3114.2995011,N,12129.1483063,E,1,21,1.0,2.425,M,11.083,M,0.0,0000*7F
$GPESA,065648.187,+1.074,-5.695,-0.238,-0.772,+1.139,-170.237*79
$GPESD,065648.187,0.000,0.000,0.000,0.000,0.000,0.000,0.000,0.000,0.000*72
$GPRMC,065648.307,A,3114.2991313,N,12129.1483696,E,11.23,38.74,210523,0.0,E,A,V*77
$GPGGA,065648.307,3114.2991313,N,12129.1483696,E,1,21,1.0,2.413,M,11.083,M,0.0,0000*79
$GPESA,065648.307,+1.038,-5.678,-0.233,-0.836,+1.224,-170.176*75
$GPESD,065648.307,0.000,0.000,0.000,0.000,0.000,0.000,0.000,0.000,0.000*78
$GPRMC,065648.425,A,3114.2987696,N,12129.1484508,E,11.21,38.15,210523,0.0,E,A,V*79
$GPGGA,065648.425,3114.2987696,N,12129.1484508,E,1,21,1.0,2.383,M,11.083,M,0.0,0000*7C
$GPESA,065648.425,+1.083,-5.661,-0.244,-0.886,+1.267,-170.065*75
$GPESD,065648.425,0.000,0.000,0.000,0.000,0.000,0.000,0.000,0.000,0.000*7F
$GPRMC,065648.595,A,3114.2982461,N,12129.1485526,E,11.20,38.12,210523,0.0,E,A,V*77
$GPGGA,065648.595,3114.2982461,N,12129.1485526,E,1,21,1.0,2.372,M,11.083,M,0.0,0000*7A
$GPESA,065648.595,+1.058,-5.661,-0.202,-0.937,+1.231,-169.607*79
$GPESD,065648.595,0.000,0.000,0.000,0.000,0.000,0.000,0.000,0.000,0.000*75
$GPRMC,065648.765,A,3114.2977244,N,12129.1486646,E,11.17,37.84,210523,0.0,E,A,V*73
$GPGGA,065648.765,3114.2977244,N,12129.1486646,E,1,21,1.0,2.350,M,11.083,M,0.0,0000*7A
$GPESA,065648.765,+1.068,-5.643,-0.191,-0.826,+1.154,-169.439*70
$GPESD,065648.765,0.000,0.000,0.000,0.000,0.000,0.000,0.000,0.000,0.000*78
$GPRMC,065648.870,A,3114.2974009,N,12129.1487303,E,11.18,37.97,210523,0.0,E,A,V*78
$GPGGA,065648.870,3114.2974009,N,12129.1487303,E,1,21,1.0,2.334,M,11.083,M,0.0,0000*7E
$GPESA,065648.870,+1.067,-5.650,-0.203,-0.748,+1.174,-169.387*79
$GPESD,065648.870,0.000,0.000,0.000,0.000,0.000,0.000,0.000,0.000,0.000*73
$GPRMC,065649.015,A,3114.2969546,N,12129.1488154,E,11.24,37.89,210523,0.0,E,A,V*7F
$GPGGA,065649.015,3114.2969546,N,12129.1488154,E,1,21,1.0,2.321,M,11.083,M,0.0,0000*7D
$GPESA,065649.015,+1.068,-5.681,-0.187,-0.670,+1.179,-169.227*73
$GPESD,065649.015,0.000,0.000,0.000,0.000,0.000,0.000,0.000,0.000,0.000*79
$GPRMC,065649.138,A,3114.2965767,N,12129.1488992,E,11.28,37.34,210523,0.0,E,A,V*74
$GPGGA,065649.138,3114.2965767,N,12129.1488992,E,1,21,1.0,2.298,M,11.083,M,0.0,0000*7F
$GPESA,065649.138,+1.111,-5.692,-0.191,-0.689,+1.055,-169.193*72
$GPESD,065649.138,0.000,0.000,0.000,0.000,0.000,0.000,0.000,0.000,0.000*77
$GPRMC,065649.271,A,3114.2961724,N,12129.1489889,E,11.27,37.48,210523,0.0,E,A,V*77
$GPGGA,065649.271,3114.2961724,N,12129.1489889,E,1,23,1.0,2.274,M,11.083,M,0.0,0000*78
$GPESA,065649.271,+1.099,-5.691,-0.187,-0.723,+0.961,-169.021*7F
$GPESD,065649.271,0.000,0.000,0.000,0.000,0.000,0.000,0.000,0.000,0.000*79
$GPRMC,065649.391,A,3114.2958043,N,12129.1490706,E,11.24,37.17,210523,0.0,E,A,V*7D
$GPGGA,065649.391,3114.2958043,N,12129.1490706,E,1,23,1.0,2.255,M,11.083,M,0.0,0000*78
$GPESA,065649.391,+1.117,-5.670,-0.188,-0.646,+0.902,-168.885*77
$GPESD,065649.391,0.000,0.000,0.000,0.000,0.000,0.000,0.000,0.000,0.000*76
$GPRMC,065649.511,A,3114.2954415,N,12129.1491516,E,11.24,37.20,210523,0.0,E,A,V*7E
$GPGGA,065649.511,3114.2954415,N,12129.1491516,E,1,23,1.0,2.245,M,11.083,M,0.0,0000*7E
$GPESA,065649.511,+1.110,-5.671,-0.179,-0.375,+0.752,-168.540*7B
$GPESD,065649.511,0.000,0.000,0.000,0.000,0.000,0.000,0.000,0.000,0.000*78
$GPRMC,065649.641,A,3114.2950422,N,12129.1492395,E,11.33,37.31,210523,0.0,E,A,V*70
$GPGGA,065649.641,3114.2950422,N,12129.1492395,E,1,22,1.0,2.224,M,11.083,M,0.0,0000*70
$GPESA,065649.641,+1.112,-5.718,-0.181,-0.174,+0.764,-168.409*7C
$GPESD,065649.641,0.000,0.000,0.000,0.000,0.000,0.000,0.000,0.000,0.000*7E
$GPRMC,065649.741,A,3114.2947279,N,12129.1493040,E,11.45,38.17,210523,0.0,E,A,V*7F
$GPGGA,065649.741,3114.2947279,N,12129.1493040,E,1,22,1.0,2.208,M,11.083,M,0.0,0000*7B
$GPESA,065649.741,+1.074,-5.788,-0.200,-0.334,+0.857,-168.569*71
$GPESD,065649.741,0.000,0.000,0.000,0.000,0.000,0.000,0.000,0.000,0.000*7F
$GPRMC,065649.846,A,3114.2943890,N,12129.1493573,E,11.54,38.44,210523,0.0,E,A,V*7D
$GPGGA,065649.846,3114.2943890,N,12129.1493573,E,1,22,1.0,2.185,M,11.083,M,0.0,0000*79
$GPESA,065649.846,+1.068,-5.834,-0.208,-0.673,+1.028,-169.219*72
$GPESD,065649.846,0.000,0.000,0.000,0.000,0.000,0.000,0.000,0.000,0.000*77
$GPRMC,065649.961,A,3114.2940198,N,12129.1494347,E,11.52,37.27,210523,0.0,E,A,V*71
$GPGGA,065649.961,3114.2940198,N,12129.1494347,E,1,22,1.0,2.164,M,11.083,M,0.0,0000*76
$GPESA,065649.961,+1.136,-5.815,-0.189,-1.035,+0.925,-169.281*74
$GPESD,065649.961,0.000,0.000,0.000,0.000,0.000,0.000,0.000,0.000,0.000*73
$GPRMC,065650.066,A,3114.2936918,N,12129.1495062,E,11.45,37.11,210523,0.0,E,A,V*70
$GPGGA,065650.066,3114.2936918,N,12129.1495062,E,1,22,1.0,2.145,M,11.083,M,0.0,0000*77
$GPESA,065650.066,+1.137,-5.775,-0.184,-1.155,+0.809,-169.266*76
$GPESD,065650.066,0.000,0.000,0.000,0.000,0.000,0.000,0.000,0.000,0.000*75
$GPRMC,065650.166,A,3114.2933803,N,12129.1495746,E,11.34,38.09,210523,0.0,E,A,V*7E
$GPGGA,065650.166,3114.2933803,N,12129.1495746,E,1,22,1.0,2.124,M,11.083,M,0.0,0000*7E
$GPESA,065650.166,+1.090,-5.724,-0.232,-1.024,+0.798,-169.194*7F
$GPESD,065650.166,0.000,0.000,0.000,0.000,0.000,0.000,0.000,0.000,0.000*74
$GPRMC,065650.297,A,3114.2929778,N,12129.1496591,E,11.41,38.51,210523,0.0,E,A,V*7F
$GPGGA,065650.297,3114.2929778,N,12129.1496591,E,1,22,1.0,2.097,M,11.083,M,0.0,0000*79
$GPESA,065650.297,+1.079,-5.763,-0.250,-0.733,+0.893,-168.966*72
$GPESD,065650.297,0.000,0.000,0.000,0.000,0.000,0.000,0.000,0.000,0.000*79
$GPRMC,065650.402,A,3114.2926460,N,12129.1497191,E,11.47,38.33,210523,0.0,E,A,V*77
$GPGGA,065650.402,3114.2926460,N,12129.1497191,E,1,22,1.0,2.076,M,11.083,M,0.0,0000*7C
$GPESA,065650.402,+1.087,-5.794,-0.236,-0.701,+0.984,-168.761*7E
$GPESD,065650.402,0.000,0.000,0.000,0.000,0.000,0.000,0.000,0.000,0.000*73
$GPRMC,065650.507,A,3114.2923174,N,12129.1497883,E,11.48,37.69,210523,0.0,E,A,V*73
$GPGGA,065650.507,3114.2923174,N,12129.1497883,E,1,22,1.0,2.057,M,11.083,M,0.0,0000*74
$GPESA,065650.507,+1.119,-5.795,-0.215,-0.796,+0.954,-168.642*7F
$GPESD,065650.507,0.000,0.000,0.000,0.000,0.000,0.000,0.000,0.000,0.000*77
$GPRMC,065650.622,A,3114.2919603,N,12129.1498685,E,11.42,37.96,210523,0.0,E,A,V*74
$GPGGA,065650.622,3114.2919603,N,12129.1498685,E,1,22,1.0,2.033,M,11.084,M,0.0,0000*7C
$GPESA,065650.622,+1.102,-5.765,-0.226,-0.937,+0.828,-168.513*76
$GPESD,065650.622,0.000,0.000,0.000,0.000,0.000,0.000,0.000,0.000,0.000*73
$GPRMC,065650.742,A,3114.2915885,N,12129.1499460,E,11.35,38.03,210523,0.0,E,A,V*74
$GPGGA,065650.742,3114.2915885,N,12129.1499460,E,1,23,1.0,2.013,M,11.084,M,0.0,0000*7C
$GPESA,065650.742,+1.089,-5.731,-0.223,-1.017,+0.901,-168.401*75
$GPESD,065650.742,0.000,0.000,0.000,0.000,0.000,0.000,0.000,0.000,0.000*74
$GPRMC,065650.862,A,3114.2912222,N,12129.1500119,E,11.25,38.81,210523,0.0,E,A,V*78
$GPGGA,065650.862,3114.2912222,N,12129.1500119,E,1,23,1.0,1.998,M,11.084,M,0.0,0000*72
$GPESA,065650.862,+1.024,-5.690,-0.216,-0.914,+0.957,-168.766*79
$GPESD,065650.862,0.000,0.000,0.000,0.000,0.000,0.000,0.000,0.000,0.000*79
$GPRMC,065650.972,A,3114.2908834,N,12129.1500797,E,11.22,38.34,210523,0.0,E,A,V*77
$GPGGA,065650.972,3114.2908834,N,12129.1500797,E,1,23,1.0,1.976,M,11.084,M,0.0,0000*74
$GPESA,065650.972,+1.057,-5.670,-0.221,-0.875,+0.989,-168.893*77
$GPESD,065650.972,0.000,0.000,0.000,0.000,0.000,0.000,0.000,0.000,0.000*79
$GPRMC,065651.075,A,3114.2905698,N,12129.1501401,E,11.20,38.60,210523,0.0,E,A,V*73
$GPGGA,065651.075,3114.2905698,N,12129.1501401,E,1,23,1.0,1.957,M,11.084,M,0.0,0000*70
$GPESA,065651.075,+1.041,-5.665,-0.226,-0.862,+1.040,-168.979*72
$GPESD,065651.075,0.000,0.000,0.000,0.000,0.000,0.000,0.000,0.000,0.000*76
$GPRMC,065651.242,A,3114.2900571,N,12129.1502423,E,11.12,38.40,210523,0.0,E,A,V*74
$GPGGA,065651.242,3114.2900571,N,12129.1502423,E,1,23,1.0,1.920,M,11.084,M,0.0,0000*74
$GPESA,065651.242,+1.050,-5.616,-0.231,-1.052,+1.057,-169.202*7C
$GPESD,065651.242,0.000,0.000,0.000,0.000,0.000,0.000,0.000,0.000,0.000*70
$GPRMC,065651.387,A,3114.2896196,N,12129.1503338,E,11.04,38.02,210523,0.0,E,A,V*72
$GPGGA,065651.387,3114.2896196,N,12129.1503338,E,1,23,1.0,1.891,M,11.084,M,0.0,0000*78
$GPESA,065651.387,+1.052,-5.580,-0.202,-1.159,+1.037,-169.144*77
$GPESD,065651.387,0.000,0.000,0.000,0.000,0.000,0.000,0.000,0.000,0.000*78
$GPRMC,065651.523,A,3114.2892211,N,12129.1504105,E,10.88,38.27,210523,0.0,E,A,V*7B
$GPGGA,065651.523,3114.2892211,N,12129.1504105,E,1,24,1.0,1.873,M,11.084,M,0.0,0000*78
$GPESA,065651.523,+1.026,-5.496,-0.209,-1.119,+1.142,-169.068*79
$GPESD,065651.523,0.000,0.000,0.000,0.000,0.000,0.000,0.000,0.000,0.000*70
$GPRMC,065651.655,A,3114.2888288,N,12129.1504917,E,10.76,38.44,210523,0.0,E,A,V*7D
$GPGGA,065651.655,3114.2888288,N,12129.1504917,E,1,24,1.0,1.847,M,11.084,M,0.0,0000*7D
$GPESA,065651.655,+1.013,-5.438,-0.221,-0.972,+1.184,-168.979*75
$GPESD,065651.655,0.000,0.000,0.000,0.000,0.000,0.000,0.000,0.000,0.000*72
$GPRMC,065651.760,A,3114.2885205,N,12129.1505535,E,10.71,37.88,210523,0.0,E,A,V*77
$GPGGA,065651.760,3114.2885205,N,12129.1505535,E,1,24,1.0,1.830,M,11.084,M,0.0,0000*7F
$GPESA,065651.760,+1.033,-5.406,-0.202,-0.791,+1.332,-168.869*70
$GPESD,065651.760,0.000,0.000,0.000,0.000,0.000,0.000,0.000,0.000,0.000*75
$GPRMC,065651.888,A,3114.2881443,N,12129.1506244,E,10.71,37.95,210523,0.0,E,A,V*70
$GPGGA,065651.888,3114.2881443,N,12129.1506244,E,1,24,1.0,1.812,M,11.084,M,0.0,0000*74
$GPESA,065651.888,+1.036,-5.407,-0.215,-0.751,+1.235,-168.844*7E
$GPESD,065651.888,0.000,0.000,0.000,0.000,0.000,0.000,0.000,0.000,0.000*7C
$GPRMC,065652.053,A,3114.2876619,N,12129.1507215,E,10.58,38.27,210523,0.0,E,A,V*70
$GPGGA,065652.053,3114.2876619,N,12129.1507215,E,1,24,1.0,1.781,M,11.084,M,0.0,0000*7C
$GPESA,065652.053,+1.005,-5.345,-0.215,-0.919,+1.196,-168.682*7E
$GPESD,065652.053,0.000,0.000,0.000,0.000,0.000,0.000,0.000,0.000,0.000*71
$GPRMC,065652.206,A,3114.2872237,N,12129.1508088,E,10.42,38.61,210523,0.0,E,A,V*7E
$GPGGA,065652.206,3114.2872237,N,12129.1508088,E,1,23,1.0,1.755,M,11.084,M,0.0,0000*75
$GPESA,065652.206,+0.948,-5.274,-0.178,-1.097,+1.210,-168.595*70
$GPESD,065652.206,0.000,0.000,0.000,0.000,0.000,0.000,0.000,0.000,0.000*73
$GPRMC,065652.353,A,3114.2868097,N,12129.1508834,E,10.26,38.69,210523,0.0,E,A,V*79
$GPGGA,065652.353,3114.2868097,N,12129.1508834,E,1,24,1.0,1.741,M,11.084,M,0.0,0000*7A
$GPESA,065652.353,+0.941,-5.191,-0.196,-1.158,+1.358,-168.542*75
$GPESD,065652.353,0.000,0.000,0.000,0.000,0.000,0.000,0.000,0.000,0.000*72
$GPRMC,065652.466,A,3114.2864954,N,12129.1509511,E,10.16,38.39,210523,0.0,E,A,V*7F
$GPGGA,065652.466,3114.2864954,N,12129.1509511,E,1,24,1.0,1.717,M,11.084,M,0.0,0000*79
$GPESA,065652.466,+0.973,-5.132,-0.231,-1.020,+1.399,-168.521*74
$GPESD,065652.466,0.000,0.000,0.000,0.000,0.000,0.000,0.000,0.000,0.000*73
$GPRMC,065652.604,A,3114.2861150,N,12129.1510311,E,10.17,37.57,210523,0.0,E,A,V*78
$GPGGA,065652.604,3114.2861150,N,12129.1510311,E,1,24,1.0,1.692,M,11.084,M,0.0,0000*74
$GPESA,065652.604,+1.016,-5.128,-0.219,-0.868,+1.271,-168.509*70
$GPESD,065652.604,0.000,0.000,0.000,0.000,0.000,0.000,0.000,0.000,0.000*75
$GPRMC,065652.754,A,3114.2857017,N,12129.1511119,E,10.16,38.12,210523,0.0,E,A,V*7F
$GPGGA,065652.754,3114.2857017,N,12129.1511119,E,1,24,1.0,1.672,M,11.084,M,0.0,0000*72
$GPESA,065652.754,+0.963,-5.135,-0.187,-0.818,+1.087,-168.524*75
$GPESD,065652.754,0.000,0.000,0.000,0.000,0.000,0.000,0.000,0.000,0.000*71
$GPRMC,065652.909,A,3114.2852748,N,12129.1511963,E,10.10,38.86,210523,0.0,E,A,V*7F
$GPGGA,065652.909,3114.2852748,N,12129.1511963,E,1,24,1.0,1.648,M,11.084,M,0.0,0000*70
$GPESA,065652.909,+0.907,-5.111,-0.180,-0.870,+1.212,-168.504*72
$GPESD,065652.909,0.000,0.000,0.000,0.000,0.000,0.000,0.000,0.000,0.000*77
$GPRMC,065653.059,A,3114.2848673,N,12129.1512765,E,9.96,38.09,210523,0.0,E,A,V*4A
$GPGGA,065653.059,3114.2848673,N,12129.1512765,E,1,25,1.0,1.624,M,11.084,M,0.0,0000*7F
$GPESA,065653.059,+0.957,-5.030,-0.203,-0.892,+1.261,-168.523*7D
$GPESD,065653.059,0.000,0.000,0.000,0.000,0.000,0.000,0.000,0.000,0.000*7A
$GPRMC,065653.204,A,3114.2845732,N,12129.1513412,E,9.14,37.14,210523,0.0,E,A,V*42
$GPGGA,065653.204,3114.2845732,N,12129.1513412,E,1,24,1.0,1.609,M,11.084,M,0.0,0000*70
$GPESA,065653.204,+0.930,-4.603,-0.187,-0.608,+1.043,-168.514*75
$GPESD,065653.204,0.000,0.000,0.000,0.000,0.000,0.000,0.000,0.000,0.000*70
$GPRMC,065653.317,A,3114.2842861,N,12129.1513901,E,8.94,38.34,210523,0.0,E,A,V*44
$GPGGA,065653.317,3114.2842861,N,12129.1513901,E,1,25,1.0,1.596,M,11.084,M,0.0,0000*76
$GPESA,065653.317,+0.845,-4.520,-0.180,-0.718,+0.990,-168.619*78
$GPESD,065653.317,0.000,0.000,0.000,0.000,0.000,0.000,0.000,0.000,0.000*73
$GPRMC,065653.434,A,3114.2839993,N,12129.1514475,E,8.72,39.11,210523,0.0,E,A,V*45
$GPGGA,065653.434,3114.2839993,N,12129.1514475,E,1,25,1.0,1.577,M,11.084,M,0.0,0000*76
$GPESA,065653.434,+0.780,-4.417,-0.169,-0.727,+1.011,-168.600*7F
$GPESD,065653.434,0.000,0.000,0.000,0.000,0.000,0.000,0.000,0.000,0.000*75
$GPRMC,065653.534,A,3114.2837614,N,12129.1514884,E,8.55,38.91,210523,0.0,E,A,V*44
$GPGGA,065653.534,3114.2837614,N,12129.1514884,E,1,25,1.0,1.566,M,11.084,M,0.0,0000*7B
$GPESA,065653.534,+0.780,-4.327,-0.174,-0.759,+1.039,-168.589*77
$GPESD,065653.534,0.000,0.000,0.000,0.000,0.000,0.000,0.000,0.000,0.000*74
$GPRMC,065653.680,A,3114.2834316,N,12129.1515612,E,8.18,38.20,210523,0.0,E,A,V*4F
$GPGGA,065653.680,3114.2834316,N,12129.1515612,E,1,25,1.0,1.541,M,11.084,M,0.0,0000*76
$GPESA,065653.680,+0.780,-4.133,-0.164,-0.697,+1.003,-168.542*70
$GPESD,065653.680,0.000,0.000,0.000,0.000,0.000,0.000,0.000,0.000,0.000*78
$GPRMC,065653.817,A,3114.2831335,N,12129.1516245,E,7.90,38.12,210523,0.0,E,A,V*40
$GPGGA,065653.817,3114.2831335,N,12129.1516245,E,1,25,1.0,1.526,M,11.084,M,0.0,0000*76
$GPESA,065653.817,+0.767,-3.989,-0.176,-0.636,+0.877,-168.379*7B
$GPESD,065653.817,0.000,0.000,0.000,0.000,0.000,0.000,0.000,0.000,0.000*78
$GPRMC,065653.952,A,3114.2827622,N,12129.1516921,E,8.07,38.50,210523,0.0,E,A,V*4A
$GPGGA,065653.952,3114.2827622,N,12129.1516921,E,1,25,1.0,1.502,M,11.084,M,0.0,0000*7D
$GPESA,065653.952,+0.766,-4.076,-0.182,-0.996,+0.778,-168.310*75
$GPESD,065653.952,0.000,0.000,0.000,0.000,0.000,0.000,0.000,0.000,0.000*78
$GPRMC,065654.087,A,3114.2824699,N,12129.1517502,E,7.69,38.62,210523,0.0,E,A,V*45
$GPGGA,065654.087,3114.2824699,N,12129.1517502,E,1,24,1.0,1.488,M,11.084,M,0.0,0000*76
$GPESA,065654.087,+0.714,-3.889,-0.156,-1.047,+0.733,-168.206*7D
$GPESD,065654.087,0.000,0.000,0.000,0.000,0.000,0.000,0.000,0.000,0.000*7E
$GPRMC,065654.230,A,3114.2821786,N,12129.1518099,E,7.34,38.59,210523,0.0,E,A,V*49
$GPGGA,065654.230,3114.2821786,N,12129.1518099,E,1,24,1.0,1.470,M,11.084,M,0.0,0000*7D
$GPESA,065654.230,+0.681,-3.713,-0.145,-0.981,+0.680,-168.057*7D
$GPESD,065654.230,0.000,0.000,0.000,0.000,0.000,0.000,0.000,0.000,0.000*70
$GPRMC,065654.330,A,3114.2819817,N,12129.1518491,E,7.10,38.54,210523,0.0,E,A,V*43
$GPGGA,065654.330,3114.2819817,N,12129.1518491,E,1,25,1.0,1.460,M,11.084,M,0.0,0000*7C
$GPESA,065654.330,+0.654,-3.589,-0.130,-0.978,+0.721,-167.965*7C
$GPESD,065654.330,0.000,0.000,0.000,0.000,0.000,0.000,0.000,0.000,0.000*71
$GPRMC,065654.458,A,3114.2817404,N,12129.1518972,E,6.77,39.26,210523,0.0,E,A,V*4E
$GPGGA,065654.458,3114.2817404,N,12129.1518972,E,1,23,1.0,1.439,M,11.084,M,0.0,0000*7F
$GPESA,065654.458,+0.618,-3.424,-0.162,-0.971,+0.778,-167.991*72
$GPESD,065654.458,0.000,0.000,0.000,0.000,0.000,0.000,0.000,0.000,0.000*78
$GPRMC,065654.618,A,3114.2814548,N,12129.1519543,E,6.41,38.91,210523,0.0,E,A,V*45
$GPGGA,065654.618,3114.2814548,N,12129.1519543,E,1,24,1.0,1.418,M,11.084,M,0.0,0000*78
$GPESA,065654.618,+0.619,-3.232,-0.186,-0.815,+0.738,-168.034*70
$GPESD,065654.618,0.000,0.000,0.000,0.000,0.000,0.000,0.000,0.000,0.000*7E
$GPRMC,065654.735,A,3114.2812487,N,12129.1519855,E,6.24,38.81,210523,0.0,E,A,V*47
$GPGGA,065654.735,3114.2812487,N,12129.1519855,E,1,24,1.0,1.409,M,11.084,M,0.0,0000*78
$GPESA,065654.735,+0.591,-3.154,-0.156,-0.689,+0.676,-167.967*73
$GPESD,065654.735,0.000,0.000,0.000,0.000,0.000,0.000,0.000,0.000,0.000*70
$GPRMC,065654.851,A,3114.2810537,N,12129.1520252,E,6.14,39.00,210523,0.0,E,A,V*4E
$GPGGA,065654.851,3114.2810537,N,12129.1520252,E,1,24,1.0,1.394,M,11.084,M,0.0,0000*79
$GPESA,065654.851,+0.568,-3.105,-0.143,-0.684,+0.586,-167.914*7D
$GPESD,065654.851,0.000,0.000,0.000,0.000,0.000,0.000,0.000,0.000,0.000*7D
$GPRMC,065654.986,A,3114.2808322,N,12129.1520631,E,5.99,39.63,210523,0.0,E,A,V*4C
$GPGGA,065654.986,3114.2808322,N,12129.1520631,E,1,24,1.0,1.380,M,11.084,M,0.0,0000*7D
$GPESA,065654.986,+0.531,-3.035,-0.138,-0.659,+0.590,-167.914*73
$GPESD,065654.986,0.000,0.000,0.000,0.000,0.000,0.000,0.000,0.000,0.000*76
$GPRMC,065655.118,A,3114.2806189,N,12129.1521034,E,5.88,39.84,210523,0.0,E,A,V*44
$GPGGA,065655.118,3114.2806189,N,12129.1521034,E,1,24,1.0,1.368,M,11.084,M,0.0,0000*7A
$GPESA,065655.118,+0.510,-2.980,-0.131,-0.614,+0.643,-167.808*79
$GPESD,065655.118,0.000,0.000,0.000,0.000,0.000,0.000,0.000,0.000,0.000*78
$GPRMC,065655.251,A,3114.2804024,N,12129.1521474,E,5.83,39.04,210523,0.0,E,A,V*4D
$GPGGA,065655.251,3114.2804024,N,12129.1521474,E,1,24,1.0,1.356,M,11.084,M,0.0,0000*7D
$GPESA,065655.251,+0.536,-2.949,-0.133,-0.582,+0.734,-167.710*7F
$GPESD,065655.251,0.000,0.000,0.000,0.000,0.000,0.000,0.000,0.000,0.000*76
$GPRMC,065655.366,A,3114.2802216,N,12129.1521843,E,5.79,38.37,210523,0.0,E,A,V*41
$GPGGA,065655.366,3114.2802216,N,12129.1521843,E,1,24,1.0,1.345,M,11.084,M,0.0,0000*77
$GPESA,065655.366,+0.556,-2.924,-0.133,-0.507,+0.785,-167.669*7F
$GPESD,065655.366,0.000,0.000,0.000,0.000,0.000,0.000,0.000,0.000,0.000*73
$GPRMC,065655.501,A,3114.2800113,N,12129.1522288,E,5.76,37.07,210523,0.0,E,A,V*4F
$GPGGA,065655.501,3114.2800113,N,12129.1522288,E,1,24,1.0,1.334,M,11.084,M,0.0,0000*7C
$GPESA,065655.501,+0.604,-2.896,-0.144,-0.499,+0.772,-167.581*7F
$GPESD,065655.501,0.000,0.000,0.000,0.000,0.000,0.000,0.000,0.000,0.000*74
$GPRMC,065655.631,A,3114.2798084,N,12129.1522796,E,5.71,36.62,210523,0.0,E,A,V*41
$GPGGA,065655.631,3114.2798084,N,12129.1522796,E,1,24,1.0,1.314,M,11.084,M,0.0,0000*75
$GPESA,065655.631,+0.623,-2.865,-0.161,-0.553,+0.614,-167.523*7F
$GPESD,065655.631,0.000,0.000,0.000,0.000,0.000,0.000,0.000,0.000,0.000*74
$GPRMC,065655.771,A,3114.2795881,N,12129.1523235,E,5.65,37.90,210523,0.0,E,A,V*40
$GPGGA,065655.771,3114.2795881,N,12129.1523235,E,1,23,1.0,1.306,M,11.084,M,0.0,0000*79
$GPESA,065655.771,+0.563,-2.847,-0.139,-0.591,+0.530,-167.412*78
$GPESD,065655.771,0.000,0.000,0.000,0.000,0.000,0.000,0.000,0.000,0.000*71
$GPRMC,065655.891,A,3114.2794044,N,12129.1523607,E,5.59,38.01,210523,0.0,E,A,V*4C
$GPGGA,065655.891,3114.2794044,N,12129.1523607,E,1,23,1.0,1.297,M,11.084,M,0.0,0000*74
$GPESA,065655.891,+0.538,-2.825,-0.111,-0.600,+0.612,-167.363*70
$GPESD,065655.891,0.000,0.000,0.000,0.000,0.000,0.000,0.000,0.000,0.000*70
$GPRMC,065656.014,A,3114.2792185,N,12129.1523975,E,5.57,37.27,210523,0.0,E,A,V*4F
$GPGGA,065656.014,3114.2792185,N,12129.1523975,E,1,23,1.0,1.294,M,11.084,M,0.0,0000*71
$GPESA,065656.014,+0.550,-2.809,-0.093,-0.603,+0.703,-167.393*70
$GPESD,065656.014,0.000,0.000,0.000,0.000,0.000,0.000,0.000,0.000,0.000*76
$GPRMC,065656.129,A,3114.2790432,N,12129.1524355,E,5.54,36.93,210523,0.0,E,A,V*49
$GPGGA,065656.129,3114.2790432,N,12129.1524355,E,1,22,1.0,1.280,M,11.084,M,0.0,0000*7E
$GPESA,065656.129,+0.567,-2.791,-0.108,-0.668,+0.804,-167.344*79
$GPESD,065656.129,0.000,0.000,0.000,0.000,0.000,0.000,0.000,0.000,0.000*79
$GPRMC,065656.239,A,3114.2788778,N,12129.1524661,E,5.51,36.75,210523,0.0,E,A,V*40
$GPGGA,065656.239,3114.2788778,N,12129.1524661,E,1,22,1.0,1.275,M,11.084,M,0.0,0000*70
$GPESA,065656.239,+0.568,-2.774,-0.105,-0.694,+0.852,-167.365*71
$GPESD,065656.239,0.000,0.000,0.000,0.000,0.000,0.000,0.000,0.000,0.000*7B
$GPRMC,065656.387,A,3114.2786574,N,12129.1525197,E,5.45,36.77,210523,0.0,E,A,V*4C
$GPGGA,065656.387,3114.2786574,N,12129.1525197,E,1,22,1.0,1.258,M,11.084,M,0.0,0000*74
$GPESA,065656.387,+0.574,-2.741,-0.126,-0.760,+0.823,-167.331*72
$GPESD,065656.387,0.000,0.000,0.000,0.000,0.000,0.000,0.000,0.000,0.000*7F
$GPRMC,065656.515,A,3114.2784682,N,12129.1525593,E,5.42,36.53,210523,0.0,E,A,V*48
$GPGGA,065656.515,3114.2784682,N,12129.1525593,E,1,22,1.0,1.251,M,11.084,M,0.0,0000*78
$GPESA,065656.515,+0.578,-2.727,-0.123,-0.716,+0.762,-167.366*7F
$GPESD,065656.515,0.000,0.000,0.000,0.000,0.000,0.000,0.000,0.000,0.000*72
$GPRMC,065656.625,A,3114.2783048,N,12129.1525968,E,5.40,36.61,210523,0.0,E,A,V*44
$GPGGA,065656.625,3114.2783048,N,12129.1525968,E,1,22,1.0,1.239,M,11.084,M,0.0,0000*79
$GPESA,065656.625,+0.575,-2.713,-0.126,-0.694,+0.734,-167.333*78
$GPESD,065656.625,0.000,0.000,0.000,0.000,0.000,0.000,0.000,0.000,0.000*72
$GPRMC,065656.760,A,3114.2781136,N,12129.1526332,E,5.26,37.49,210523,0.0,E,A,V*43
$GPGGA,065656.760,3114.2781136,N,12129.1526332,E,1,22,1.0,1.234,M,11.084,M,0.0,0000*78
$GPESA,065656.760,+0.525,-2.650,-0.110,-0.739,+0.740,-167.387*74
$GPESD,065656.760,0.000,0.000,0.000,0.000,0.000,0.000,0.000,0.000,0.000*72
$GPRMC,065656.917,A,3114.2778934,N,12129.1526808,E,5.01,37.47,210523,0.0,E,A,V*48
$GPGGA,065656.917,3114.2778934,N,12129.1526808,E,1,22,1.0,1.218,M,11.084,M,0.0,0000*76
$GPESA,065656.917,+0.507,-2.524,-0.114,-0.835,+0.736,-167.382*79
$GPESD,065656.917,0.000,0.000,0.000,0.000,0.000,0.000,0.000,0.000,0.000*7C
$GPRMC,065657.052,A,3114.2777198,N,12129.1527153,E,4.80,37.37,210523,0.0,E,A,V*49
$GPGGA,065657.052,3114.2777198,N,12129.1527153,E,1,22,1.0,1.211,M,11.084,M,0.0,0000*71
$GPESA,065657.052,+0.490,-2.417,-0.112,-0.804,+0.772,-167.343*77
$GPESD,065657.052,0.000,0.000,0.000,0.000,0.000,0.000,0.000,0.000,0.000*75
$GPRMC,065657.173,A,3114.2775604,N,12129.1527524,E,4.69,37.79,210523,0.0,E,A,V*42
$GPGGA,065657.173,3114.2775604,N,12129.1527524,E,1,22,1.0,1.193,M,11.084,M,0.0,0000*7E
$GPESA,065657.173,+0.476,-2.360,-0.125,-0.828,+0.776,-167.347*70
$GPESD,065657.173,0.000,0.000,0.000,0.000,0.000,0.000,0.000,0.000,0.000*77
$GPRMC,065657.288,A,3114.2776890,N,12129.1527327,E,3.30,38.17,210523,0.0,E,A,V*4C
$GPGGA,065657.288,3114.2776890,N,12129.1527327,E,1,22,1.0,1.184,M,11.084,M,0.0,0000*7A
$GPESA,065657.288,+0.347,-1.656,-0.121,-0.159,+0.678,-167.022*75
$GPESD,065657.288,0.000,0.000,0.000,0.000,0.000,0.000,0.000,0.000,0.000*70
$GPRMC,065657.405,A,3114.2777576,N,12129.1527204,E,2.28,37.46,210523,0.0,E,A,V*48
$GPGGA,065657.405,3114.2777576,N,12129.1527204,E,1,22,1.0,1.176,M,11.084,M,0.0,0000*70
$GPESA,065657.405,+0.267,-1.137,-0.114,+0.347,+0.680,-166.800*76
$GPESD,065657.405,0.000,0.000,0.000,0.000,0.000,0.000,0.000,0.000,0.000*73
$GPRMC,065657.553,A,3114.2779469,N,12129.1526721,E,0.50,37.46,210523,0.0,E,A,V*45
$GPGGA,065657.553,3114.2779469,N,12129.1526721,E,1,22,1.0,1.200,M,11.084,M,0.0,0000*72
$GPESA,065657.553,-0.002,+0.257,-0.013,+0.777,+0.626,-166.678*7D
$GPESD,065657.553,0.000,0.000,0.000,0.000,0.000,0.000,0.000,0.000,0.000*71
$GPRMC,065657.688,A,3114.2777131,N,12129.1527300,E,1.49,37.46,210523,0.0,E,A,V*49
$GPGGA,065657.688,3114.2777131,N,12129.1527300,E,1,22,1.0,1.158,M,11.084,M,0.0,0000*79
$GPESA,065657.688,+0.209,-0.728,-0.124,+0.568,+0.577,-166.722*7C
$GPESD,065657.688,0.000,0.000,0.000,0.000,0.000,0.000,0.000,0.000,0.000*74
$GPRMC,065657.826,A,3114.2778966,N,12129.1526870,E,0.52,37.46,210523,0.0,E,A,V*40
$GPGGA,065657.826,3114.2778966,N,12129.1526870,E,1,22,1.0,1.173,M,11.084,M,0.0,0000*72
$GPESA,065657.826,+0.100,-0.230,-0.098,+0.999,+0.484,-166.678*77
$GPESD,065657.826,0.000,0.000,0.000,0.000,0.000,0.000,0.000,0.000,0.000*7E
$GPRMC,065657.926,A,3114.2779224,N,12129.1526734,E,0.30,37.46,210523,0.0,E,A,V*46
$GPGGA,065657.926,3114.2779224,N,12129.1526734,E,1,22,1.0,1.176,M,11.084,M,0.0,0000*75
$GPESA,065657.926,+0.062,-0.109,-0.094,+1.026,+0.511,-166.663*7D
$GPESD,065657.926,0.000,0.000,0.000,0.000,0.000,0.000,0.000,0.000,0.000*7F
$GPRMC,065658.071,A,3114.2779820,N,12129.1526457,E,0.23,37.46,210523,0.0,E,A,V*48
$GPGGA,065658.071,3114.2779820,N,12129.1526457,E,1,23,1.0,1.192,M,11.084,M,0.0,0000*72
$GPESA,065658.071,+0.020,+0.083,-0.080,+1.084,+0.497,-166.629*76
$GPESD,065658.071,0.000,0.000,0.000,0.000,0.000,0.000,0.000,0.000,0.000*7B
$GPRMC,065658.196,A,3114.2779917,N,12129.1526469,E,0.43,37.46,210523,0.0,E,A,V*4E
$GPGGA,065658.196,3114.2779917,N,12129.1526469,E,1,23,1.0,1.182,M,11.084,M,0.0,0000*73
$GPESA,065658.196,+0.013,+0.204,-0.087,+1.116,+0.506,-166.611*7C
$GPESD,065658.196,0.000,0.000,0.000,0.000,0.000,0.000,0.000,0.000,0.000*73
$GPRMC,065658.316,A,3114.2779534,N,12129.1526351,E,0.32,37.46,210523,0.0,E,A,V*43
$GPGGA,065658.316,3114.2779534,N,12129.1526351,E,1,23,1.0,1.196,M,11.084,M,0.0,0000*7D
$GPESA,065658.316,+0.015,+0.137,-0.085,+0.923,+0.492,-166.659*7E
$GPESD,065658.316,0.000,0.000,0.000,0.000,0.000,0.000,0.000,0.000,0.000*79
