$GPRMC,065616.877,A,3114.3481408,N,12129.1416318,E,8.36,42.48,210523,0.0,E,A,V*41
$GPGGA,065616.877,3114.3481408,N,12129.1416318,E,1,21,1.0,3.987,M,11.082,M,202156272.0,0000*74
$GPESA,065616.877,+0.561,-4.262,-0.151,-0.438,+1.246,-173.356*76
$GPESD,065616.877,0.000,0.000,0.000,0.000,0.000,0.000,0.000,0.000,0.000*7F
$GPRMC,065616.977,A,3114.3479390,N,12129.1416517,E,8.47,42.79,210523,0.0,E,A,V*4C
$GPGGA,065616.977,3114.3479390,N,12129.1416517,E,1,21,1.0,3.731,M,11.082,M,202156272.0,0000*7E
$GPESA,065616.977,+0.589,-4.314,-0.205,-0.664,+1.550,-173.583*76
$GPESD,065616.977,0.000,0.000,0.000,0.000,0.000,0.000,0.000,0.000,0.000*7E
$GPRMC,065617.077,A,3114.3477049,N,12129.1416848,E,8.44,43.83,210523,0.0,E,A,V*4D
$GPGGA,065617.077,3114.3477049,N,12129.1416848,E,1,21,1.0,3.711,M,11.082,M,202156272.0,0000*7A
$GPESA,065617.077,+0.518,-4.305,-0.189,-0.817,+1.386,-173.620*7C
$GPESD,065617.077,0.000,0.000,0.000,0.000,0.000,0.000,0.000,0.000,0.000*76
$GPRMC,065617.177,A,3114.3474894,N,12129.1417015,E,8.58,44.44,210523,0.0,E,A,V*47
$GPGGA,065617.177,3114.3474894,N,12129.1417015,E,1,21,1.0,3.483,M,11.082,M,202156272.0,0000*79
$GPESA,065617.177,+0.495,-4.382,-0.198,-0.993,+1.439,-173.676*7B
$GPESD,065617.177,0.000,0.000,0.000,0.000,0.000,0.000,0.000,0.000,0.000*77
$GPRMC,065617.279,A,3114.3473072,N,12129.1417423,E,8.76,44.64,210523,0.0,E,A,V*42
$GPGGA,065617.279,3114.3473072,N,12129.1417423,E,1,22,1.0,3.057,M,11.082,M,202156272.0,0000*7C
$GPESA,065617.279,+0.495,-4.472,-0.203,-1.100,+1.111,-173.545*70
$GPESD,065617.279,0.000,0.000,0.000,0.000,0.000,0.000,0.000,0.000,0.000*7A
$GPRMC,065617.380,A,3114.3470921,N,12129.1417731,E,8.73,45.87,210523,0.0,E,A,V*40
$GPGGA,065617.380,3114.3470921,N,12129.1417731,E,1,23,1.0,2.847,M,11.082,M,202156272.0,0000*7E
$GPESA,065617.380,+0.396,-4.471,-0.173,-1.338,+1.481,-173.657*71
$GPESD,065617.380,0.000,0.000,0.000,0.000,0.000,0.000,0.000,0.000,0.000*7D
$GPRMC,065617.495,A,3114.3468425,N,12129.1418047,E,8.68,43.95,210523,0.0,E,A,V*45
$GPGGA,065617.495,3114.3468425,N,12129.1418047,E,1,23,1.0,2.646,M,11.082,M,202156272.0,0000*7B
$GPESA,065617.495,+0.525,-4.430,-0.194,-1.289,+1.680,-173.718*72
$GPESD,065617.495,0.000,0.000,0.000,0.000,0.000,0.000,0.000,0.000,0.000*7E
$GPRMC,065617.615,A,3114.3465893,N,12129.1418562,E,8.42,43.98,210523,0.0,E,A,V*44
$GPGGA,065617.615,3114.3465893,N,12129.1418562,E,1,23,1.0,2.452,M,11.082,M,202156272.0,0000*78
$GPESA,065617.615,+0.502,-4.299,-0.180,-0.818,+1.269,-173.696*7A
$GPESD,065617.615,0.000,0.000,0.000,0.000,0.000,0.000,0.000,0.000,0.000*74
$GPRMC,065617.715,A,3114.3463745,N,12129.1418990,E,8.55,42.97,210523,0.0,E,A,V*4E
$GPGGA,065617.715,3114.3463745,N,12129.1418990,E,1,20,1.0,2.268,M,11.082,M,202156272.0,0000*76
$GPESA,065617.715,+0.543,-4.363,-0.149,-0.709,+1.375,-173.727*77
$GPESD,065617.715,0.000,0.000,0.000,0.000,0.000,0.000,0.000,0.000,0.000*75
$GPRMC,065617.815,A,3114.3461524,N,12129.1419402,E,8.71,42.64,210523,0.0,E,A,V*4B
$GPGGA,065617.815,3114.3461524,N,12129.1419402,E,1,20,1.0,2.092,M,11.082,M,202156272.0,0000*7E
$GPESA,065617.815,+0.606,-4.436,-0.200,-0.783,+1.315,-173.777*72
$GPESD,065617.815,0.000,0.000,0.000,0.000,0.000,0.000,0.000,0.000,0.000*7A
$GPRMC,065617.935,A,3114.3458761,N,12129.1419756,E,8.77,44.24,210523,0.0,E,A,V*47
$GPGGA,065617.935,3114.3458761,N,12129.1419756,E,1,21,1.0,1.918,M,11.082,M,202156272.0,0000*7F
$GPESA,065617.935,+0.512,-4.480,-0.194,-0.763,+1.558,-173.778*7A
$GPESD,065617.935,0.000,0.000,0.000,0.000,0.000,0.000,0.000,0.000,0.000*79
$GPRMC,065618.095,A,3114.3455134,N,12129.1420275,E,9.02,42.29,210523,0.0,E,A,V*46
$GPGGA,065618.095,3114.3455134,N,12129.1420275,E,1,21,1.0,1.660,M,11.082,M,202156272.0,0000*76
$GPESA,065618.095,+0.616,-4.596,-0.162,-0.903,+1.977,-173.691*71
$GPESD,065618.095,0.000,0.000,0.000,0.000,0.000,0.000,0.000,0.000,0.000*75
$GPRMC,065618.213,A,3114.3452249,N,12129.1420690,E,9.05,42.71,210523,0.0,E,A,V*41
$GPGGA,065618.213,3114.3452249,N,12129.1420690,E,1,21,1.0,1.543,M,11.082,M,202156272.0,0000*79
$GPESA,065618.213,+0.593,-4.616,-0.161,-1.463,+1.629,-173.752*7B
$GPESD,065618.213,0.000,0.000,0.000,0.000,0.000,0.000,0.000,0.000,0.000*79
$GPRMC,065618.313,A,3114.3449952,N,12129.1421122,E,9.00,44.51,210523,0.0,E,A,V*45
$GPGGA,065618.313,3114.3449952,N,12129.1421122,E,1,22,1.0,1.436,M,11.082,M,202156272.0,0000*7C
$GPESA,065618.313,+0.533,-4.593,-0.231,-1.483,+1.793,-173.771*77
$GPESD,065618.313,0.000,0.000,0.000,0.000,0.000,0.000,0.000,0.000,0.000*78
$GPRMC,065618.413,A,3114.3447684,N,12129.1421619,E,8.98,44.97,210523,0.0,E,A,V*4D
$GPGGA,065618.413,3114.3447684,N,12129.1421619,E,1,21,1.0,1.357,M,11.082,M,202156272.0,0000*7D
$GPESA,065618.413,+0.526,-4.585,-0.259,-1.317,+2.024,-173.795*75
$GPESD,065618.413,0.000,0.000,0.000,0.000,0.000,0.000,0.000,0.000,0.000*7F
$GPRMC,065618.548,A,3114.3444530,N,12129.1422458,E,9.14,46.04,210523,0.0,E,A,V*44
$GPGGA,065618.548,3114.3444530,N,12129.1422458,E,1,22,1.0,1.295,M,11.082,M,202156272.0,0000*75
$GPESA,065618.548,+0.475,-4.670,-0.272,-1.300,+1.857,-173.796*77
$GPESD,065618.548,0.000,0.000,0.000,0.000,0.000,0.000,0.000,0.000,0.000*70
$GPRMC,065618.648,A,3114.3442152,N,12129.1423186,E,9.24,46.05,210523,0.0,E,A,V*44
$GPGGA,065618.648,3114.3442152,N,12129.1423186,E,1,21,1.0,1.272,M,11.082,M,202156272.0,0000*7D
$GPESA,065618.648,+0.483,-4.719,-0.280,-1.278,+1.836,-173.810*76
$GPESD,065618.648,0.000,0.000,0.000,0.000,0.000,0.000,0.000,0.000,0.000*73
$GPRMC,065618.773,A,3114.3439192,N,12129.1424349,E,9.35,44.39,210523,0.0,E,A,V*46
$GPGGA,065618.773,3114.3439192,N,12129.1424349,E,1,21,1.0,1.313,M,11.082,M,202156272.0,0000*74
$GPESA,065618.773,+0.563,-4.770,-0.243,-1.265,+1.745,-173.851*72
$GPESD,065618.773,0.000,0.000,0.000,0.000,0.000,0.000,0.000,0.000,0.000*7A
$GPRMC,065618.873,A,3114.3436767,N,12129.1425048,E,9.39,44.38,210523,0.0,E,A,V*44
$GPGGA,065618.873,3114.3436767,N,12129.1425048,E,1,22,1.0,1.340,M,11.082,M,202156272.0,0000*7E
$GPESA,065618.873,+0.572,-4.790,-0.251,-1.255,+1.708,-173.830*7D
$GPESD,065618.873,0.000,0.000,0.000,0.000,0.000,0.000,0.000,0.000,0.000*75
$GPRMC,065618.973,A,3114.3434177,N,12129.1425500,E,9.49,43.93,210523,0.0,E,A,V*48
$GPGGA,065618.973,3114.3434177,N,12129.1425500,E,1,20,1.0,1.369,M,11.082,M,202156272.0,0000*7A
$GPESA,065618.973,+0.625,-4.835,-0.280,-1.310,+1.635,-173.844*7D
$GPESD,065618.973,0.000,0.000,0.000,0.000,0.000,0.000,0.000,0.000,0.000*74
$GPRMC,065619.111,A,3114.3430549,N,12129.1426032,E,9.54,43.43,210523,0.0,E,A,V*4E
$GPGGA,065619.111,3114.3430549,N,12129.1426032,E,1,19,1.0,1.393,M,11.082,M,202156272.0,0000*72
$GPESA,065619.111,+0.686,-4.851,-0.320,-1.335,+1.257,-173.827*72
$GPESD,065619.111,0.000,0.000,0.000,0.000,0.000,0.000,0.000,0.000,0.000*79
$GPRMC,065619.211,A,3114.3427938,N,12129.1426399,E,9.56,45.31,210523,0.0,E,A,V*42
$GPGGA,065619.211,3114.3427938,N,12129.1426399,E,1,21,1.0,1.409,M,11.082,M,202156272.0,0000*70
$GPESA,065619.211,+0.563,-4.878,-0.309,-1.287,+1.290,-173.829*74
$GPESD,065619.211,0.000,0.000,0.000,0.000,0.000,0.000,0.000,0.000,0.000*7A
$GPRMC,065619.321,A,3114.3425090,N,12129.1426853,E,9.64,45.19,210523,0.0,E,A,V*4F
$GPGGA,065619.321,3114.3425090,N,12129.1426853,E,1,22,1.0,1.413,M,11.082,M,202156272.0,0000*7E
$GPESA,065619.321,+0.570,-4.918,-0.304,-1.182,+1.400,-173.815*78
$GPESD,065619.321,0.000,0.000,0.000,0.000,0.000,0.000,0.000,0.000,0.000*78
$GPRMC,065619.421,A,3114.3422426,N,12129.1427289,E,9.72,44.70,210523,0.0,E,A,V*43
$GPGGA,065619.421,3114.3422426,N,12129.1427289,E,1,22,1.0,1.434,M,11.082,M,202156272.0,0000*7E
$GPESA,065619.421,+0.597,-4.958,-0.295,-1.161,+1.493,-173.816*7F
$GPESD,065619.421,0.000,0.000,0.000,0.000,0.000,0.000,0.000,0.000,0.000*7F
$GPRMC,065619.559,A,3114.3418752,N,12129.1428068,E,9.79,44.05,210523,0.0,E,A,V*4F
$GPGGA,065619.559,3114.3418752,N,12129.1428068,E,1,21,1.0,1.521,M,11.082,M,202156272.0,0000*7D
$GPESA,065619.559,+0.664,-4.983,-0.326,-1.001,+1.350,-173.787*79
$GPESD,065619.559,0.000,0.000,0.000,0.000,0.000,0.000,0.000,0.000,0.000*71
$GPRMC,065619.659,A,3114.3416041,N,12129.1428523,E,9.89,42.94,210523,0.0,E,A,V*4C
$GPGGA,065619.659,3114.3416041,N,12129.1428523,E,1,21,1.0,1.490,M,11.082,M,202156272.0,0000*74
$GPESA,065619.659,+0.745,-5.024,-0.334,-1.136,+0.950,-173.804*74
$GPESD,065619.659,0.000,0.000,0.000,0.000,0.000,0.000,0.000,0.000,0.000*72
$GPRMC,065619.764,A,3114.3413236,N,12129.1428998,E,9.83,45.71,210523,0.0,E,A,V*4E
$GPGGA,065619.764,3114.3413236,N,12129.1428998,E,1,21,1.0,1.535,M,11.082,M,202156272.0,0000*7E
$GPESA,065619.764,+0.563,-5.017,-0.331,-1.147,+0.936,-173.709*7C
$GPESD,065619.764,0.000,0.000,0.000,0.000,0.000,0.000,0.000,0.000,0.000*7D
$GPRMC,065619.869,A,3114.3410618,N,12129.1430157,E,9.80,45.80,210523,0.0,E,A,V*48
$GPGGA,065619.869,3114.3410618,N,12129.1430157,E,1,21,1.0,1.643,M,11.082,M,202156272.0,0000*77
$GPESA,065619.869,+0.564,-4.997,-0.342,-1.154,+1.204,-173.630*7F
$GPESD,065619.869,0.000,0.000,0.000,0.000,0.000,0.000,0.000,0.000,0.000*7F
$GPRMC,065619.992,A,3114.3407493,N,12129.1431194,E,9.76,43.80,210523,0.0,E,A,V*4B
$GPGGA,065619.992,3114.3407493,N,12129.1431194,E,1,21,1.0,1.812,M,11.082,M,202156272.0,0000*71
$GPESA,065619.992,+0.660,-4.967,-0.301,-1.174,+1.124,-173.573*72
$GPESD,065619.992,0.000,0.000,0.000,0.000,0.000,0.000,0.000,0.000,0.000*7A
$GPRMC,065620.092,A,3114.3404777,N,12129.1431621,E,9.74,44.02,210523,0.0,E,A,V*44
$GPGGA,065620.092,3114.3404777,N,12129.1431621,E,1,21,1.0,1.852,M,11.082,M,202156272.0,0000*75
$GPESA,065620.092,+0.659,-4.959,-0.320,-1.131,+1.080,-173.514*7A
$GPESD,065620.092,0.000,0.000,0.000,0.000,0.000,0.000,0.000,0.000,0.000*79
$GPRMC,065620.235,A,3114.3400897,N,12129.1432040,E,9.78,44.54,210523,0.0,E,A,V*43
$GPGGA,065620.235,3114.3400897,N,12129.1432040,E,1,21,1.0,1.870,M,11.082,M,202156272.0,0000*7D
$GPESA,065620.235,+0.634,-4.981,-0.328,-1.081,+1.050,-173.481*79
$GPESD,065620.235,0.000,0.000,0.000,0.000,0.000,0.000,0.000,0.000,0.000*76
$GPRMC,065620.342,A,3114.3398009,N,12129.1432339,E,9.74,45.20,210523,0.0,E,A,V*48
$GPGGA,065620.342,3114.3398009,N,12129.1432339,E,1,21,1.0,1.885,M,11.082,M,202156272.0,0000*72
$GPESA,065620.342,+0.603,-4.963,-0.345,-1.029,+1.027,-173.442*76
$GPESD,065620.342,0.000,0.000,0.000,0.000,0.000,0.000,0.000,0.000,0.000*77
$GPRMC,065620.445,A,3114.3395280,N,12129.1432730,E,9.72,44.78,210523,0.0,E,A,V*41
$GPGGA,065620.445,3114.3395280,N,12129.1432730,E,1,21,1.0,1.885,M,11.082,M,202156272.0,0000*71
$GPESA,065620.445,+0.632,-4.951,-0.348,-1.005,+1.003,-173.375*73
$GPESD,065620.445,0.000,0.000,0.000,0.000,0.000,0.000,0.000,0.000,0.000*77
$GPRMC,065620.555,A,3114.3392563,N,12129.1433283,E,9.65,44.13,210523,0.0,E,A,V*4B
$GPGGA,065620.555,3114.3392563,N,12129.1433283,E,1,23,1.0,1.916,M,11.082,M,202156272.0,0000*79
$GPESA,065620.555,+0.649,-4.909,-0.320,-1.036,+0.943,-173.279*7D
$GPESD,065620.555,0.000,0.000,0.000,0.000,0.000,0.000,0.000,0.000,0.000*77
$GPRMC,065620.682,A,3114.3389182,N,12129.1433808,E,9.59,44.07,210523,0.0,E,A,V*40
$GPGGA,065620.682,3114.3389182,N,12129.1433808,E,1,23,1.0,1.874,M,11.082,M,202156272.0,0000*7D
$GPESA,065620.682,+0.659,-4.879,-0.332,-1.064,+0.942,-173.220*7A
$GPESD,065620.682,0.000,0.000,0.000,0.000,0.000,0.000,0.000,0.000,0.000*7E
$GPRMC,065620.803,A,3114.3386072,N,12129.1434137,E,9.46,43.32,210523,0.0,E,A,V*4B
$GPGGA,065620.803,3114.3386072,N,12129.1434137,E,1,23,1.0,1.890,M,11.082,M,202156272.0,0000*73
$GPESA,065620.803,+0.687,-4.809,-0.317,-1.133,+0.831,-173.159*75
$GPESD,065620.803,0.000,0.000,0.000,0.000,0.000,0.000,0.000,0.000,0.000*79
$GPRMC,065620.943,A,3114.3382509,N,12129.1434551,E,9.24,43.56,210523,0.0,E,A,V*41
$GPGGA,065620.943,3114.3382509,N,12129.1434551,E,1,23,1.0,1.861,M,11.082,M,202156272.0,0000*71
$GPESA,065620.943,+0.660,-4.694,-0.315,-1.237,+0.842,-173.102*7C
$GPESD,065620.943,0.000,0.000,0.000,0.000,0.000,0.000,0.000,0.000,0.000*7C
$GPRMC,065621.043,A,3114.3380031,N,12129.1434752,E,9.03,43.67,210523,0.0,E,A,V*43
$GPGGA,065621.043,3114.3380031,N,12129.1434752,E,1,23,1.0,1.839,M,11.082,M,202156272.0,0000*79
$GPESA,065621.043,+0.652,-4.590,-0.324,-1.288,+0.846,-173.064*71
$GPESD,065621.043,0.000,0.000,0.000,0.000,0.000,0.000,0.000,0.000,0.000*74
$GPRMC,065621.178,A,3114.3376729,N,12129.1435317,E,8.75,43.06,210523,0.0,E,A,V*4E
$GPGGA,065621.178,3114.3376729,N,12129.1435317,E,1,23,1.0,1.795,M,11.082,M,202156272.0,0000*7A
$GPESA,065621.178,+0.682,-4.437,-0.339,-1.365,+0.835,-173.049*7C
$GPESD,065621.178,0.000,0.000,0.000,0.000,0.000,0.000,0.000,0.000,0.000*7D
$GPRMC,065621.298,A,3114.3373942,N,12129.1435244,E,8.51,42.24,210523,0.0,E,A,V*45
$GPGGA,065621.298,3114.3373942,N,12129.1435244,E,1,24,1.0,1.781,M,11.082,M,202156272.0,0000*74
$GPESA,065621.298,+0.675,-4.316,-0.284,-1.389,+0.759,-172.987*77
$GPESD,065621.298,0.000,0.000,0.000,0.000,0.000,0.000,0.000,0.000,0.000*70
$GPRMC,065621.398,A,3114.3371697,N,12129.1435484,E,8.31,42.32,210523,0.0,E,A,V*4A
$GPGGA,065621.398,3114.3371697,N,12129.1435484,E,1,24,1.0,1.759,M,11.082,M,202156272.0,0000*7F
$GPESA,065621.398,+0.662,-4.212,-0.288,-1.408,+0.671,-172.954*72
$GPESD,065621.398,0.000,0.000,0.000,0.000,0.000,0.000,0.000,0.000,0.000*71
$GPRMC,065621.513,A,3114.3369199,N,12129.1435750,E,8.04,42.66,210523,0.0,E,A,V*42
$GPGGA,065621.513,3114.3369199,N,12129.1435750,E,1,24,1.0,1.733,M,11.082,M,202156272.0,0000*7C
$GPESA,065621.513,+0.625,-4.077,-0.281,-1.412,+0.711,-172.880*78
$GPESD,065621.513,0.000,0.000,0.000,0.000,0.000,0.000,0.000,0.000,0.000*74
$GPRMC,065621.613,A,3114.3367044,N,12129.1435961,E,7.83,42.37,210523,0.0,E,A,V*46
$GPGGA,065621.613,3114.3367044,N,12129.1435961,E,1,24,1.0,1.714,M,11.082,M,202156272.0,0000*79
$GPESA,065621.613,+0.621,-3.972,-0.271,-1.393,+0.739,-172.829*7C
$GPESD,065621.613,0.000,0.000,0.000,0.000,0.000,0.000,0.000,0.000,0.000*77
$GPRMC,065621.713,A,3114.3367039,N,12129.1435942,E,7.07,41.76,210523,0.0,E,A,V*46
$GPGGA,065621.713,3114.3367039,N,12129.1435942,E,1,24,1.0,1.753,M,11.082,M,202156272.0,0000*70
$GPESA,065621.713,+0.592,-3.582,-0.250,-0.727,+0.790,-172.748*77
$GPESD,065621.713,0.000,0.000,0.000,0.000,0.000,0.000,0.000,0.000,0.000*76
$GPRMC,065621.813,A,3114.3367065,N,12129.1435980,E,6.35,40.91,210523,0.0,E,A,V*46
$GPGGA,065621.813,3114.3367065,N,12129.1435980,E,1,24,1.0,1.786,M,11.082,M,202156272.0,0000*70
$GPESA,065621.813,+0.576,-3.205,-0.245,-0.077,+0.798,-172.664*7B
$GPESD,065621.813,0.000,0.000,0.000,0.000,0.000,0.000,0.000,0.000,0.000*79
$GPRMC,065621.934,A,3114.3366927,N,12129.1436036,E,5.56,40.62,210523,0.0,E,A,V*41
$GPGGA,065621.934,3114.3366927,N,12129.1436036,E,1,24,1.0,1.809,M,11.082,M,202156272.0,0000*75
$GPESA,065621.934,+0.526,-2.801,-0.233,+0.541,+0.708,-172.584*76
$GPESD,065621.934,0.000,0.000,0.000,0.000,0.000,0.000,0.000,0.000,0.000*7D
$GPRMC,065622.086,A,3114.3367863,N,12129.1435763,E,4.28,40.78,210523,0.0,E,A,V*45
$GPGGA,065622.086,3114.3367863,N,12129.1435763,E,1,25,1.0,1.862,M,11.082,M,202156272.0,0000*7E
$GPESA,065622.086,+0.437,-2.144,-0.234,+1.708,+0.691,-172.399*7E
$GPESD,065622.086,0.000,0.000,0.000,0.000,0.000,0.000,0.000,0.000,0.000*7E
$GPRMC,065622.206,A,3114.3368120,N,12129.1435713,E,3.47,41.87,210523,0.0,E,A,V*46
$GPGGA,065622.206,3114.3368120,N,12129.1435713,E,1,24,1.0,1.877,M,11.082,M,202156272.0,0000*77
$GPESA,065622.206,+0.373,-1.728,-0.250,+2.420,+0.751,-172.250*7D
$GPESD,065622.206,0.000,0.000,0.000,0.000,0.000,0.000,0.000,0.000,0.000*74
$GPRMC,065622.306,A,3114.3368798,N,12129.1435596,E,2.75,39.32,210523,0.0,E,A,V*4C
$GPGGA,065622.306,3114.3368798,N,12129.1435596,E,1,24,1.0,1.903,M,11.082,M,202156272.0,0000*7E
$GPESA,065622.306,+0.353,-1.348,-0.234,+3.053,+0.799,-172.150*78
$GPESD,065622.306,0.000,0.000,0.000,0.000,0.000,0.000,0.000,0.000,0.000*75
$GPRMC,065622.407,A,3114.3369687,N,12129.1435441,E,2.00,35.21,210523,0.0,E,A,V*43
$GPGGA,065622.407,3114.3369687,N,12129.1435441,E,1,23,1.0,1.933,M,11.082,M,202156272.0,0000*79
$GPESA,065622.407,+0.328,-0.948,-0.238,+3.726,+0.797,-172.046*78
$GPESD,065622.407,0.000,0.000,0.000,0.000,0.000,0.000,0.000,0.000,0.000*73
$GPRMC,065622.507,A,3114.3371287,N,12129.1435062,E,0.87,35.21,210523,0.0,E,A,V*47
$GPGGA,065622.507,3114.3371287,N,12129.1435062,E,1,23,1.0,1.975,M,11.082,M,202156272.0,0000*72
$GPESA,065622.507,+0.029,+0.443,-0.041,+3.811,+0.755,-171.983*71
$GPESD,065622.507,0.000,0.000,0.000,0.000,0.000,0.000,0.000,0.000,0.000*72
$GPRMC,065622.617,A,3114.3371778,N,12129.1435022,E,0.70,35.21,210523,0.0,E,A,V*4C
$GPGGA,065622.617,3114.3371778,N,12129.1435022,E,1,24,1.0,2.038,M,11.082,M,202156272.0,0000*75
$GPESA,065622.617,+0.227,-0.159,-0.233,+5.027,+0.766,-171.716*79
$GPESD,065622.617,0.000,0.000,0.000,0.000,0.000,0.000,0.000,0.000,0.000*70
$GPRMC,065622.717,A,3114.3372935,N,12129.1434622,E,0.65,35.21,210523,0.0,E,A,V*4A
$GPGGA,065622.717,3114.3372935,N,12129.1434622,E,1,24,1.0,2.146,M,11.082,M,202156272.0,0000*7F
$GPESA,065622.717,+0.123,+0.229,-0.210,+5.620,+0.805,-171.432*72
$GPESD,065622.717,0.000,0.000,0.000,0.000,0.000,0.000,0.000,0.000,0.000*71
$GPRMC,065622.844,A,3114.3373524,N,12129.1434223,E,1.22,35.21,210523,0.0,E,A,V*49
$GPGGA,065622.844,3114.3373524,N,12129.1434223,E,1,24,1.0,2.274,M,11.082,M,202156272.0,0000*7C
$GPESA,065622.844,+0.003,+0.606,-0.167,+5.941,+0.920,-171.062*7D
$GPESD,065622.844,0.000,0.000,0.000,0.000,0.000,0.000,0.000,0.000,0.000*78
$GPRMC,065622.947,A,3114.3373022,N,12129.1434187,E,1.52,35.21,210523,0.0,E,A,V*42
$GPGGA,065622.947,3114.3373022,N,12129.1434187,E,1,24,1.0,2.358,M,11.082,M,202156272.0,0000*7F
$GPESA,065622.947,-0.057,+0.767,-0.148,+5.792,+1.040,-170.914*74
$GPESD,065622.947,0.000,0.000,0.000,0.000,0.000,0.000,0.000,0.000,0.000*7A
$GPRMC,065623.047,A,3114.3373212,N,12129.1434273,E,2.02,217.66,210523,0.0,E,A,V*74
$GPGGA,065623.047,3114.3373212,N,12129.1434273,E,1,24,1.0,2.365,M,11.082,M,202156272.0,0000*70
$GPESA,065623.047,-0.063,+1.022,-0.179,+5.894,+1.024,-170.979*7E
$GPESD,065623.047,0.000,0.000,0.000,0.000,0.000,0.000,0.000,0.000,0.000*72
$GPRMC,065623.147,A,3114.3373490,N,12129.1434291,E,2.49,218.70,210523,0.0,E,A,V*72
$GPGGA,065623.147,3114.3373490,N,12129.1434291,E,1,24,1.0,2.353,M,11.082,M,202156272.0,0000*74
$GPESA,065623.147,-0.065,+1.263,-0.208,+6.017,+0.984,-171.004*7B
$GPESD,065623.147,0.000,0.000,0.000,0.000,0.000,0.000,0.000,0.000,0.000*73
$GPRMC,065623.277,A,3114.3373692,N,12129.1434272,E,3.06,218.99,210523,0.0,E,A,V*72
$GPGGA,065623.277,3114.3373692,N,12129.1434272,E,1,24,1.0,2.320,M,11.082,M,202156272.0,0000*7D
$GPESA,065623.277,-0.093,+1.556,-0.226,+6.150,+0.901,-171.097*7A
$GPESD,065623.277,0.000,0.000,0.000,0.000,0.000,0.000,0.000,0.000,0.000*73
$GPRMC,065623.400,A,3114.3374824,N,12129.1434190,E,3.65,219.32,210523,0.0,E,A,V*7A
$GPGGA,065623.400,3114.3374824,N,12129.1434190,E,1,24,1.0,2.291,M,11.082,M,202156272.0,0000*7B
$GPESA,065623.400,-0.108,+1.856,-0.258,+6.285,+0.883,-171.040*71
$GPESD,065623.400,0.000,0.000,0.000,0.000,0.000,0.000,0.000,0.000,0.000*75
$GPRMC,065623.518,A,3114.3375218,N,12129.1434145,E,4.14,219.57,210523,0.0,E,A,V*7C
$GPGGA,065623.518,3114.3375218,N,12129.1434145,E,1,24,1.0,2.236,M,11.082,M,202156272.0,0000*72
$GPESA,065623.518,-0.119,+2.106,-0.286,+6.427,+0.777,-171.183*71
$GPESD,065623.518,0.000,0.000,0.000,0.000,0.000,0.000,0.000,0.000,0.000*7D
$GPRMC,065623.640,A,3114.3376174,N,12129.1434615,E,4.57,219.96,210523,0.0,E,A,V*70
$GPGGA,065623.640,3114.3376174,N,12129.1434615,E,1,25,1.0,2.240,M,11.082,M,202156272.0,0000*74
$GPESA,065623.640,-0.125,+2.326,-0.305,+6.603,+0.738,-171.212*7E
$GPESD,065623.640,0.000,0.000,0.000,0.000,0.000,0.000,0.000,0.000,0.000*73
$GPRMC,065623.775,A,3114.3376350,N,12129.1434809,E,4.68,220.83,210523,0.0,E,A,V*72
$GPGGA,065623.775,3114.3376350,N,12129.1434809,E,1,25,1.0,2.251,M,11.082,M,202156272.0,0000*74
$GPESA,065623.775,-0.107,+2.388,-0.295,+6.228,+0.710,-171.321*73
$GPESD,065623.775,0.000,0.000,0.000,0.000,0.000,0.000,0.000,0.000,0.000*74
$GPRMC,065641.076,A,3114.3199811,N,12129.1451282,E,8.15,43.72,210523,0.0,E,A,V*4A
$GPGGA,065641.076,3114.3199811,N,12129.1451282,E,1,21,1.0,2.658,M,11.083,M,0.0,0000*7E
$GPESA,065641.076,+0.436,-4.171,-0.087,-0.607,+1.758,-173.487*7A
$GPESD,065641.076,0.000,0.000,0.000,0.000,0.000,0.000,0.000,0.000,0.000*74
$GPRMC,065641.193,A,3114.3197122,N,12129.1451613,E,8.37,43.77,210523,0.0,E,A,V*4E
$GPGGA,065641.193,3114.3197122,N,12129.1451613,E,1,21,1.0,2.646,M,11.083,M,0.0,0000*70
$GPESA,065641.193,+0.464,-4.282,-0.114,-0.593,+1.725,-173.581*70
$GPESD,065641.193,0.000,0.000,0.000,0.000,0.000,0.000,0.000,0.000,0.000*7E
$GPRMC,065641.313,A,3114.3194494,N,12129.1452497,E,8.55,43.60,210523,0.0,E,A,V*40
$GPGGA,065641.313,3114.3194494,N,12129.1452497,E,1,21,1.0,2.652,M,11.083,M,0.0,0000*79
$GPESA,065641.313,+0.485,-4.372,-0.119,-0.520,+1.481,-173.754*79
$GPESD,065641.313,0.000,0.000,0.000,0.000,0.000,0.000,0.000,0.000,0.000*74
$GPRMC,065641.434,A,3114.3191592,N,12129.1452939,E,8.81,43.78,210523,0.0,E,A,V*49
$GPGGA,065641.434,3114.3191592,N,12129.1452939,E,1,21,1.0,2.642,M,11.083,M,0.0,0000*71
$GPESA,065641.434,+0.489,-4.503,-0.124,-0.612,+1.390,-173.854*73
$GPESD,065641.434,0.000,0.000,0.000,0.000,0.000,0.000,0.000,0.000,0.000*76
$GPRMC,065641.579,A,3114.3188099,N,12129.1453848,E,9.00,44.11,210523,0.0,E,A,V*41
$GPGGA,065641.579,3114.3188099,N,12129.1453848,E,1,21,1.0,2.641,M,11.083,M,0.0,0000*7A
$GPESA,065641.579,+0.491,-4.600,-0.141,-0.763,+1.344,-173.864*7C
$GPESD,065641.579,0.000,0.000,0.000,0.000,0.000,0.000,0.000,0.000,0.000*7E
$GPRMC,065641.699,A,3114.3185080,N,12129.1454234,E,9.15,43.94,210523,0.0,E,A,V*41
$GPGGA,065641.699,3114.3185080,N,12129.1454234,E,1,21,1.0,2.623,M,11.083,M,0.0,0000*70
$GPESA,065641.699,+0.517,-4.676,-0.154,-0.826,+1.387,-173.887*77
$GPESD,065641.699,0.000,0.000,0.000,0.000,0.000,0.000,0.000,0.000,0.000*73
$GPRMC,065641.816,A,3114.3182147,N,12129.1454919,E,9.24,43.09,210523,0.0,E,A,V*47
$GPGGA,065641.816,3114.3182147,N,12129.1454919,E,1,21,1.0,2.618,M,11.083,M,0.0,0000*78
$GPESA,065641.816,+0.586,-4.715,-0.171,-0.912,+1.229,-173.868*77
$GPESD,065641.816,0.000,0.000,0.000,0.000,0.000,0.000,0.000,0.000,0.000*7A
$GPRMC,065641.937,A,3114.3179085,N,12129.1455566,E,9.31,43.11,210523,0.0,E,A,V*46
$GPGGA,065641.937,3114.3179085,N,12129.1455566,E,1,21,1.0,2.606,M,11.083,M,0.0,0000*7B
$GPESA,065641.937,+0.600,-4.746,-0.187,-1.020,+1.046,-173.852*7C
$GPESD,065641.937,0.000,0.000,0.000,0.000,0.000,0.000,0.000,0.000,0.000*78
$GPRMC,065642.037,A,3114.3176519,N,12129.1456136,E,9.33,43.00,210523,0.0,E,A,V*43
$GPGGA,065642.037,3114.3176519,N,12129.1456136,E,1,21,1.0,2.598,M,11.083,M,0.0,0000*78
$GPESA,065642.037,+0.616,-4.754,-0.199,-1.058,+0.910,-173.797*7F
$GPESD,065642.037,0.000,0.000,0.000,0.000,0.000,0.000,0.000,0.000,0.000*72
$GPRMC,065642.157,A,3114.3173410,N,12129.1456581,E,9.33,43.54,210523,0.0,E,A,V*40
$GPGGA,065642.157,3114.3173410,N,12129.1456581,E,1,21,1.0,2.580,M,11.083,M,0.0,0000*73
$GPESA,065642.157,+0.584,-4.762,-0.200,-1.053,+0.996,-173.745*7C
$GPESD,065642.157,0.000,0.000,0.000,0.000,0.000,0.000,0.000,0.000,0.000*75
$GPRMC,065642.257,A,3114.3170803,N,12129.1456968,E,9.36,43.04,210523,0.0,E,A,V*45
$GPGGA,065642.257,3114.3170803,N,12129.1456968,E,1,21,1.0,2.566,M,11.083,M,0.0,0000*7E
$GPESA,065642.257,+0.621,-4.772,-0.207,-1.064,+1.023,-173.701*77
$GPESD,065642.257,0.000,0.000,0.000,0.000,0.000,0.000,0.000,0.000,0.000*76
$GPRMC,065642.392,A,3114.3167266,N,12129.1457499,E,9.42,43.20,210523,0.0,E,A,V*45
$GPGGA,065642.392,3114.3167266,N,12129.1457499,E,1,21,1.0,2.554,M,11.083,M,0.0,0000*7A
$GPESA,065642.392,+0.633,-4.798,-0.234,-1.113,+1.013,-173.647*79
$GPESD,065642.392,0.000,0.000,0.000,0.000,0.000,0.000,0.000,0.000,0.000*7E
$GPRMC,065642.495,A,3114.3164581,N,12129.1457920,E,9.43,43.07,210523,0.0,E,A,V*43
$GPGGA,065642.495,3114.3164581,N,12129.1457920,E,1,21,1.0,2.537,M,11.083,M,0.0,0000*7D
$GPESA,065642.495,+0.643,-4.802,-0.236,-1.142,+0.974,-173.613*7C
$GPESD,065642.495,0.000,0.000,0.000,0.000,0.000,0.000,0.000,0.000,0.000*7E
$GPRMC,065642.602,A,3114.3161795,N,12129.1458401,E,9.42,42.68,210523,0.0,E,A,V*45
$GPGGA,065642.602,3114.3161795,N,12129.1458401,E,1,21,1.0,2.518,M,11.083,M,0.0,0000*7F
$GPESA,065642.602,+0.667,-4.793,-0.237,-1.124,+0.873,-173.559*7B
$GPESD,065642.602,0.000,0.000,0.000,0.000,0.000,0.000,0.000,0.000,0.000*72
$GPRMC,065642.740,A,3114.3158242,N,12129.1458968,E,9.41,42.60,210523,0.0,E,A,V*4E
$GPGGA,065642.740,3114.3158242,N,12129.1458968,E,1,20,1.0,2.497,M,11.083,M,0.0,0000*78
$GPESA,065642.740,+0.673,-4.787,-0.239,-1.108,+0.885,-173.477*78
$GPESD,065642.740,0.000,0.000,0.000,0.000,0.000,0.000,0.000,0.000,0.000*75
$GPRMC,065642.855,A,3114.3155269,N,12129.1459469,E,9.38,42.46,210523,0.0,E,A,V*46
$GPGGA,065642.855,3114.3155269,N,12129.1459469,E,1,20,1.0,2.487,M,11.083,M,0.0,0000*7B
$GPESA,065642.855,+0.688,-4.767,-0.251,-1.202,+0.824,-173.404*71
$GPESD,065642.855,0.000,0.000,0.000,0.000,0.000,0.000,0.000,0.000,0.000*7E
$GPRMC,065642.955,A,3114.3152706,N,12129.1459882,E,9.32,42.46,210523,0.0,E,A,V*4F
$GPGGA,065642.955,3114.3152706,N,12129.1459882,E,1,20,1.0,2.472,M,11.083,M,0.0,0000*72
$GPESA,065642.955,+0.696,-4.735,-0.268,-1.177,+0.847,-173.337*71
$GPESD,065642.955,0.000,0.000,0.000,0.000,0.000,0.000,0.000,0.000,0.000*7F
$GPRMC,065643.063,A,3114.3149956,N,12129.1460362,E,9.29,42.16,210523,0.0,E,A,V*43
$GPGGA,065643.063,3114.3149956,N,12129.1460362,E,1,20,1.0,2.443,M,11.083,M,0.0,0000*73
$GPESA,065643.063,+0.715,-4.717,-0.272,-1.141,+0.834,-173.319*70
$GPESD,065643.063,0.000,0.000,0.000,0.000,0.000,0.000,0.000,0.000,0.000*72
$GPRMC,065643.203,A,3114.3146382,N,12129.1460975,E,9.26,42.10,210523,0.0,E,A,V*4E
$GPGGA,065643.203,3114.3146382,N,12129.1460975,E,1,20,1.0,2.419,M,11.083,M,0.0,0000*78
$GPESA,065643.203,+0.706,-4.707,-0.255,-1.129,+0.790,-173.330*76
$GPESD,065643.203,0.000,0.000,0.000,0.000,0.000,0.000,0.000,0.000,0.000*76
$GPRMC,065643.333,A,3114.3143181,N,12129.1461358,E,9.14,42.30,210523,0.0,E,A,V*4F
$GPGGA,065643.333,3114.3143181,N,12129.1461358,E,1,20,1.0,2.452,M,11.083,M,0.0,0000*75
$GPESA,065643.333,+0.685,-4.647,-0.252,-1.059,+0.781,-173.338*72
$GPESD,065643.333,0.000,0.000,0.000,0.000,0.000,0.000,0.000,0.000,0.000*74
$GPRMC,065643.463,A,3114.3139919,N,12129.1461833,E,9.09,41.55,210523,0.0,E,A,V*43
$GPGGA,065643.463,3114.3139919,N,12129.1461833,E,1,20,1.0,2.464,M,11.083,M,0.0,0000*70
$GPESA,065643.463,+0.735,-4.608,-0.267,-0.940,+0.764,-173.343*70
$GPESD,065643.463,0.000,0.000,0.000,0.000,0.000,0.000,0.000,0.000,0.000*76
$GPRMC,065643.598,A,3114.3136533,N,12129.1462399,E,9.07,41.50,210523,0.0,E,A,V*4E
$GPGGA,065643.598,3114.3136533,N,12129.1462399,E,1,20,1.0,2.453,M,11.083,M,0.0,0000*72
$GPESA,065643.598,+0.730,-4.601,-0.257,-0.843,+0.594,-173.267*72
$GPESD,065643.598,0.000,0.000,0.000,0.000,0.000,0.000,0.000,0.000,0.000*73
$GPRMC,065643.698,A,3114.3134034,N,12129.1462857,E,9.14,41.99,210523,0.0,E,A,V*43
$GPGGA,065643.698,3114.3134034,N,12129.1462857,E,1,20,1.0,2.427,M,11.083,M,0.0,0000*7B
$GPESA,065643.698,+0.714,-4.638,-0.268,-0.864,+0.515,-173.281*75
$GPESD,065643.698,0.000,0.000,0.000,0.000,0.000,0.000,0.000,0.000,0.000*70
$GPRMC,065643.806,A,3114.3131314,N,12129.1463255,E,9.24,42.59,210523,0.0,E,A,V*4B
$GPGGA,065643.806,3114.3131314,N,12129.1463255,E,1,21,1.0,2.493,M,11.083,M,0.0,0000*71
$GPESA,065643.806,+0.698,-4.692,-0.287,-0.956,+0.648,-173.233*7A
$GPESD,065643.806,0.000,0.000,0.000,0.000,0.000,0.000,0.000,0.000,0.000*79
$GPRMC,065643.906,A,3114.3128769,N,12129.1463665,E,9.36,42.30,210523,0.0,E,A,V*47
$GPGGA,065643.906,3114.3128769,N,12129.1463665,E,1,21,1.0,2.479,M,11.083,M,0.0,0000*75
$GPESA,065643.906,+0.726,-4.750,-0.294,-0.961,+0.799,-173.143*7F
$GPESD,065643.906,0.000,0.000,0.000,0.000,0.000,0.000,0.000,0.000,0.000*78
$GPRMC,065644.041,A,3114.3125235,N,12129.1464263,E,9.61,39.89,210523,0.0,E,A,V*42
$GPGGA,065644.041,3114.3125235,N,12129.1464263,E,1,21,1.0,2.456,M,11.083,M,0.0,0000*71
$GPESA,065644.041,+0.863,-4.863,-0.265,-1.076,+0.851,-173.104*7B
$GPESD,065644.041,0.000,0.000,0.000,0.000,0.000,0.000,0.000,0.000,0.000*75
$GPRMC,065644.151,A,3114.3122329,N,12129.1464779,E,9.69,40.19,210523,0.0,E,A,V*48
$GPGGA,065644.151,3114.3122329,N,12129.1464779,E,1,21,1.0,2.445,M,11.083,M,0.0,0000*76
$GPESA,065644.151,+0.858,-4.905,-0.275,-1.199,+0.587,-173.109*78
$GPESD,065644.151,0.000,0.000,0.000,0.000,0.000,0.000,0.000,0.000,0.000*75
$GPRMC,065644.251,A,3114.3119608,N,12129.1464891,E,9.78,41.70,210523,0.0,E,A,V*42
$GPGGA,065644.251,3114.3119608,N,12129.1464891,E,1,20,1.0,2.498,M,11.083,M,0.0,0000*73
$GPESA,065644.251,+0.788,-4.963,-0.296,-1.105,+0.554,-173.061*70
$GPESD,065644.251,0.000,0.000,0.000,0.000,0.000,0.000,0.000,0.000,0.000*76
$GPRMC,065644.351,A,3114.3116822,N,12129.1465269,E,9.98,42.20,210523,0.0,E,A,V*4E
$GPGGA,065644.351,3114.3116822,N,12129.1465269,E,1,20,1.0,2.516,M,11.083,M,0.0,0000*70
$GPESA,065644.351,+0.778,-5.068,-0.309,-0.926,+0.633,-172.940*7B
$GPESD,065644.351,0.000,0.000,0.000,0.000,0.000,0.000,0.000,0.000,0.000*77
$GPRMC,065644.451,A,3114.3114051,N,12129.1465753,E,10.18,42.42,210523,0.0,E,A,V*7F
$GPGGA,065644.451,3114.3114051,N,12129.1465753,E,1,20,1.0,2.484,M,11.083,M,0.0,0000*7F
$GPESA,065644.451,+0.787,-5.165,-0.327,-0.828,+0.748,-172.917*7C
$GPESD,065644.451,0.000,0.000,0.000,0.000,0.000,0.000,0.000,0.000,0.000*70
$GPRMC,065644.551,A,3114.3111161,N,12129.1466001,E,10.40,41.71,210523,0.0,E,A,V*74
$GPGGA,065644.551,3114.3111161,N,12129.1466001,E,1,21,1.0,2.504,M,11.083,M,0.0,0000*72
$GPESA,065644.551,+0.846,-5.272,-0.329,-0.794,+0.872,-172.850*78
$GPESD,065644.551,0.000,0.000,0.000,0.000,0.000,0.000,0.000,0.000,0.000*71
$GPRMC,065644.682,A,3114.3107350,N,12129.1466586,E,10.65,39.94,210523,0.0,E,A,V*77
$GPGGA,065644.682,3114.3107350,N,12129.1466586,E,1,21,1.0,2.513,M,11.083,M,0.0,0000*74
$GPESA,065644.682,+0.942,-5.389,-0.276,-0.861,+0.814,-172.804*7A
$GPESD,065644.682,0.000,0.000,0.000,0.000,0.000,0.000,0.000,0.000,0.000*7C
$GPRMC,065644.852,A,3114.3102304,N,12129.1467279,E,10.91,40.02,210523,0.0,E,A,V*7C
$GPGGA,065644.852,3114.3102304,N,12129.1467279,E,1,20,1.0,2.551,M,11.083,M,0.0,0000*72
$GPESA,065644.852,+0.964,-5.523,-0.289,-0.940,+0.749,-172.740*71
$GPESD,065644.852,0.000,0.000,0.000,0.000,0.000,0.000,0.000,0.000,0.000*7F
$GPRMC,065645.012,A,3114.3097349,N,12129.1467867,E,11.19,40.20,210523,0.0,E,A,V*71
$GPGGA,065645.012,3114.3097349,N,12129.1467867,E,1,21,1.0,2.589,M,11.083,M,0.0,0000*7A
$GPESA,065645.012,+0.982,-5.662,-0.306,-0.927,+0.734,-172.746*79
$GPESD,065645.012,0.000,0.000,0.000,0.000,0.000,0.000,0.000,0.000,0.000*72
$GPRMC,065645.112,A,3114.3094178,N,12129.1468148,E,11.40,40.39,210523,0.0,E,A,V*7C
$GPGGA,065645.112,3114.3094178,N,12129.1468148,E,1,21,1.0,2.609,M,11.083,M,0.0,0000*78
$GPESA,065645.112,+0.983,-5.771,-0.306,-0.906,+0.730,-172.695*72
$GPESD,065645.112,0.000,0.000,0.000,0.000,0.000,0.000,0.000,0.000,0.000*73
$GPRMC,065645.219,A,3114.3090752,N,12129.1468432,E,11.55,40.21,210523,0.0,E,A,V*7B
$GPGGA,065645.219,3114.3090752,N,12129.1468432,E,1,21,1.0,2.627,M,11.083,M,0.0,0000*7E
$GPESA,065645.219,+0.994,-5.849,-0.287,-0.899,+0.819,-172.634*78
$GPESD,065645.219,0.000,0.000,0.000,0.000,0.000,0.000,0.000,0.000,0.000*7B
$GPRMC,065645.320,A,3114.3087496,N,12129.1468617,E,11.68,40.00,210523,0.0,E,A,V*75
$GPGGA,065645.320,3114.3087496,N,12129.1468617,E,1,21,1.0,2.648,M,11.083,M,0.0,0000*74
$GPESA,065645.320,+1.015,-5.918,-0.280,-0.954,+0.889,-172.577*7D
$GPESD,065645.320,0.000,0.000,0.000,0.000,0.000,0.000,0.000,0.000,0.000*70
$GPRMC,065645.450,A,3114.3083250,N,12129.1469066,E,11.79,40.28,210523,0.0,E,A,V*76
$GPGGA,065645.450,3114.3083250,N,12129.1469066,E,1,21,1.0,2.649,M,11.083,M,0.0,0000*7C
$GPESA,065645.450,+1.023,-5.970,-0.313,-0.994,+0.911,-172.525*76
$GPESD,065645.450,0.000,0.000,0.000,0.000,0.000,0.000,0.000,0.000,0.000*70
$GPRMC,065645.550,A,3114.3079890,N,12129.1468966,E,11.82,40.31,210523,0.0,E,A,V*70
$GPGGA,065645.550,3114.3079890,N,12129.1468966,E,1,21,1.0,2.687,M,11.083,M,0.0,0000*74
$GPESA,065645.550,+1.006,-5.991,-0.286,-1.061,+0.959,-172.468*74
$GPESD,065645.550,0.000,0.000,0.000,0.000,0.000,0.000,0.000,0.000,0.000*71
$GPRMC,065645.657,A,3114.3076403,N,12129.1469648,E,11.80,40.18,210523,0.0,E,A,V*76
$GPGGA,065645.657,3114.3076403,N,12129.1469648,E,1,21,1.0,2.656,M,11.083,M,0.0,0000*77
$GPESA,065645.657,+1.023,-5.977,-0.300,-1.165,+0.954,-172.408*7E
$GPESD,065645.657,0.000,0.000,0.000,0.000,0.000,0.000,0.000,0.000,0.000*75
$GPRMC,065645.795,A,3114.3071784,N,12129.1469786,E,11.82,40.18,210523,0.0,E,A,V*73
$GPGGA,065645.795,3114.3071784,N,12129.1469786,E,1,21,1.0,2.685,M,11.083,M,0.0,0000*7E
$GPESA,065645.795,+1.006,-5.992,-0.272,-1.139,+1.073,-172.290*7A
$GPESD,065645.795,0.000,0.000,0.000,0.000,0.000,0.000,0.000,0.000,0.000*7A
$GPRMC,065645.915,A,3114.3067842,N,12129.1470293,E,11.85,39.92,210523,0.0,E,A,V*75
$GPGGA,065645.915,3114.3067842,N,12129.1470293,E,1,21,1.0,2.680,M,11.083,M,0.0,0000*76
$GPESA,065645.915,+1.029,-6.003,-0.275,-1.091,+1.099,-172.185*74
$GPESD,065645.915,0.000,0.000,0.000,0.000,0.000,0.000,0.000,0.000,0.000*7C
$GPRMC,065646.018,A,3114.3064452,N,12129.1470632,E,11.89,40.35,210523,0.0,E,A,V*7C
$GPGGA,065646.018,3114.3064452,N,12129.1470632,E,1,21,1.0,2.685,M,11.083,M,0.0,0000*75
$GPESA,065646.018,+0.991,-6.028,-0.261,-1.116,+1.104,-172.108*7A
$GPESD,065646.018,0.000,0.000,0.000,0.000,0.000,0.000,0.000,0.000,0.000*7B
$GPRMC,065646.125,A,3114.3060921,N,12129.1471012,E,11.89,40.32,210523,0.0,E,A,V*7C
$GPGGA,065646.125,3114.3060921,N,12129.1471012,E,1,21,1.0,2.688,M,11.083,M,0.0,0000*7F
$GPESA,065646.125,+0.996,-6.031,-0.265,-1.156,+1.208,-172.027*79
$GPESD,065646.125,0.000,0.000,0.000,0.000,0.000,0.000,0.000,0.000,0.000*74
$GPRMC,065646.258,A,3114.3056569,N,12129.1471586,E,11.90,40.17,210523,0.0,E,A,V*77
$GPGGA,065646.258,3114.3056569,N,12129.1471586,E,1,21,1.0,2.679,M,11.083,M,0.0,0000*75
$GPESA,065646.258,+1.024,-6.031,-0.289,-1.228,+1.215,-171.931*78
$GPESD,065646.258,0.000,0.000,0.000,0.000,0.000,0.000,0.000,0.000,0.000*7D
$GPRMC,065646.403,A,3114.3051858,N,12129.1472092,E,11.89,40.14,210523,0.0,E,A,V*7F
$GPGGA,065646.403,3114.3051858,N,12129.1472092,E,1,22,1.0,2.706,M,11.083,M,0.0,0000*7C
$GPESA,065646.403,+1.015,-6.028,-0.274,-1.185,+1.204,-171.807*78
$GPESD,065646.403,0.000,0.000,0.000,0.000,0.000,0.000,0.000,0.000,0.000*75
$GPRMC,065646.516,A,3114.3048164,N,12129.1472554,E,11.87,40.83,210523,0.0,E,A,V*7B
$GPGGA,065646.516,3114.3048164,N,12129.1472554,E,1,22,1.0,2.710,M,11.083,M,0.0,0000*7F
$GPESA,065646.516,+0.962,-6.022,-0.274,-1.165,+1.270,-171.737*7E
$GPESD,065646.516,0.000,0.000,0.000,0.000,0.000,0.000,0.000,0.000,0.000*70
$GPRMC,065646.623,A,3114.3044596,N,12129.1473084,E,11.87,40.70,210523,0.0,E,A,V*7E
$GPGGA,065646.623,3114.3044596,N,12129.1473084,E,1,21,1.0,2.737,M,11.083,M,0.0,0000*70
$GPESA,065646.623,+0.976,-6.019,-0.279,-1.132,+1.352,-171.652*7A
$GPESD,065646.623,0.000,0.000,0.000,0.000,0.000,0.000,0.000,0.000,0.000*75
$GPRMC,065646.781,A,3114.3039467,N,12129.1473988,E,11.90,40.64,210523,0.0,E,A,V*74
$GPGGA,065646.781,3114.3039467,N,12129.1473988,E,1,21,1.0,2.700,M,11.083,M,0.0,0000*7D
$GPESA,065646.781,+0.992,-6.034,-0.294,-1.121,+1.513,-171.533*70
$GPESD,065646.781,0.000,0.000,0.000,0.000,0.000,0.000,0.000,0.000,0.000*7C
$GPRMC,065646.901,A,3114.3035564,N,12129.1474700,E,11.83,40.53,210523,0.0,E,A,V*73
$GPGGA,065646.901,3114.3035564,N,12129.1474700,E,1,21,1.0,2.669,M,11.083,M,0.0,0000*72
$GPESA,065646.901,+0.992,-5.995,-0.289,-1.137,+1.455,-171.471*78
$GPESD,065646.901,0.000,0.000,0.000,0.000,0.000,0.000,0.000,0.000,0.000*7A
$GPRMC,065647.001,A,3114.3032339,N,12129.1475328,E,11.82,40.48,210523,0.0,E,A,V*76
$GPGGA,065647.001,3114.3032339,N,12129.1475328,E,1,21,1.0,2.642,M,11.083,M,0.0,0000*75
$GPESA,065647.001,+0.995,-5.993,-0.289,-1.126,+1.414,-171.377*75
$GPESD,065647.001,0.000,0.000,0.000,0.000,0.000,0.000,0.000,0.000,0.000*72
$GPRMC,065647.101,A,3114.3029119,N,12129.1475940,E,11.78,40.43,210523,0.0,E,A,V*77
$GPGGA,065647.101,3114.3029119,N,12129.1475940,E,1,21,1.0,2.614,M,11.083,M,0.0,0000*79
$GPESA,065647.101,+0.996,-5.969,-0.289,-1.129,+1.459,-171.286*7B
$GPESD,065647.101,0.000,0.000,0.000,0.000,0.000,0.000,0.000,0.000,0.000*73
$GPRMC,065647.201,A,3114.3025900,N,12129.1476600,E,11.73,40.54,210523,0.0,E,A,V*7D
$GPGGA,065647.201,3114.3025900,N,12129.1476600,E,1,21,1.0,2.580,M,11.083,M,0.0,0000*70
$GPESA,065647.201,+1.002,-5.940,-0.316,-1.133,+1.481,-171.201*70
$GPESD,065647.201,0.000,0.000,0.000,0.000,0.000,0.000,0.000,0.000,0.000*70
$GPRMC,065647.301,A,3114.3022680,N,12129.1477216,E,11.71,40.24,210523,0.0,E,A,V*7B
$GPGGA,065647.301,3114.3022680,N,12129.1477216,E,1,21,1.0,2.553,M,11.083,M,0.0,0000*7D
$GPESA,065647.301,+1.025,-5.929,-0.320,-1.071,+1.489,-171.092*79
$GPESD,065647.301,0.000,0.000,0.000,0.000,0.000,0.000,0.000,0.000,0.000*71
$GPRMC,065647.401,A,3114.3019491,N,12129.1477820,E,11.66,39.93,210523,0.0,E,A,V*7D
$GPGGA,065647.401,3114.3019491,N,12129.1477820,E,1,21,1.0,2.533,M,11.083,M,0.0,0000*79
$GPESA,065647.401,+1.033,-5.903,-0.302,-1.015,+1.496,-170.956*7D
$GPESD,065647.401,0.000,0.000,0.000,0.000,0.000,0.000,0.000,0.000,0.000*76
$GPRMC,065647.502,A,3114.3016312,N,12129.1478428,E,11.64,39.87,210523,0.0,E,A,V*70
$GPGGA,065647.502,3114.3016312,N,12129.1478428,E,1,21,1.0,2.511,M,11.083,M,0.0,0000*73
$GPESA,065647.502,+1.033,-5.891,-0.300,-0.927,+1.470,-170.865*77
$GPESD,065647.502,0.000,0.000,0.000,0.000,0.000,0.000,0.000,0.000,0.000*74
$GPRMC,065647.662,A,3114.3011223,N,12129.1479494,E,11.61,39.01,210523,0.0,E,A,V*7C
$GPGGA,065647.662,3114.3011223,N,12129.1479494,E,1,21,1.0,2.468,M,11.083,M,0.0,0000*7B
$GPESA,065647.662,+1.087,-5.866,-0.293,-0.887,+1.382,-170.696*7D
$GPESD,065647.662,0.000,0.000,0.000,0.000,0.000,0.000,0.000,0.000,0.000*71
$GPRMC,065647.804,A,3114.3006725,N,12129.1480367,E,11.51,38.95,210523,0.0,E,A,V*75
$GPGGA,065647.804,3114.3006725,N,12129.1480367,E,1,21,1.0,2.444,M,11.083,M,0.0,0000*73
$GPESA,065647.804,+1.058,-5.821,-0.253,-0.859,+1.338,-170.558*7D
$GPESD,065647.804,0.000,0.000,0.000,0.000,0.000,0.000,0.000,0.000,0.000*7F
$GPRMC,065647.909,A,3114.3003431,N,12129.1481002,E,11.49,39.31,210523,0.0,E,A,V*7D
$GPGGA,065647.909,3114.3003431,N,12129.1481002,E,1,21,1.0,2.424,M,11.083,M,0.0,0000*7B
$GPESA,065647.909,+1.029,-5.817,-0.248,-0.899,+1.342,-170.463*70
$GPESD,065647.909,0.000,0.000,0.000,0.000,0.000,0.000,0.000,0.000,0.000*73
$GPRMC,065648.022,A,3114.2999889,N,12129.1481780,E,11.46,38.71,210523,0.0,E,A,V*71
$GPGGA,065648.022,3114.2999889,N,12129.1481780,E,1,21,1.0,2.392,M,11.083,M,0.0,0000*77
$GPESA,065648.022,+1.090,-5.786,-0.284,-0.882,+1.317,-170.343*75
$GPESD,065648.022,0.000,0.000,0.000,0.000,0.000,0.000,0.000,0.000,0.000*7C
$GPRMC,065648.155,A,3114.2995748,N,12129.1482573,E,11.44,39.02,210523,0.0,E,A,V*74
$GPGGA,065648.155,3114.2995748,N,12129.1482573,E,1,21,1.0,2.371,M,11.083,M,0.0,0000*78
$GPESA,065648.155,+1.056,-5.785,-0.266,-0.848,+1.310,-170.240*72
$GPESD,065648.155,0.000,0.000,0.000,0.000,0.000,0.000,0.000,0.000,0.000*7D
$GPRMC,065648.287,A,3114.2991639,N,12129.1483293,E,11.38,39.35,210523,0.0,E,A,V*7C
$GPGGA,065648.287,3114.2991639,N,12129.1483293,E,1,21,1.0,2.355,M,11.083,M,0.0,0000*79
$GPESA,065648.287,+1.012,-5.763,-0.239,-0.889,+1.354,-170.171*70
$GPESD,065648.287,0.000,0.000,0.000,0.000,0.000,0.000,0.000,0.000,0.000*71
$GPRMC,065648.402,A,3114.2988055,N,12129.1484016,E,11.36,39.40,210523,0.0,E,A,V*77
$GPGGA,065648.402,3114.2988055,N,12129.1484016,E,1,21,1.0,2.329,M,11.083,M,0.0,0000*75
$GPESA,065648.402,+1.019,-5.748,-0.259,-0.901,+1.401,-170.068*70
$GPESD,065648.402,0.000,0.000,0.000,0.000,0.000,0.000,0.000,0.000,0.000*7A
$GPRMC,065648.522,A,3114.2984330,N,12129.1484808,E,11.34,38.71,210523,0.0,E,A,V*7E
$GPGGA,065648.522,3114.2984330,N,12129.1484808,E,1,21,1.0,2.310,M,11.083,M,0.0,0000*77
$GPESA,065648.522,+1.047,-5.733,-0.231,-0.975,+1.352,-169.686*76
$GPESD,065648.522,0.000,0.000,0.000,0.000,0.000,0.000,0.000,0.000,0.000*79
$GPRMC,065648.623,A,3114.2981231,N,12129.1485435,E,11.30,38.58,210523,0.0,E,A,V*75
$GPGGA,065648.623,3114.2981231,N,12129.1485435,E,1,21,1.0,2.294,M,11.083,M,0.0,0000*7E
$GPESA,065648.623,+1.046,-5.712,-0.219,-0.962,+1.304,-169.541*71
$GPESD,065648.623,0.000,0.000,0.000,0.000,0.000,0.000,0.000,0.000,0.000*7B
$GPRMC,065648.725,A,3114.2978065,N,12129.1486112,E,11.27,38.72,210523,0.0,E,A,V*7A
$GPGGA,065648.725,3114.2978065,N,12129.1486112,E,1,21,1.0,2.272,M,11.083,M,0.0,0000*77
$GPESA,065648.725,+1.037,-5.699,-0.224,-0.920,+1.243,-169.492*77
$GPESD,065648.725,0.000,0.000,0.000,0.000,0.000,0.000,0.000,0.000,0.000*7C
$GPRMC,065648.825,A,3114.2974973,N,12129.1486731,E,11.26,38.79,210523,0.0,E,A,V*7A
$GPGGA,065648.825,3114.2974973,N,12129.1486731,E,1,21,1.0,2.261,M,11.083,M,0.0,0000*7F
$GPESA,065648.825,+1.027,-5.699,-0.216,-0.827,+1.241,-169.400*77
$GPESD,065648.825,0.000,0.000,0.000,0.000,0.000,0.000,0.000,0.000,0.000*73
$GPRMC,065648.925,A,3114.2971880,N,12129.1487315,E,11.29,38.59,210523,0.0,E,A,V*7D
$GPGGA,065648.925,3114.2971880,N,12129.1487315,E,1,22,1.0,2.247,M,11.083,M,0.0,0000*72
$GPESA,065648.925,+1.044,-5.707,-0.219,-0.755,+1.254,-169.328*79
$GPESD,065648.925,0.000,0.000,0.000,0.000,0.000,0.000,0.000,0.000,0.000*72
$GPRMC,065649.080,A,3114.2967102,N,12129.1488315,E,11.31,38.49,210523,0.0,E,A,V*79
$GPGGA,065649.080,3114.2967102,N,12129.1488315,E,1,21,1.0,2.222,M,11.083,M,0.0,0000*7E
$GPESA,065649.080,+1.039,-5.721,-0.198,-0.738,+1.216,-169.247*7F
$GPESD,065649.080,0.000,0.000,0.000,0.000,0.000,0.000,0.000,0.000,0.000*75
$GPRMC,065649.218,A,3114.2962894,N,12129.1489228,E,11.32,38.38,210523,0.0,E,A,V*72
$GPGGA,065649.218,3114.2962894,N,12129.1489228,E,1,22,1.0,2.197,M,11.083,M,0.0,0000*7E
$GPESA,065649.218,+1.050,-5.722,-0.202,-0.796,+1.062,-169.265*75
$GPESD,065649.218,0.000,0.000,0.000,0.000,0.000,0.000,0.000,0.000,0.000*76
$GPRMC,065649.358,A,3114.2958629,N,12129.1490068,E,11.24,38.10,210523,0.0,E,A,V*75
$GPGGA,065649.358,3114.2958629,N,12129.1490068,E,1,23,1.0,2.180,M,11.083,M,0.0,0000*73
$GPESA,065649.358,+1.058,-5.682,-0.193,-0.754,+1.020,-169.388*72
$GPESD,065649.358,0.000,0.000,0.000,0.000,0.000,0.000,0.000,0.000,0.000*73
$GPRMC,065649.488,A,3114.2954667,N,12129.1490878,E,11.24,38.10,210523,0.0,E,A,V*70
$GPGGA,065649.488,3114.2954667,N,12129.1490878,E,1,23,1.0,2.161,M,11.083,M,0.0,0000*79
$GPESA,065649.488,+1.061,-5.683,-0.197,-0.505,+0.914,-169.455*79
$GPESD,065649.488,0.000,0.000,0.000,0.000,0.000,0.000,0.000,0.000,0.000*79
$GPRMC,065649.626,A,3114.2950414,N,12129.1491742,E,11.35,38.64,210523,0.0,E,A,V*70
$GPGGA,065649.626,3114.2950414,N,12129.1491742,E,1,22,1.0,2.149,M,11.083,M,0.0,0000*71
$GPESA,065649.626,+1.024,-5.745,-0.184,-0.270,+0.817,-169.491*78
$GPESD,065649.626,0.000,0.000,0.000,0.000,0.000,0.000,0.000,0.000,0.000*7F
$GPRMC,065649.726,A,3114.2947286,N,12129.1492390,E,11.48,39.01,210523,0.0,E,A,V*7A
$GPGGA,065649.726,3114.2947286,N,12129.1492390,E,1,22,1.0,2.130,M,11.083,M,0.0,0000*7D
$GPESA,065649.726,+1.020,-5.813,-0.202,-0.346,+0.855,-169.430*75
$GPESD,065649.726,0.000,0.000,0.000,0.000,0.000,0.000,0.000,0.000,0.000*7E
$GPRMC,065649.859,A,3114.2943130,N,12129.1493242,E,11.48,38.17,210523,0.0,E,A,V*7E
$GPGGA,065649.859,3114.2943130,N,12129.1493242,E,1,22,1.0,2.107,M,11.083,M,0.0,0000*7B
$GPESA,065649.859,+1.075,-5.805,-0.196,-0.688,+1.000,-169.383*7A
$GPESD,065649.859,0.000,0.000,0.000,0.000,0.000,0.000,0.000,0.000,0.000*79
$GPRMC,065649.974,A,3114.2939518,N,12129.1494000,E,11.44,37.21,210523,0.0,E,A,V*76
$GPGGA,065649.974,3114.2939518,N,12129.1494000,E,1,22,1.0,2.086,M,11.083,M,0.0,0000*7D
$GPESA,065649.974,+1.130,-5.771,-0.184,-0.968,+0.836,-169.377*7D
$GPESD,065649.974,0.000,0.000,0.000,0.000,0.000,0.000,0.000,0.000,0.000*77
$GPRMC,065650.081,A,3114.2936201,N,12129.1494698,E,11.33,37.90,210523,0.0,E,A,V*70
$GPGGA,065650.081,3114.2936201,N,12129.1494698,E,1,22,1.0,2.066,M,11.083,M,0.0,0000*7F
$GPESA,065650.081,+1.082,-5.725,-0.198,-1.042,+0.712,-169.324*7D
$GPESD,065650.081,0.000,0.000,0.000,0.000,0.000,0.000,0.000,0.000,0.000*7C
$GPRMC,065650.181,A,3114.2933114,N,12129.1495364,E,11.23,38.83,210523,0.0,E,A,V*78
$GPGGA,065650.181,3114.2933114,N,12129.1495364,E,1,22,1.0,2.044,M,11.083,M,0.0,0000*7B
$GPESA,065650.181,+1.033,-5.681,-0.234,-0.853,+0.735,-169.255*77
$GPESD,065650.181,0.000,0.000,0.000,0.000,0.000,0.000,0.000,0.000,0.000*7D
$GPRMC,065650.319,A,3114.2928794,N,12129.1496125,E,11.37,39.27,210523,0.0,E,A,V*71
$GPGGA,065650.319,3114.2928794,N,12129.1496125,E,1,22,1.0,2.013,M,11.083,M,0.0,0000*7A
$GPESA,065650.319,+1.028,-5.752,-0.258,-0.649,+0.964,-169.024*70
$GPESD,065650.319,0.000,0.000,0.000,0.000,0.000,0.000,0.000,0.000,0.000*7E
$GPRMC,065650.432,A,3114.2925289,N,12129.1496862,E,11.45,38.05,210523,0.0,E,A,V*75
$GPGGA,065650.432,3114.2925289,N,12129.1496862,E,1,22,1.0,1.989,M,11.083,M,0.0,0000*73
$GPESA,065650.432,+1.105,-5.783,-0.236,-0.632,+0.978,-168.983*70
$GPESD,065650.432,0.000,0.000,0.000,0.000,0.000,0.000,0.000,0.000,0.000*70
$GPRMC,065650.554,A,3114.2921427,N,12129.1497721,E,11.45,37.96,210523,0.0,E,A,V*7E
$GPGGA,065650.554,3114.2921427,N,12129.1497721,E,1,22,1.0,1.965,M,11.083,M,0.0,0000*7F
$GPESA,065650.554,+1.112,-5.781,-0.238,-0.820,+0.840,-168.782*73
$GPESD,065650.554,0.000,0.000,0.000,0.000,0.000,0.000,0.000,0.000,0.000*71
$GPRMC,065650.669,A,3114.2917878,N,12129.1498470,E,11.39,38.20,210523,0.0,E,A,V*71
$GPGGA,065650.669,3114.2917878,N,12129.1498470,E,1,22,1.0,1.942,M,11.084,M,0.0,0000*7B
$GPESA,065650.669,+1.086,-5.751,-0.230,-0.913,+0.816,-168.794*72
$GPESD,065650.669,0.000,0.000,0.000,0.000,0.000,0.000,0.000,0.000,0.000*7C
$GPRMC,065650.779,A,3114.2914523,N,12129.1499085,E,11.23,38.84,210523,0.0,E,A,V*7B
$GPGGA,065650.779,3114.2914523,N,12129.1499085,E,1,23,1.0,1.926,M,11.084,M,0.0,0000*77
$GPESA,065650.779,+1.040,-5.679,-0.247,-0.920,+0.879,-169.015*75
$GPESD,065650.779,0.000,0.000,0.000,0.000,0.000,0.000,0.000,0.000,0.000*7C
$GPRMC,065650.880,A,3114.2911471,N,12129.1499669,E,11.18,39.01,210523,0.0,E,A,V*71
$GPGGA,065650.880,3114.2911471,N,12129.1499669,E,1,23,1.0,1.909,M,11.084,M,0.0,0000*74
$GPESA,065650.880,+1.013,-5.655,-0.229,-0.834,+0.996,-169.071*7A
$GPESD,065650.880,0.000,0.000,0.000,0.000,0.000,0.000,0.000,0.000,0.000*75
$GPRMC,065651.027,A,3114.2906967,N,12129.1500543,E,11.13,38.75,210523,0.0,E,A,V*7A
$GPGGA,065651.027,3114.2906967,N,12129.1500543,E,1,23,1.0,1.887,M,11.084,M,0.0,0000*71
$GPESA,065651.027,+1.024,-5.631,-0.223,-0.775,+1.025,-169.173*7B
$GPESD,065651.027,0.000,0.000,0.000,0.000,0.000,0.000,0.000,0.000,0.000*71
$GPRMC,065651.172,A,3114.2902556,N,12129.1501450,E,11.11,38.73,210523,0.0,E,A,V*77
$GPGGA,065651.172,3114.2902556,N,12129.1501450,E,1,23,1.0,1.854,M,11.084,M,0.0,0000*76
$GPESA,065651.172,+1.039,-5.614,-0.249,-0.880,+1.054,-169.111*7A
$GPESD,065651.172,0.000,0.000,0.000,0.000,0.000,0.000,0.000,0.000,0.000*70
$GPRMC,065651.305,A,3114.2898556,N,12129.1502214,E,11.06,38.22,210523,0.0,E,A,V*70
$GPGGA,065651.305,3114.2898556,N,12129.1502214,E,1,23,1.0,1.827,M,11.084,M,0.0,0000*77
$GPESA,065651.305,+1.055,-5.587,-0.227,-0.999,+1.039,-169.115*75
$GPESD,065651.305,0.000,0.000,0.000,0.000,0.000,0.000,0.000,0.000,0.000*72
$GPRMC,065651.440,A,3114.2894520,N,12129.1503027,E,10.94,38.72,210523,0.0,E,A,V*77
$GPGGA,065651.440,3114.2894520,N,12129.1503027,E,1,23,1.0,1.802,M,11.084,M,0.0,0000*78
$GPESA,065651.440,+1.010,-5.530,-0.224,-1.069,+1.050,-169.052*77
$GPESD,065651.440,0.000,0.000,0.000,0.000,0.000,0.000,0.000,0.000,0.000*74
$GPRMC,065651.540,A,3114.2891568,N,12129.1503637,E,10.84,38.66,210523,0.0,E,A,V*7C
$GPGGA,065651.540,3114.2891568,N,12129.1503637,E,1,24,1.0,1.782,M,11.084,M,0.0,0000*77
$GPESA,065651.540,+1.010,-5.481,-0.229,-1.038,+1.113,-169.020*77
$GPESD,065651.540,0.000,0.000,0.000,0.000,0.000,0.000,0.000,0.000,0.000*75
$GPRMC,065651.650,A,3114.2888313,N,12129.1504301,E,10.75,38.53,210523,0.0,E,A,V*73
$GPGGA,065651.650,3114.2888313,N,12129.1504301,E,1,24,1.0,1.759,M,11.084,M,0.0,0000*76
$GPESA,065651.650,+1.014,-5.431,-0.235,-0.924,+1.177,-168.970*7D
$GPESD,065651.650,0.000,0.000,0.000,0.000,0.000,0.000,0.000,0.000,0.000*77
$GPRMC,065651.768,A,3114.2884811,N,12129.1504984,E,10.72,38.13,210523,0.0,E,A,V*78
$GPGGA,065651.768,3114.2884811,N,12129.1504984,E,1,24,1.0,1.733,M,11.084,M,0.0,0000*72
$GPESA,065651.768,+1.033,-5.411,-0.227,-0.799,+1.305,-168.997*75
$GPESD,065651.768,0.000,0.000,0.000,0.000,0.000,0.000,0.000,0.000,0.000*7D
$GPRMC,065651.910,A,3114.2880622,N,12129.1505842,E,10.72,38.40,210523,0.0,E,A,V*7F
$GPGGA,065651.910,3114.2880622,N,12129.1505842,E,1,24,1.0,1.703,M,11.084,M,0.0,0000*70
$GPESA,065651.910,+1.028,-5.412,-0.248,-0.782,+1.227,-168.952*76
$GPESD,065651.910,0.000,0.000,0.000,0.000,0.000,0.000,0.000,0.000,0.000*7C
$GPRMC,065652.013,A,3114.2877613,N,12129.1506452,E,10.65,38.58,210523,0.0,E,A,V*7D
$GPGGA,065652.013,3114.2877613,N,12129.1506452,E,1,24,1.0,1.680,M,11.084,M,0.0,0000*77
$GPESA,065652.013,+1.015,-5.377,-0.255,-0.907,+1.171,-168.880*74
$GPESD,065652.013,0.000,0.000,0.000,0.000,0.000,0.000,0.000,0.000,0.000*75
$GPRMC,065652.133,A,3114.2874139,N,12129.1507156,E,10.52,38.54,210523,0.0,E,A,V*7A
$GPGGA,065652.133,3114.2874139,N,12129.1507156,E,1,23,1.0,1.654,M,11.084,M,0.0,0000*76
$GPESA,065652.133,+0.997,-5.314,-0.239,-1.042,+1.148,-168.842*77
$GPESD,065652.133,0.000,0.000,0.000,0.000,0.000,0.000,0.000,0.000,0.000*76
$GPRMC,065652.233,A,3114.2871274,N,12129.1507769,E,10.42,38.93,210523,0.0,E,A,V*76
$GPGGA,065652.233,3114.2871274,N,12129.1507769,E,1,23,1.0,1.633,M,11.084,M,0.0,0000*71
$GPESA,065652.233,+0.944,-5.270,-0.206,-1.143,+1.196,-168.779*71
$GPESD,065652.233,0.000,0.000,0.000,0.000,0.000,0.000,0.000,0.000,0.000*75
$GPRMC,065652.366,A,3114.2867572,N,12129.1508524,E,10.25,38.81,210523,0.0,E,A,V*77
$GPGGA,065652.366,3114.2867572,N,12129.1508524,E,1,24,1.0,1.615,M,11.084,M,0.0,0000*71
$GPESA,065652.366,+0.953,-5.182,-0.228,-1.164,+1.282,-168.751*7D
$GPESD,065652.366,0.000,0.000,0.000,0.000,0.000,0.000,0.000,0.000,0.000*74
$GPRMC,065652.466,A,3114.2864775,N,12129.1509092,E,10.17,38.52,210523,0.0,E,A,V*70
$GPGGA,065652.466,3114.2864775,N,12129.1509092,E,1,24,1.0,1.594,M,11.084,M,0.0,0000*73
$GPESA,065652.466,+0.979,-5.133,-0.253,-1.044,+1.323,-168.777*79
$GPESD,065652.466,0.000,0.000,0.000,0.000,0.000,0.000,0.000,0.000,0.000*73
$GPRMC,065652.594,A,3114.2861256,N,12129.1509865,E,10.15,37.81,210523,0.0,E,A,V*7E
$GPGGA,065652.594,3114.2861256,N,12129.1509865,E,1,24,1.0,1.568,M,11.084,M,0.0,0000*7D
$GPESA,065652.594,+1.013,-5.118,-0.241,-0.881,+1.216,-168.817*75
$GPESD,065652.594,0.000,0.000,0.000,0.000,0.000,0.000,0.000,0.000,0.000*7F
$GPRMC,065652.694,A,3114.2858485,N,12129.1510499,E,10.14,37.66,210523,0.0,E,A,V*70
$GPGGA,065652.694,3114.2858485,N,12129.1510499,E,1,24,1.0,1.546,M,11.084,M,0.0,0000*77
$GPESA,065652.694,+1.010,-5.114,-0.224,-0.834,+1.049,-168.833*7A
$GPESD,065652.694,0.000,0.000,0.000,0.000,0.000,0.000,0.000,0.000,0.000*7C
$GPRMC,065652.876,A,3114.2853467,N,12129.1511505,E,10.03,38.92,210523,0.0,E,A,V*72
$GPGGA,065652.876,3114.2853467,N,12129.1511505,E,1,24,1.0,1.517,M,11.084,M,0.0,0000*73
$GPESA,065652.876,+0.907,-5.078,-0.193,-0.896,+1.138,-168.906*7A
$GPESD,065652.876,0.000,0.000,0.000,0.000,0.000,0.000,0.000,0.000,0.000*7E
$GPRMC,065653.021,A,3114.2849561,N,12129.1512225,E,9.93,38.72,210523,0.0,E,A,V*4C
$GPGGA,065653.021,3114.2849561,N,12129.1512225,E,1,25,1.0,1.493,M,11.084,M,0.0,0000*7E
$GPESA,065653.021,+0.926,-5.017,-0.218,-0.899,+1.247,-168.904*7D
$GPESD,065653.021,0.000,0.000,0.000,0.000,0.000,0.000,0.000,0.000,0.000*75
$GPRMC,065653.157,A,3114.2845951,N,12129.1512973,E,9.74,37.97,210523,0.0,E,A,V*4A
$GPGGA,065653.157,3114.2845951,N,12129.1512973,E,1,25,1.0,1.469,M,11.084,M,0.0,0000*70
$GPESA,065653.157,+0.955,-4.914,-0.218,-0.983,+1.130,-168.940*7B
$GPESD,065653.157,0.000,0.000,0.000,0.000,0.000,0.000,0.000,0.000,0.000*75
$GPRMC,065653.269,A,3114.2843027,N,12129.1513575,E,9.50,38.18,210523,0.0,E,A,V*4F
$GPGGA,065653.269,3114.2843027,N,12129.1513575,E,1,25,1.0,1.449,M,11.084,M,0.0,0000*79
$GPESA,065653.269,+0.921,-4.796,-0.215,-1.038,+0.962,-168.964*7F
$GPESD,065653.269,0.000,0.000,0.000,0.000,0.000,0.000,0.000,0.000,0.000*7B
$GPRMC,065653.384,A,3114.2840085,N,12129.1514140,E,9.24,38.93,210523,0.0,E,A,V*43
$GPGGA,065653.384,3114.2840085,N,12129.1514140,E,1,25,1.0,1.429,M,11.084,M,0.0,0000*73
$GPESA,065653.384,+0.852,-4.670,-0.205,-1.066,+0.932,-168.961*7B
$GPESD,065653.384,0.000,0.000,0.000,0.000,0.000,0.000,0.000,0.000,0.000*79
$GPRMC,065653.509,A,3114.2836945,N,12129.1514724,E,8.99,39.13,210523,0.0,E,A,V*4E
$GPGGA,065653.509,3114.2836945,N,12129.1514724,E,1,25,1.0,1.407,M,11.084,M,0.0,0000*7C
$GPESA,065653.509,+0.820,-4.546,-0.203,-1.074,+1.023,-168.973*75
$GPESD,065653.509,0.000,0.000,0.000,0.000,0.000,0.000,0.000,0.000,0.000*7A
$GPRMC,065653.644,A,3114.2833713,N,12129.1515419,E,8.67,38.73,210523,0.0,E,A,V*46
$GPGGA,065653.644,3114.2833713,N,12129.1515419,E,1,25,1.0,1.383,M,11.084,M,0.0,0000*79
$GPESA,065653.644,+0.821,-4.381,-0.210,-1.031,+0.973,-168.922*79
$GPESD,065653.644,0.000,0.000,0.000,0.000,0.000,0.000,0.000,0.000,0.000*70
$GPRMC,065653.750,A,3114.2831256,N,12129.1515992,E,8.48,38.09,210523,0.0,E,A,V*4A
$GPGGA,065653.750,3114.2831256,N,12129.1515992,E,1,25,1.0,1.362,M,11.084,M,0.0,0000*7A
$GPESA,065653.750,+0.834,-4.276,-0.204,-0.941,+0.930,-168.846*7E
$GPESD,065653.750,0.000,0.000,0.000,0.000,0.000,0.000,0.000,0.000,0.000*74
$GPRMC,065653.870,A,3114.2828547,N,12129.1516551,E,8.25,37.85,210523,0.0,E,A,V*48
$GPGGA,065653.870,3114.2828547,N,12129.1516551,E,1,25,1.0,1.345,M,11.084,M,0.0,0000*7D
$GPESA,065653.870,+0.830,-4.159,-0.210,-0.968,+0.782,-168.775*7F
$GPESD,065653.870,0.000,0.000,0.000,0.000,0.000,0.000,0.000,0.000,0.000*79
$GPRMC,065653.985,A,3114.2826004,N,12129.1517059,E,7.98,38.42,210523,0.0,E,A,V*4E
$GPGGA,065653.985,3114.2826004,N,12129.1517059,E,1,25,1.0,1.325,M,11.084,M,0.0,0000*70
$GPESA,065653.985,+0.781,-4.023,-0.212,-1.028,+0.716,-168.734*7B
$GPESD,065653.985,0.000,0.000,0.000,0.000,0.000,0.000,0.000,0.000,0.000*72
$GPRMC,065654.105,A,3114.2823426,N,12129.1517572,E,7.67,38.57,210523,0.0,E,A,V*40
$GPGGA,065654.105,3114.2823426,N,12129.1517572,E,1,24,1.0,1.311,M,11.084,M,0.0,0000*7C
$GPESA,065654.105,+0.738,-3.873,-0.194,-1.066,+0.667,-168.689*73
$GPESD,065654.105,0.000,0.000,0.000,0.000,0.000,0.000,0.000,0.000,0.000*75
$GPRMC,065654.217,A,3114.2821129,N,12129.1518068,E,7.40,38.23,210523,0.0,E,A,V*4F
$GPGGA,065654.217,3114.2821129,N,12129.1518068,E,1,24,1.0,1.294,M,11.084,M,0.0,0000*79
$GPESA,065654.217,+0.726,-3.733,-0.186,-1.016,+0.654,-168.617*74
$GPESD,065654.217,0.000,0.000,0.000,0.000,0.000,0.000,0.000,0.000,0.000*75
$GPRMC,065654.318,A,3114.2819151,N,12129.1518504,E,7.16,38.34,210523,0.0,E,A,V*4F
$GPGGA,065654.318,3114.2819151,N,12129.1518504,E,1,25,1.0,1.280,M,11.084,M,0.0,0000*78
$GPESA,065654.318,+0.691,-3.614,-0.168,-1.007,+0.673,-168.562*77
$GPESD,065654.318,0.000,0.000,0.000,0.000,0.000,0.000,0.000,0.000,0.000*7B
$GPRMC,065654.418,A,3114.2817227,N,12129.1518862,E,6.91,38.65,210523,0.0,E,A,V*43
$GPGGA,065654.418,3114.2817227,N,12129.1518862,E,1,23,1.0,1.265,M,11.084,M,0.0,0000*73
$GPESA,065654.418,+0.658,-3.490,-0.168,-1.016,+0.716,-168.536*78
$GPESD,065654.418,0.000,0.000,0.000,0.000,0.000,0.000,0.000,0.000,0.000*7C
$GPRMC,065654.548,A,3114.2814869,N,12129.1519330,E,6.56,39.04,210523,0.0,E,A,V*44
$GPGGA,065654.548,3114.2814869,N,12129.1519330,E,1,23,1.0,1.246,M,11.084,M,0.0,0000*78
$GPESA,065654.548,+0.636,-3.308,-0.203,-0.939,+0.721,-168.434*7E
$GPESD,065654.548,0.000,0.000,0.000,0.000,0.000,0.000,0.000,0.000,0.000*78
$GPRMC,065654.688,A,3114.2812402,N,12129.1519891,E,6.30,38.33,210523,0.0,E,A,V*49
$GPGGA,065654.688,3114.2812402,N,12129.1519891,E,1,24,1.0,1.219,M,11.084,M,0.0,0000*7D
$GPESA,065654.688,+0.642,-3.172,-0.203,-0.776,+0.598,-168.369*77
$GPESD,065654.688,0.000,0.000,0.000,0.000,0.000,0.000,0.000,0.000,0.000*77
$GPRMC,065654.828,A,3114.2810042,N,12129.1520310,E,6.18,38.28,210523,0.0,E,A,V*47
$GPGGA,065654.828,3114.2810042,N,12129.1520310,E,1,24,1.0,1.211,M,11.084,M,0.0,0000*7B
$GPESA,065654.828,+0.604,-3.119,-0.153,-0.695,+0.580,-168.121*71
$GPESD,065654.828,0.000,0.000,0.000,0.000,0.000,0.000,0.000,0.000,0.000*73
$GPRMC,065654.948,A,3114.2808052,N,12129.1520705,E,6.04,39.47,210523,0.0,E,A,V*4D
$GPGGA,065654.948,3114.2808052,N,12129.1520705,E,1,24,1.0,1.191,M,11.084,M,0.0,0000*7F
$GPESA,065654.948,+0.557,-3.053,-0.166,-0.677,+0.536,-168.159*74
$GPESD,065654.948,0.000,0.000,0.000,0.000,0.000,0.000,0.000,0.000,0.000*74
$GPRMC,065655.068,A,3114.2806165,N,12129.1521044,E,5.93,39.25,210523,0.0,E,A,V*46
$GPGGA,065655.068,3114.2806165,N,12129.1521044,E,1,24,1.0,1.183,M,11.084,M,0.0,0000*7E
$GPESA,065655.068,+0.546,-2.996,-0.148,-0.642,+0.564,-168.035*79
$GPESD,065655.068,0.000,0.000,0.000,0.000,0.000,0.000,0.000,0.000,0.000*7E
$GPRMC,065655.218,A,3114.2803793,N,12129.1521530,E,5.81,39.07,210523,0.0,E,A,V*4C
$GPGGA,065655.218,3114.2803793,N,12129.1521530,E,1,24,1.0,1.162,M,11.084,M,0.0,0000*78
$GPESA,065655.218,+0.547,-2.935,-0.156,-0.580,+0.699,-168.005*74
$GPESD,065655.218,0.000,0.000,0.000,0.000,0.000,0.000,0.000,0.000,0.000*7B
$GPRMC,065655.351,A,3114.2801720,N,12129.1521941,E,5.73,38.58,210523,0.0,E,A,V*46
$GPGGA,065655.351,3114.2801720,N,12129.1521941,E,1,24,1.0,1.148,M,11.084,M,0.0,0000*7C
$GPESA,065655.351,+0.559,-2.889,-0.157,-0.506,+0.774,-167.990*76
$GPESD,065655.351,0.000,0.000,0.000,0.000,0.000,0.000,0.000,0.000,0.000*77
$GPRMC,065655.484,A,3114.2799679,N,12129.1522358,E,5.70,37.88,210523,0.0,E,A,V*4A
$GPGGA,065655.484,3114.2799679,N,12129.1522358,E,1,24,1.0,1.136,M,11.084,M,0.0,0000*78
$GPESA,065655.484,+0.583,-2.868,-0.163,-0.504,+0.747,-167.878*73
$GPESD,065655.484,0.000,0.000,0.000,0.000,0.000,0.000,0.000,0.000,0.000*78
$GPRMC,065655.626,A,3114.2797485,N,12129.1522871,E,5.66,37.43,210523,0.0,E,A,V*4F
$GPGGA,065655.626,3114.2797485,N,12129.1522871,E,1,24,1.0,1.113,M,11.084,M,0.0,0000*7A
$GPESA,065655.626,+0.607,-2.841,-0.185,-0.540,+0.581,-167.820*70
$GPESD,065655.626,0.000,0.000,0.000,0.000,0.000,0.000,0.000,0.000,0.000*72
$GPRMC,065655.739,A,3114.2795735,N,12129.1523207,E,5.63,38.16,210523,0.0,E,A,V*4A
$GPGGA,065655.739,3114.2795735,N,12129.1523207,E,1,24,1.0,1.102,M,11.084,M,0.0,0000*75
$GPESA,065655.739,+0.577,-2.835,-0.177,-0.563,+0.512,-167.756*70
$GPESD,065655.739,0.000,0.000,0.000,0.000,0.000,0.000,0.000,0.000,0.000*7D
$GPRMC,065655.851,A,3114.2794019,N,12129.1523542,E,5.61,38.55,210523,0.0,E,A,V*40
$GPGGA,065655.851,3114.2794019,N,12129.1523542,E,1,23,1.0,1.096,M,11.084,M,0.0,0000*71
$GPESA,065655.851,+0.542,-2.831,-0.144,-0.562,+0.541,-167.658*7B
$GPESD,065655.851,0.000,0.000,0.000,0.000,0.000,0.000,0.000,0.000,0.000*7C
$GPRMC,065655.992,A,3114.2791958,N,12129.1523992,E,5.53,37.92,210523,0.0,E,A,V*43
$GPGGA,065655.992,3114.2791958,N,12129.1523992,E,1,23,1.0,1.080,M,11.084,M,0.0,0000*70
$GPESA,065655.992,+0.551,-2.786,-0.136,-0.566,+0.661,-167.652*7E
$GPESD,065655.992,0.000,0.000,0.000,0.000,0.000,0.000,0.000,0.000,0.000*72
$GPRMC,065656.099,A,3114.2790336,N,12129.1524351,E,5.50,37.09,210523,0.0,E,A,V*42
$GPGGA,065656.099,3114.2790336,N,12129.1524351,E,1,22,1.0,1.073,M,11.084,M,0.0,0000*7D
$GPESA,065656.099,+0.571,-2.771,-0.128,-0.609,+0.774,-167.627*77
$GPESD,065656.099,0.000,0.000,0.000,0.000,0.000,0.000,0.000,0.000,0.000*73
$GPRMC,065656.214,A,3114.2788622,N,12129.1524881,E,5.49,35.35,210523,0.0,E,A,V*4F
$GPGGA,065656.214,3114.2788622,N,12129.1524881,E,1,22,1.0,1.061,M,11.084,M,0.0,0000*76
$GPESA,065656.214,+0.625,-2.751,-0.131,-0.662,+0.792,-167.963*72
$GPESD,065656.214,0.000,0.000,0.000,0.000,0.000,0.000,0.000,0.000,0.000*74
$GPRMC,065656.317,A,3114.2787077,N,12129.1525229,E,5.47,35.61,210523,0.0,E,A,V*42
$GPGGA,065656.317,3114.2787077,N,12129.1525229,E,1,22,1.0,1.044,M,11.084,M,0.0,0000*73
$GPESA,065656.317,+0.629,-2.740,-0.156,-0.718,+0.818,-168.033*7F
